{"version": 0.6, "generator": "Overpass API 0.7.62.8 e802775f", "osm3s": {"timestamp_osm_base": "2025-11-29T14:18:29Z", "copyright": "The data included in this document is from www.openstreetmap.org. The data is made available under ODbL."}, "elements": [{"type": "node", "id": 308894803, "lat": 28.6069461, "lon": 77.2299189, "tags": {"amenity": "restaurant", "created_by": "Potlatch 0.10f"}}, {"type": "node", "id": 354261569, "lat": 28.5397827, "lon": 77.1863505}, {"type": "node", "id": 354261571, "lat": 28.5397264, "lon": 77.1865235}, {"type": "node", "id": 354261573, "lat": 28.5395961, "lon": 77.1864685}, {"type": "node", "id": 354261575, "lat": 28.5396524, "lon": 77.1862955}, {"type": "node", "id": 438049083, "lat": 28.5663466, "lon": 77.2340571, "tags": {"amenity": "restaurant", "name": "Flavours Restaurant"}}, {"type": "node", "id": 449452338, "lat": 28.5192021, "lon": 77.1611109, "tags": {"amenity": "restaurant"}}, {"type": "node", "id": 449453229, "lat": 28.522664, "lon": 77.1655706, "tags": {"amenity": "restaurant", "name": "Nirula's"}}, {"type": "node", "id": 544510362, "lat": 28.5342313, "lon": 77.2145639, "tags": {"amenity": "restaurant", "name": "Aggarwal Sweets"}}, {"type": "node", "id": 544510428, "lat": 28.5308092, "lon": 77.2179083, "tags": {"amenity": "restaurant", "name": "Raju Dhaba"}}, {"type": "node", "id": 560417307, "lat": 28.5369219, "lon": 77.2118299, "tags": {"amenity": "restaurant", "name": "Sagar Ratna"}}, {"type": "node", "id": 599901621, "lat": 28.6740388, "lon": 77.1037651, "tags": {"amenity": "restaurant", "cuisine": "south indian", "name": "Sagarrathna"}}, {"type": "node", "id": 762031785, "lat": 28.7988933, "lon": 77.0352522, "tags": {"amenity": "restaurant", "name": "Aggarwal Restaurant"}}, {"type": "node", "id": 928550280, "lat": 28.6407045, "lon": 77.2105994, "tags": {"amenity": "restaurant", "cuisine": "international", "diet:vegetarian": "yes", "name": "Hotel Metropolis", "outdoor_seating": "yes", "tourism": "hotel"}}, {"type": "node", "id": 928567979, "lat": 28.635243, "lon": 77.2196937, "tags": {"amenity": "restaurant", "diet:vegan": "yes", "diet:vegetarian": "yes", "disused": "yes", "name": "Piccadelhi"}}, {"type": "node", "id": 1179282274, "lat": 28.6361048, "lon": 77.0652214, "tags": {"amenity": "restaurant", "name": "Aangan Restuarant"}}, {"type": "node", "id": 1241932078, "lat": 28.6333595, "lon": 77.2083619, "tags": {"amenity": "restaurant", "ele": "235.41", "name": "Bangla Foods", "source:ele": "gpx"}}, {"type": "node", "id": 1374470951, "lat": 28.6234479, "lon": 77.0919202, "tags": {"amenity": "restaurant"}}, {"type": "node", "id": 1414804432, "lat": 28.6653614, "lon": 77.2842171, "tags": {"amenity": "restaurant", "name": "Agarwal Sweet Place"}}, {"type": "node", "id": 1431223466, "lat": 28.7035418, "lon": 77.2283038, "tags": {"amenity": "restaurant", "diet:vegetarian": "only", "name": "Bai Dur Ya"}}, {"type": "node", "id": 1442029370, "lat": 28.5622333, "lon": 77.2688316, "tags": {"amenity": "restaurant"}}, {"type": "node", "id": 1442029478, "lat": 28.562363, "lon": 77.2686705, "tags": {"amenity": "restaurant", "cuisine": "indian", "name": "Dawat Khana Restaurant"}}, {"type": "node", "id": 1556466158, "lat": 28.6253844, "lon": 77.2181175, "tags": {"addr:city": "New Delhi", "amenity": "restaurant", "cuisine": "thai", "name": "Spice Route"}}, {"type": "node", "id": 1556467803, "lat": 28.5995254, "lon": 77.226395, "tags": {"amenity": "restaurant", "cuisine": "thai", "name": "Good Earth", "website": "https://www.goodearth.in/"}}, {"type": "node", "id": 1563325267, "lat": 28.6297269, "lon": 77.2320267, "tags": {"amenity": "restaurant", "name": "Nathus Sweets"}}, {"type": "node", "id": 1563325307, "lat": 28.629465, "lon": 77.2318985, "tags": {"amenity": "restaurant", "cuisine": "north_indian;south_indian;chinese", "name": "Bengali Sweet House", "phone": "+91-11-2335-3310;+91-11-2331-9224", "tables": "18"}}, {"type": "node", "id": 1582385446, "lat": 28.5384129, "lon": 77.1328702, "tags": {"amenity": "restaurant", "cuisine": "regional"}}, {"type": "node", "id": 1772533341, "lat": 28.6131958, "lon": 76.9857968, "tags": {"amenity": "restaurant", "name": "Tyagi Restaurant"}}, {"type": "node", "id": 1792704234, "lat": 28.6170799, "lon": 76.9840106, "tags": {"amenity": "restaurant"}}, {"type": "node", "id": 1792722316, "lat": 28.6096134, "lon": 76.9853973, "tags": {"amenity": "restaurant", "name": "Agarwal Sweet Corner"}}, {"type": "node", "id": 1792774316, "lat": 28.6174849, "lon": 76.9840696, "tags": {"amenity": "restaurant"}}, {"type": "node", "id": 1795902652, "lat": 28.5668787, "lon": 77.2467816, "tags": {"amenity": "restaurant", "cuisine": "chinese"}}, {"type": "node", "id": 1811342230, "lat": 28.5705375, "lon": 76.9074736, "tags": {"amenity": "restaurant"}}, {"type": "node", "id": 1833070236, "lat": 28.5307368, "lon": 77.2457792, "tags": {"amenity": "restaurant", "name": "Culinaire"}}, {"type": "node", "id": 1837410841, "lat": 28.5455297, "lon": 77.3058508, "tags": {"amenity": "restaurant", "cuisine": "indian", "name": "Zooby's Kitchen,Al-Bake"}}, {"type": "node", "id": 1940318525, "lat": 28.6409319, "lon": 77.2137081, "tags": {"amenity": "restaurant", "name": "Club India Restaurant"}}, {"type": "node", "id": 1940318549, "lat": 28.641034, "lon": 77.213836, "tags": {"amenity": "restaurant", "name": "New Mt. Everest Restaurant"}}, {"type": "node", "id": 1966254717, "lat": 28.6169212, "lon": 77.225998, "tags": {"addr:housenumber": "1", "addr:street": "Ashoka Road, New Delhi", "amenity": "restaurant", "cuisine": "asian;indian", "name": "Andhra Bhawan Canteen", "name:ru": "\u041a\u0430\u0444\u0435 Andhra Pradesh Bhavan", "opening_hours": "Mo-Su 08:00-22:00, 00:00-15:00, 07:30-22:00"}}, {"type": "node", "id": 2102480338, "lat": 28.5393791, "lon": 77.2009833, "tags": {"amenity": "restaurant", "man_made": "Ashram Dining Hall"}}, {"type": "node", "id": 2106101596, "lat": 28.6494286, "lon": 77.2337411, "tags": {"addr:housenumber": "19", "addr:postcode": "110006", "addr:street": "Kalan Mahal Road", "amenity": "restaurant", "cuisine": "chicken;kebab;curry;indian", "name": "Karim's", "name:es": "Karim's", "website": "http://www.karimhoteldelhi.com", "wikidata": "Q17064086", "wikimedia_commons": "Category:Karim's", "wikipedia": "en:Karim's"}}, {"type": "node", "id": 2106110096, "lat": 28.6560678, "lon": 77.2303749, "tags": {"addr:city": "Delhi", "addr:postcode": "110006", "addr:street": "Paranthe Wali Gali", "addr:suburb": "Chandni Chowk", "addr:unit": "36", "amenity": "restaurant", "contact:mobile": "+91-99-7199-7140;+91-98916-64131;+91-93507-14662", "cuisine": "indian;parantha", "level": "0", "name": "Pandit Kanhaiya Lal Durga Prashad Dixit Paranthe Wala", "name:hi": "\u092a\u0902\u0921\u093f\u0924 \u0915\u0928\u094d\u0939\u0948\u092f\u093e \u0932\u093e\u0932 \u0926\u0941\u0930\u094d\u0917\u093e \u092a\u094d\u0930\u0936\u093e\u0926 \u0926\u0940\u0915\u094d\u0937\u093f\u0924 \u092a\u0930\u093e\u0902\u0920\u0947 \u0935\u093e\u0932\u093e", "outdoor_seating": "no", "start_date": "1875"}}, {"type": "node", "id": 2106114484, "lat": 28.6468875, "lon": 77.2399805, "tags": {"amenity": "restaurant", "check_date": "2024-12-22", "diet:vegetarian": "only", "name": "Moti Mahal"}}, {"type": "node", "id": 2327524028, "lat": 28.6323764, "lon": 77.2172154, "tags": {"addr:city": "New Delhi", "amenity": "restaurant", "cuisine": "asian;chinese;thai", "name": "Berco's"}}, {"type": "node", "id": 2416151557, "lat": 28.589224, "lon": 77.225738, "tags": {"amenity": "restaurant", "check_date": "2023-10-20", "level": "0", "name": "All American Diner", "outdoor_seating": "yes"}}, {"type": "node", "id": 2422518839, "lat": 28.5536129, "lon": 77.1942284, "tags": {"addr:city": "New Delhi", "addr:housename": "50A Second Floor", "addr:postcode": "110017", "addr:street": "Hauz Khas Village Road", "alt_name": "Yeti", "amenity": "restaurant", "check_date": "2024-07-22", "cuisine": "asian", "name": "Lama Kitchen Himalayan Cook House", "phone": "+911141008883", "website": "https://lamakitchenhkv.wixsite.com/mysite/menu", "wheelchair": "no"}}, {"type": "node", "id": 2429556253, "lat": 28.5575626, "lon": 77.1640349, "tags": {"amenity": "restaurant", "brand": "Pizza Hut", "brand:wikidata": "Q191615", "brand:wikipedia": "en:Pizza Hut", "contact:phone": "+91-11-3988-3988", "cuisine": "pizza", "name": "Pizza Hut", "wheelchair": "no"}}, {"type": "node", "id": 2437002064, "lat": 28.5185318, "lon": 77.2942151}, {"type": "node", "id": 2437002068, "lat": 28.5187043, "lon": 77.2947591}, {"type": "node", "id": 2437002069, "lat": 28.5185085, "lon": 77.2948756}, {"type": "node", "id": 2437002070, "lat": 28.5183184, "lon": 77.2943181}, {"type": "node", "id": 2443106660, "lat": 28.6705911, "lon": 77.1339317, "tags": {"amenity": "restaurant", "name": "The Great Kebab Factory"}}, {"type": "node", "id": 2453781130, "lat": 28.4965669, "lon": 77.1846642, "tags": {"addr:postcode": "110074", "addr:street": "Chattarpur Main Road", "amenity": "restaurant", "cuisine": "indian", "name": "Ajit Khalsa Dhaba", "phone": "+911126801804"}}, {"type": "node", "id": 2591114289, "lat": 28.6306895, "lon": 77.2160507, "tags": {"addr:city": "New Delhi", "addr:housename": "Mohan Singh Place", "addr:postcode": "110001", "addr:street": "Baba Kharak Singh Marg", "addr:suburb": "Connaught Place", "amenity": "restaurant", "brand": "Indian Coffee House", "brand:wikidata": "Q3595301", "check_date": "2024-12-23", "contact:phone": "+91-11-2334-2994", "cuisine": "coffee_shop;indian", "diet:vegetarian": "yes", "level": "2", "name": "Indian Coffee House", "opening_hours": "08:30-21:00", "operator": "Indian Coffee Workers' Cooperative Society Limited", "outdoor_seating": "yes", "reservation": "no", "service:electricity": "ask", "start_date": "1957", "website": "http://indiancoffeehouse.com/", "wheelchair": "yes"}}, {"type": "node", "id": 2592537223, "lat": 28.6353527, "lon": 77.220063, "tags": {"addr:postcode": "110001", "air_conditioning": "yes", "amenity": "restaurant", "cuisine": "pizza;indian;burger;italian;chinese;sandwich;coffee_shop", "delivery": "yes", "diet:vegan": "yes", "diet:vegetarian": "yes", "name": "Hira Sweets", "opening_hours": "Mo-Su 08:00-23:00", "phone": "+91-97736 13336", "takeaway": "yes"}}, {"type": "node", "id": 2592537225, "lat": 28.6411417, "lon": 77.2137445, "tags": {"amenity": "restaurant", "name": "Sayam Roof Top Restaurant"}}, {"type": "node", "id": 2709534496, "lat": 28.6337495, "lon": 77.2230833, "tags": {"addr:city": "New Delhi", "addr:postcode": "110001", "addr:street": "Radial Road 6", "amenity": "restaurant", "capacity": "50", "name": "Keshav Restaurant", "opening_hours": "Mo-Su 10:00-18:00", "phone": "+91-90154-84272"}}, {"type": "node", "id": 3205829283, "lat": 28.499764, "lon": 77.2370308, "tags": {"amenity": "restaurant", "name": "ccd"}}, {"type": "node", "id": 3242109311, "lat": 28.6409844, "lon": 77.2137687, "tags": {"amenity": "restaurant", "cuisine": "indian", "name": "The Exotic Rooftop Restaurant", "opening_hours": "Mo-Su 08:00-23:00"}}, {"type": "node", "id": 3250376814, "lat": 28.6414451, "lon": 77.2132453, "tags": {"amenity": "restaurant", "cuisine": "korean", "name": "\uc27c\ud130", "name:en": "Shimtur", "name:fr": "Shimtur"}}, {"type": "node", "id": 3250377275, "lat": 28.5501843, "lon": 77.2517872, "tags": {"amenity": "restaurant", "cuisine": "chinese", "name": "Royal China"}}, {"type": "node", "id": 3269429079, "lat": 28.6403009, "lon": 77.2131013, "tags": {"addr:housenumber": "4986", "addr:street": "Ramdwara Road", "amenity": "restaurant", "diet:vegetarian": "yes", "name": "Tadka", "name:es": "Tadka", "opening_hours": "Mo-Su 09:00-22:30"}}, {"type": "node", "id": 3386169859, "lat": 28.527614, "lon": 77.2468884, "tags": {"amenity": "restaurant", "delivery": "yes", "name": "Green Chick Chop", "smoking": "no", "takeaway": "yes"}}, {"type": "node", "id": 3386169860, "lat": 28.5276128, "lon": 77.2470133, "tags": {"amenity": "restaurant", "cuisine": "Indian,Mughlai", "delivery": "yes", "name": "Qureshi", "takeaway": "yes"}}, {"type": "node", "id": 3386169861, "lat": 28.5276595, "lon": 77.2467941, "tags": {"amenity": "restaurant", "cuisine": "asian", "delivery": "yes", "name": "Call it Asian", "short_name": "CIA", "takeaway": "yes", "toilets": "no"}}, {"type": "node", "id": 3390001349, "lat": 28.5280616, "lon": 77.2561701, "tags": {"amenity": "restaurant", "cuisine": "south_indian", "name": "Kwality Sweets and Restaurant", "phone": "+91-96508-08949;+91-92125-15088"}}, {"type": "node", "id": 3394398827, "lat": 28.5323178, "lon": 77.2427574, "tags": {"amenity": "restaurant", "name": "Not Just Paranthas"}}, {"type": "node", "id": 3395916095, "lat": 28.5321582, "lon": 77.2506614, "tags": {"amenity": "restaurant"}}, {"type": "node", "id": 3404446540, "lat": 28.5277319, "lon": 77.2471116, "tags": {"amenity": "restaurant", "name": "Oriental"}}, {"type": "node", "id": 3404446571, "lat": 28.5400918, "lon": 77.234394, "tags": {"amenity": "restaurant", "cuisine": "indian", "name": "Chehel Pehel"}}, {"type": "node", "id": 3404446572, "lat": 28.5399337, "lon": 77.2403199, "tags": {"amenity": "restaurant", "cuisine": "ice_cream", "name": "Gianis Ice Cream"}}, {"type": "node", "id": 3424254864, "lat": 28.6025805, "lon": 77.2409575, "tags": {"amenity": "restaurant", "name": "Nathu Sweets"}}, {"type": "node", "id": 3428539645, "lat": 28.5346066, "lon": 77.2436003, "tags": {"amenity": "restaurant", "name": "Chocolateria San Churro"}}, {"type": "node", "id": 3476217443, "lat": 28.6950985, "lon": 77.2042477, "tags": {"amenity": "restaurant", "cuisine": "italian", "level": "2", "name": "Big Yellow Door", "toilets": "yes", "toilets:access": "customers"}}, {"type": "node", "id": 3476217629, "lat": 28.6948692, "lon": 77.2042864, "tags": {"amenity": "restaurant", "name": "Dhobhi Mart;Rico's"}}, {"type": "node", "id": 3503120597, "lat": 28.5287087, "lon": 77.2126175, "tags": {"addr:housenumber": "92", "addr:street": "Hauz Rani", "amenity": "restaurant", "name": "Afghan Restaurant"}}, {"type": "node", "id": 3508300432, "lat": 28.532347, "lon": 77.2427911, "tags": {"amenity": "restaurant", "name": "Zingo Star"}}, {"type": "node", "id": 3508300434, "lat": 28.5327962, "lon": 77.2433094, "tags": {"amenity": "restaurant", "cuisine": "chinese", "name": "China Garden"}}, {"type": "node", "id": 3508300435, "lat": 28.5328507, "lon": 77.2433747, "tags": {"amenity": "restaurant", "cuisine": "indian", "name": "Angrezi Dhaba"}}, {"type": "node", "id": 3508300439, "lat": 28.5332859, "lon": 77.2416903, "tags": {"amenity": "restaurant", "cuisine": "chinese", "name": "Hao Shi Nian Nian"}}, {"type": "node", "id": 3508300440, "lat": 28.5335921, "lon": 77.2421395, "tags": {"amenity": "restaurant", "name": "Yeti"}}, {"type": "node", "id": 3523109181, "lat": 28.6117129, "lon": 77.3358773, "tags": {"amenity": "restaurant", "cuisine": "regional", "name": "Aggarwal"}}, {"type": "node", "id": 3523110361, "lat": 28.6114967, "lon": 77.3360041, "tags": {"amenity": "restaurant", "cuisine": "regional", "name": "Raj Restuarant"}}, {"type": "node", "id": 3523110671, "lat": 28.6116229, "lon": 77.3357988, "tags": {"amenity": "restaurant", "cuisine": "regional", "name": "Bikaner"}}, {"type": "node", "id": 3546016926, "lat": 28.6014076, "lon": 77.1998574}, {"type": "node", "id": 3546016928, "lat": 28.6014093, "lon": 77.1996341}, {"type": "node", "id": 3546017194, "lat": 28.6021864, "lon": 77.2000637}, {"type": "node", "id": 3546017195, "lat": 28.6022106, "lon": 77.1996035}, {"type": "node", "id": 3555955507, "lat": 28.7058631, "lon": 77.2121825, "tags": {"addr:city": "New delhi", "addr:postcode": "110009", "addr:street": "Indra Vihar, north delhi", "amenity": "restaurant", "name": "Miglani restaurant"}}, {"type": "node", "id": 3558260819, "lat": 28.6517348, "lon": 77.128987}, {"type": "node", "id": 3558260829, "lat": 28.6517601, "lon": 77.1291244}, {"type": "node", "id": 3558260842, "lat": 28.65182, "lon": 77.1289667}, {"type": "node", "id": 3558260846, "lat": 28.6518453, "lon": 77.1291041}, {"type": "node", "id": 3563305773, "lat": 28.63396, "lon": 77.1113582}, {"type": "node", "id": 3563305774, "lat": 28.63396, "lon": 77.1115019}, {"type": "node", "id": 3563305929, "lat": 28.6340609, "lon": 77.1113582}, {"type": "node", "id": 3563305930, "lat": 28.6340609, "lon": 77.1115019}, {"type": "node", "id": 3563387438, "lat": 28.6292468, "lon": 77.1368613}, {"type": "node", "id": 3563387474, "lat": 28.6295237, "lon": 77.1370098}, {"type": "node", "id": 3565118342, "lat": 28.6015425, "lon": 77.1996355}, {"type": "node", "id": 3565118343, "lat": 28.6015435, "lon": 77.1995065}, {"type": "node", "id": 3565118345, "lat": 28.6015992, "lon": 77.1998593}, {"type": "node", "id": 3565118346, "lat": 28.6015999, "lon": 77.1997675}, {"type": "node", "id": 3565118348, "lat": 28.6017329, "lon": 77.2001484}, {"type": "node", "id": 3565118349, "lat": 28.6017359, "lon": 77.1997689}, {"type": "node", "id": 3565118352, "lat": 28.6018991, "lon": 77.1998654}, {"type": "node", "id": 3565118353, "lat": 28.6019005, "lon": 77.1996965}, {"type": "node", "id": 3565118354, "lat": 28.6020349, "lon": 77.1998668}, {"type": "node", "id": 3565118355, "lat": 28.6020362, "lon": 77.1996979}, {"type": "node", "id": 3565118356, "lat": 28.6020878, "lon": 77.2001521}, {"type": "node", "id": 3565118357, "lat": 28.6020885, "lon": 77.2000626}, {"type": "node", "id": 3565118358, "lat": 28.6021198, "lon": 77.1996025}, {"type": "node", "id": 3565118359, "lat": 28.6021206, "lon": 77.1995125}, {"type": "node", "id": 3565118360, "lat": 28.6021874, "lon": 77.1999441}, {"type": "node", "id": 3565118361, "lat": 28.6022098, "lon": 77.1997107}, {"type": "node", "id": 3565118362, "lat": 28.6022645, "lon": 77.1999449}, {"type": "node", "id": 3565118363, "lat": 28.6022663, "lon": 77.1997113}, {"type": "node", "id": 3571164988, "lat": 28.6475609, "lon": 77.1209112}, {"type": "node", "id": 3571164989, "lat": 28.6475794, "lon": 77.1208209}, {"type": "node", "id": 3571164992, "lat": 28.6475948, "lon": 77.1208725}, {"type": "node", "id": 3571165094, "lat": 28.6475969, "lon": 77.1209968}, {"type": "node", "id": 3571165097, "lat": 28.6476154, "lon": 77.120808}, {"type": "node", "id": 3571165099, "lat": 28.6476257, "lon": 77.1207212}, {"type": "node", "id": 3571165102, "lat": 28.6476483, "lon": 77.1206638}, {"type": "node", "id": 3571165105, "lat": 28.6476689, "lon": 77.1208338}, {"type": "node", "id": 3571165107, "lat": 28.6476772, "lon": 77.120706}, {"type": "node", "id": 3571165108, "lat": 28.6476893, "lon": 77.1205754}, {"type": "node", "id": 3571165109, "lat": 28.6476998, "lon": 77.1206263}, {"type": "node", "id": 3571165111, "lat": 28.6477255, "lon": 77.1207646}, {"type": "node", "id": 3571165112, "lat": 28.6477366, "lon": 77.1208041}, {"type": "node", "id": 3571165113, "lat": 28.6477605, "lon": 77.1205395}, {"type": "node", "id": 3571165117, "lat": 28.6478243, "lon": 77.1207037}, {"type": "node", "id": 3571861970, "lat": 28.634249, "lon": 77.1103314}, {"type": "node", "id": 3571861971, "lat": 28.63425, "lon": 77.1101309}, {"type": "node", "id": 3571861986, "lat": 28.634321, "lon": 77.1103319}, {"type": "node", "id": 3571861987, "lat": 28.6343221, "lon": 77.1101314}, {"type": "node", "id": 3571862266, "lat": 28.6348792, "lon": 77.1098673}, {"type": "node", "id": 3571862287, "lat": 28.634928, "lon": 77.1099312}, {"type": "node", "id": 3571862415, "lat": 28.635013, "lon": 77.1097349}, {"type": "node", "id": 3571862429, "lat": 28.6350617, "lon": 77.1097988}, {"type": "node", "id": 3574355431, "lat": 28.6819992, "lon": 77.2066045}, {"type": "node", "id": 3574355433, "lat": 28.6820616, "lon": 77.2065529}, {"type": "node", "id": 3574355447, "lat": 28.6821216, "lon": 77.2067964}, {"type": "node", "id": 3574355452, "lat": 28.6821839, "lon": 77.2067448}, {"type": "node", "id": 3606547329, "lat": 28.5968151, "lon": 77.0814188}, {"type": "node", "id": 3606547330, "lat": 28.5968508, "lon": 77.0811861}, {"type": "node", "id": 3606547331, "lat": 28.5969104, "lon": 77.0814378}, {"type": "node", "id": 3606547332, "lat": 28.5969461, "lon": 77.0812051}, {"type": "node", "id": 3636354670, "lat": 28.5482531, "lon": 77.1842325, "tags": {"amenity": "restaurant", "name": "Rakesh Cafeteria"}}, {"type": "node", "id": 3636354671, "lat": 28.5481648, "lon": 77.1842381, "tags": {"amenity": "restaurant", "name": "Southy"}}, {"type": "node", "id": 3704734413, "lat": 28.6309879, "lon": 77.2197896, "tags": {"addr:city": "New Delhi", "amenity": "restaurant", "brand": "Nando's", "brand:wikidata": "Q3472954", "cuisine": "chicken;portuguese", "diet:vegetarian": "yes", "name": "Nando's", "opening_hours": "Mo-Su 11:30-00:30"}}, {"type": "node", "id": 3720955017, "lat": 28.5500364, "lon": 77.205363}, {"type": "node", "id": 3720955018, "lat": 28.5500073, "lon": 77.2054521}, {"type": "node", "id": 3720955019, "lat": 28.5499115, "lon": 77.2054116}, {"type": "node", "id": 3720955020, "lat": 28.5499406, "lon": 77.2053224}, {"type": "node", "id": 3838673058, "lat": 28.5474313, "lon": 77.1254656}, {"type": "node", "id": 3838673059, "lat": 28.5473442, "lon": 77.1258049}, {"type": "node", "id": 3883052658, "lat": 28.5734423, "lon": 77.2062342, "tags": {"amenity": "restaurant", "cuisine": "indian", "name": "Nagaland Cafe"}}, {"type": "node", "id": 4069815728, "lat": 28.6342635, "lon": 77.2190699, "tags": {"addr:housename": "B", "addr:housenumber": "B-23", "addr:place": "Connaught Place", "addr:postcode": "110001", "addr:street": "Inner Circle", "air_conditioning": "yes", "amenity": "restaurant", "diet:vegan": "yes", "diet:vegetarian": "yes", "indoor_seating": "yes", "level": "0", "name": "The Colonnade", "outdoor_seating": "no", "smoking": "separated", "wheelchair": "no"}}, {"type": "node", "id": 4069858894, "lat": 28.6352724, "lon": 77.220127, "tags": {"amenity": "restaurant", "diet:vegan": "yes", "diet:vegetarian": "yes", "name": "Gola"}}, {"type": "node", "id": 4114512206, "lat": 28.5996402, "lon": 77.2262942, "tags": {"amenity": "restaurant", "internet_access": "wlan", "name": "Fat Lulu's", "survey:date": "2023-01-20"}}, {"type": "node", "id": 4122592291, "lat": 28.6334275, "lon": 77.2080471, "tags": {"amenity": "restaurant", "name": "Odeon sweets"}}, {"type": "node", "id": 4123294291, "lat": 28.5572536, "lon": 77.2023928, "tags": {"addr:city": "New Delhi", "addr:postcode": "110016", "addr:street": "Green Park Main Market", "alt_name": "A2B", "amenity": "restaurant", "brand": "Adyar Ananda Bhavan", "brand:wikidata": "Q15178238", "cuisine": "regional", "diet:vegetarian": "only", "email": "info@aabsweets.com", "name": "Adyar Ananda Bhavan", "operator": "Adyar Ananda Bhavan", "phone": "+91 11 4608 2303", "smoking": "no", "website": "https://aabsweets.com"}}, {"type": "node", "id": 4197303866, "lat": 28.6328321, "lon": 77.0867027, "tags": {"amenity": "restaurant", "diet:vegetarian": "yes", "name": "Hira Sweets"}}, {"type": "node", "id": 4209873991, "lat": 28.645305, "lon": 77.1785622, "tags": {"amenity": "restaurant", "name": "Imly"}}, {"type": "node", "id": 4211994391, "lat": 28.6410445, "lon": 77.2105515, "tags": {"amenity": "restaurant", "name": "Malhotra"}}, {"type": "node", "id": 4219631340, "lat": 28.6410923, "lon": 77.2126799, "tags": {"amenity": "restaurant", "name": "Sam's Cafe"}}, {"type": "node", "id": 4236859392, "lat": 28.5414989, "lon": 77.2401446, "tags": {"addr:postcode": "110048", "addr:street": "Greater Kailash 2", "amenity": "restaurant", "cuisine": "fish;lebanese;diner;chicken;kebab", "name": "Karim's Mughal Palace", "opening_hours": "Mo-Su 00:30-23:00", "phone": "180030023291"}}, {"type": "node", "id": 4237012489, "lat": 28.7150797, "lon": 77.2161437, "tags": {"addr:postcode": "110009", "addr:street": "Banda Bahadur Marg", "amenity": "restaurant", "cuisine": "indian", "name": "Shaan-e-Awadh"}}, {"type": "node", "id": 4338105559, "lat": 28.6337656, "lon": 77.2213244, "tags": {"addr:block": "D", "addr:city": "New Delhi", "addr:housenumber": "26/28", "addr:postcode": "110001", "addr:street": "Radial Road No.6", "amenity": "restaurant", "cuisine": "regional", "level": "0", "name": "Zaffran", "name:ca": "Zaffran"}}, {"type": "node", "id": 4338129371, "lat": 28.6303156, "lon": 77.2206535, "tags": {"addr:city": "New Delhi", "addr:housenumber": "N-96", "addr:postcode": "110001", "addr:street": "2nd Floor, Munshi Lal Building, Connaught Place", "amenity": "restaurant", "cuisine": "regional", "diet:vegetarian": "yes", "name": "Barbeque Nation"}}, {"type": "node", "id": 4341101093, "lat": 28.6411171, "lon": 77.2144269, "tags": {"amenity": "restaurant", "name": "Nepali Food"}}, {"type": "node", "id": 4350522692, "lat": 28.6408661, "lon": 77.2103053, "tags": {"amenity": "restaurant", "name": "Malhotra"}}, {"type": "node", "id": 4352345756, "lat": 28.6887399, "lon": 77.134831, "tags": {"amenity": "restaurant", "cuisine": "pizza", "name": "Domino\u2019s Pizza", "takeaway": "yes"}}, {"type": "node", "id": 4352389632, "lat": 28.6836786, "lon": 77.1358422, "tags": {"amenity": "restaurant", "cuisine": "indian", "name": "Bikaner Corner Wala"}}, {"type": "node", "id": 4389398989, "lat": 28.6303463, "lon": 77.217545, "tags": {"addr:city": "New Delhi", "addr:housenumber": "13", "addr:street": "Sansad Marg", "amenity": "restaurant", "cuisine": "punjabi", "name": "Pind Balluchi", "name:es": "Pind Baluchi", "name:fa": "\u067e\u06cc\u0646\u062f \u0628\u0644\u0648\u0686\u06cc", "opening_hours": "Mo-Su 12:00-23:00", "website": "https://www.pindballuchi.com/"}}, {"type": "node", "id": 4391608190, "lat": 28.5995342, "lon": 77.2251048, "tags": {"addr:housenumber": "50", "addr:street": "Khan Market", "amenity": "restaurant", "name:es": "Khan Chancha", "website": "http://khanchancha.in"}}, {"type": "node", "id": 4391613189, "lat": 28.6298048, "lon": 77.2204846, "tags": {"addr:housename": "Atmaram Mansion, Scindia House", "addr:place": "Connaught Place", "addr:unit": "Shop 9A", "amenity": "restaurant", "name": "Rajdhani", "website": "https://www.rajdhani.co.in/"}}, {"type": "node", "id": 4401493065, "lat": 28.6420621, "lon": 77.2179887, "tags": {"amenity": "restaurant", "name": "Neelam Restaurant"}}, {"type": "node", "id": 4438975183, "lat": 28.6278787, "lon": 77.3080498, "tags": {"addr:city": "Delhi", "addr:postcode": "110092", "amenity": "restaurant", "capacity": "10", "cuisine": "North_Indian", "delivery": "yes", "name": "The Garam Masala", "takeaway": "yes"}}, {"type": "node", "id": 4438975188, "lat": 28.6279122, "lon": 77.3081375, "tags": {"addr:city": "Delhi", "addr:postcode": "110092", "amenity": "restaurant", "capacity": "10", "cuisine": "Punjabi"}}, {"type": "node", "id": 4438975392, "lat": 28.6280352, "lon": 77.3086694, "tags": {"addr:city": "Delhi", "addr:postcode": "110092", "amenity": "restaurant", "name": "True Blue", "name:fa": "\u062a\u0631\u0648 \u0628\u0644\u0648", "phone": "011 65101366, 011 42171399"}}, {"type": "node", "id": 4438975405, "lat": 28.6279719, "lon": 77.3090522, "tags": {"addr:city": "Delhi", "addr:postcode": "110092", "amenity": "restaurant"}}, {"type": "node", "id": 4460440889, "lat": 28.5549841, "lon": 77.1949926, "tags": {"amenity": "restaurant", "check_date": "2025-08-14", "cuisine": "south_indian", "level": "0", "name": "Naivedyam", "name:en": "Naivedyam", "name:hi": "\u0928\u0948\u0935\u0947\u0926\u094d\u092f\u092e", "website": "https://www.naivedyamrestaurants.in/", "wheelchair": "no"}}, {"type": "node", "id": 4460476939, "lat": 28.6005777, "lon": 77.2273349, "tags": {"addr:housenumber": "51-A", "addr:street": "Khan Market, New Delhi", "amenity": "restaurant", "cuisine": "barbecue", "email": "contact.smokeys@gmail.com", "name": "Smokeys", "phone": "+911124611551", "survey:date": "2023-01-20", "website": "https://smokehousegrill.in/"}}, {"type": "node", "id": 4460479219, "lat": 28.6328293, "lon": 77.2172007, "tags": {"addr:city": "New Delhi", "amenity": "restaurant", "diet:vegan": "yes", "diet:vegetarian": "yes", "name": "Fa Yian The Chinese Restaurant", "website": "http://www.fayian.com"}}, {"type": "node", "id": 4461728238, "lat": 28.5279771, "lon": 77.2188973, "tags": {"air_conditioning": "yes", "amenity": "restaurant", "cuisine": "indian", "diet:vegan": "yes", "diet:vegetarian": "yes", "indoor_seating": "yes", "name": "Gulati Spice Market", "name:en": "Gulati Spice Market", "outdoor_seating": "no", "smoking": "no"}}, {"type": "node", "id": 4470999592, "lat": 28.629042, "lon": 77.076916, "tags": {"addr:housenumber": "710", "addr:postcode": "110058", "addr:street": "Shivaji Road", "amenity": "restaurant", "cuisine": "indian", "name": "Khan Chacha", "name:en": "Khan Chacha", "name:hi": "\u0916\u093e\u0928 \u091a\u093e\u091a\u093e", "opening_hours": "Mo-Su 11:00-23:00", "website": "https://www.khanchacha.in/"}}, {"type": "node", "id": 4474590390, "lat": 28.6883445, "lon": 77.1218091, "tags": {"amenity": "restaurant", "name": "Keswi", "name:en": "Keswi"}}, {"type": "node", "id": 4474611689, "lat": 28.6882438, "lon": 77.1212148, "tags": {"amenity": "restaurant", "name": "NCR", "name:en": "NCR"}}, {"type": "node", "id": 4474634989, "lat": 28.6882544, "lon": 77.1214711, "tags": {"amenity": "restaurant", "name": "Punjabi's", "name:en": "Punjabi's"}}, {"type": "node", "id": 4565027989, "lat": 28.6412137, "lon": 77.2147624, "tags": {"amenity": "restaurant", "name": "Wow Cafe", "name:en": "Wow Cafe", "name:ko": "\uc640\uc6b0\uce74\ud398 \ud55c\uc2dd\ub2f9"}}, {"type": "node", "id": 4591248343, "lat": 28.6123175, "lon": 76.9910041}, {"type": "node", "id": 4594376514, "lat": 28.6677838, "lon": 77.2303289}, {"type": "node", "id": 4594376515, "lat": 28.6679956, "lon": 77.2302538}, {"type": "node", "id": 4594376516, "lat": 28.6677485, "lon": 77.2301996}, {"type": "node", "id": 4594376517, "lat": 28.6679603, "lon": 77.2301245}, {"type": "node", "id": 4599840390, "lat": 28.6415909, "lon": 77.2155347, "tags": {"amenity": "restaurant", "name:ko": "\uc778\ub3c4\ubc29\ub791\uae30"}}, {"type": "node", "id": 4628522789, "lat": 28.6098311, "lon": 77.2323979, "tags": {"amenity": "restaurant", "name:ca": "Restaurant OCTOPUS"}}, {"type": "node", "id": 4628544689, "lat": 28.6078499, "lon": 77.2300673, "tags": {"addr:city": "New Delhi", "addr:housenumber": "6", "addr:street": "Pandara Road Market", "amenity": "restaurant", "name": "Gulati", "opening_hours": "Mo-Su 12:00-24:00", "phone": "+91 112338 8836", "website": "http://www.gulatirestaurant.in/"}}, {"type": "node", "id": 4654555590, "lat": 28.6452167, "lon": 77.2110064, "tags": {"amenity": "restaurant", "name": "U-Like", "name:en": "U-Like"}}, {"type": "node", "id": 4656714717, "lat": 28.6424044, "lon": 77.2103819, "tags": {"amenity": "restaurant", "name": "NATRAJ restaurant", "name:en": "NATRAJ restaurant"}}, {"type": "node", "id": 4658824441, "lat": 28.6021414, "lon": 77.2279557, "tags": {"amenity": "restaurant", "name": "Latitude"}}, {"type": "node", "id": 4679882984, "lat": 28.6298227, "lon": 77.2205834, "tags": {"amenity": "restaurant", "name": "Biryani Blues"}}, {"type": "node", "id": 4686199914, "lat": 28.5557691, "lon": 77.2183297, "tags": {"amenity": "restaurant", "name": "Diggins", "name:en": "Diggins"}}, {"type": "node", "id": 4710222497, "lat": 28.6018922, "lon": 77.1936521, "tags": {"addr:city": "New Delhi", "amenity": "restaurant", "name": "Alkauser ( best biryani)", "name:en": "Alkauser ( best biryani)"}}, {"type": "node", "id": 4710222498, "lat": 28.6495389, "lon": 77.2335887, "tags": {"addr:postcode": "110006", "amenity": "restaurant", "name": "Aljawahir", "name:en": "Aljawahir"}}, {"type": "node", "id": 4710223395, "lat": 28.6482081, "lon": 77.2336645, "tags": {"addr:postcode": "110006", "amenity": "restaurant", "name": "Alslam Chicken", "name:en": "Alslam Chicken"}}, {"type": "node", "id": 4711571792, "lat": 28.6336538, "lon": 77.2211826, "tags": {"amenity": "restaurant", "name": "Embassy Restaurant ( Samosa)", "name:en": "Embassy Restaurant ( Samosa)", "phone": "01123416434"}}, {"type": "node", "id": 4715157790, "lat": 28.6423302, "lon": 77.2182562, "tags": {"amenity": "restaurant", "name": "Malabar Hotel", "name:en": "Malabar Hotel"}}, {"type": "node", "id": 4715157791, "lat": 28.642273, "lon": 77.218265, "tags": {"amenity": "restaurant", "name": "Hotel Madras Dx", "name:en": "Hotel Madras Dx", "name:kn": "\u0cb9\u0ccb\u0c9f\u0cc6\u0cb2\u0ccd \u0cae\u0ca1\u0ccd\u0cb0\u0cbe\u0cb8\u0ccd \u0ca1\u0cc0\u0cb2\u0c95\u0ccd\u0cb8\u0ccd"}}, {"type": "node", "id": 4715162190, "lat": 28.6424057, "lon": 77.2182489, "tags": {"addr:housenumber": "113", "addr:street": "Amir Kaur Market", "amenity": "restaurant", "description": "In side road of Babu Ram Solanki Marg near railway station", "name": "Hyderabadi Dum Biriyaani", "name:en": "Hyderabadi Dum Biriyaani", "phone": "+919717334256"}}, {"type": "node", "id": 4715173889, "lat": 28.6424536, "lon": 77.2182429, "tags": {"amenity": "restaurant", "name": "South Indian Foods", "name:en": "South Indian Foods"}}, {"type": "node", "id": 4728741059, "lat": 28.5406934, "lon": 77.1690578}, {"type": "node", "id": 4728741060, "lat": 28.5406307, "lon": 77.1691035}, {"type": "node", "id": 4728741061, "lat": 28.5405931, "lon": 77.1690749}, {"type": "node", "id": 4728741062, "lat": 28.5405555, "lon": 77.1691235}, {"type": "node", "id": 4728741063, "lat": 28.5405405, "lon": 77.1691634}, {"type": "node", "id": 4728741064, "lat": 28.540538, "lon": 77.1692719}, {"type": "node", "id": 4728741065, "lat": 28.5405756, "lon": 77.1693433}, {"type": "node", "id": 4728741066, "lat": 28.5406032, "lon": 77.1693661}, {"type": "node", "id": 4728741067, "lat": 28.540716, "lon": 77.1692662}, {"type": "node", "id": 4728741068, "lat": 28.5406659, "lon": 77.1691863}, {"type": "node", "id": 4728741069, "lat": 28.540726, "lon": 77.1691263}, {"type": "node", "id": 4729010295, "lat": 28.5528178, "lon": 77.2046567, "tags": {"amenity": "restaurant", "name": "Karim's Mughlai Restaurant"}}, {"type": "node", "id": 4729010298, "lat": 28.5567586, "lon": 77.2055269, "tags": {"amenity": "restaurant", "cuisine": "korean", "name": "Gung the Palace", "name:ko": "\uad81 \ub354 \ud330\ub798\uc2a4"}}, {"type": "node", "id": 4772064342, "lat": 28.6319603, "lon": 77.2078492, "tags": {"amenity": "restaurant", "name": "Safari Restro Lounge"}}, {"type": "node", "id": 4772753924, "lat": 28.6405446, "lon": 77.217099, "tags": {"amenity": "restaurant", "cuisine": "indian", "diet:vegetarian": "yes", "name": "Rishi Vaishno Dhaba", "name:en": "Rishi Vaishno Dhaba"}}, {"type": "node", "id": 4773105444, "lat": 28.6409944, "lon": 77.2127435, "tags": {"amenity": "restaurant", "name": "Sonu", "name:hi": "Sonu"}}, {"type": "node", "id": 4783668221, "lat": 28.6299114, "lon": 77.2172701, "tags": {"amenity": "restaurant", "cuisine": "indian", "name": "Kwality", "name:de": "Kwality", "name:en": "Kwality", "name:hi": "Kwality", "survey:date": "2023-01-22"}}, {"type": "node", "id": 4799120034, "lat": 28.6465886, "lon": 77.1957658, "tags": {"addr:city": "New Delhi", "addr:postcode": "110005", "addr:street": "Arya Samaj Road", "alt_name": "A2B", "amenity": "restaurant", "brand": "Adyar Ananda Bhavan", "brand:wikidata": "Q15178238", "cuisine": "regional", "diet:vegetarian": "only", "name": "Adyar Ananda Bhavan", "operator": "Adyar Ananda Bhavan", "phone": "+91 98712 60803", "shop": "confectionery", "smoking": "no", "website": "https://aabsweets.com"}}, {"type": "node", "id": 4814835721, "lat": 28.5271794, "lon": 77.2169494, "tags": {"amenity": "restaurant", "cuisine": "indian", "name": "Mahabelly", "name:en": "Mahabelly"}}, {"type": "node", "id": 4857522521, "lat": 28.6411046, "lon": 77.2135151, "tags": {"amenity": "restaurant", "diet:vegetarian": "yes", "name": "Everest kitchen", "name:en": "Everest Caf\u00e9", "name:fr": "Everest Caf\u00e9"}}, {"type": "node", "id": 4866328823, "lat": 28.6453864, "lon": 77.1839126, "tags": {"addr:housenumber": "8 A/ 37", "addr:street": "Pusa Road", "amenity": "restaurant", "name:ar": "\u0627\u0644\u0645\u0637\u0639\u0645 \u0627\u0644\u0639\u0631\u0627\u0642\u064a \u0627\u0644\u0631\u0627\u0642\u064a"}}, {"type": "node", "id": 4893145422, "lat": 28.6478146, "lon": 77.2399952, "tags": {"amenity": "restaurant", "name": "Shri Krishna Daba", "name:en": "Shri Krishna Daba"}}, {"type": "node", "id": 4908782321, "lat": 28.6418156, "lon": 77.2126057, "tags": {"amenity": "restaurant", "name": "Kathmandu Food Cafe", "name:en": "Kathmandu Food Cafe"}}, {"type": "node", "id": 4910109422, "lat": 28.6177243, "lon": 77.2796696, "tags": {"amenity": "restaurant", "brand": "Pizza Hut", "brand:wikidata": "Q191615", "brand:wikipedia": "en:Pizza Hut", "cuisine": "pizza", "name": "Pizza Hut", "name:en": "Pizza Hut"}}, {"type": "node", "id": 4959734021, "lat": 28.6353146, "lon": 77.2206088, "tags": {"amenity": "restaurant", "diet:vegetarian": "yes", "name": "Lazeez Affaire"}}, {"type": "node", "id": 4959734022, "lat": 28.6333695, "lon": 77.2212936, "tags": {"amenity": "restaurant", "name": "Kovil", "name:en": "Kovil"}}, {"type": "node", "id": 4959768821, "lat": 28.630182, "lon": 77.2204075, "tags": {"amenity": "restaurant", "cuisine": "indian", "diet:vegetarian": "yes", "name": "Radjhani Thali", "name:en": "Radjhani Thali"}}, {"type": "node", "id": 4967291565, "lat": 28.557032, "lon": 77.2327676, "tags": {"amenity": "restaurant", "name": "Giro's Italian restaurant and pizzeria", "phone": "+911141731035", "website": "www.pomodoro.co.in.uk"}}, {"type": "node", "id": 4971952422, "lat": 28.6006451, "lon": 77.2275063, "tags": {"amenity": "restaurant", "check_date": "2024-01-28", "level": "1;2", "name": "The Big Chill", "name:en": "Big Chill Restaurant", "wheelchair": "no"}}, {"type": "node", "id": 4985058921, "lat": 28.6409867, "lon": 77.2108048, "tags": {"amenity": "restaurant", "name": "Thalee", "name:en": "Thalee", "name:fr": "Thalee"}}, {"type": "node", "id": 5017491421, "lat": 28.6275145, "lon": 77.2198691, "tags": {"addr:city": "New Delhi", "amenity": "restaurant", "brand": "Pizza Hut", "brand:wikidata": "Q191615", "cuisine": "pizza", "name": "Pizza Hut", "name:en": "Pizza Hut"}}, {"type": "node", "id": 5017912424, "lat": 28.6307517, "lon": 77.2205444, "tags": {"amenity": "restaurant", "cuisine": "indian", "name": "Mughlai Junction", "name:en": "Mughlai Junction", "opening_hours": "Mo-Su 12:00-23:00", "website": "http://mughlaihunction.com"}}, {"type": "node", "id": 5073788621, "lat": 28.6249108, "lon": 77.2194157, "tags": {"amenity": "restaurant", "name": "saravan bhavan", "name:en": "saravan bhavan"}}, {"type": "node", "id": 5094782821, "lat": 28.551203, "lon": 77.2515575, "tags": {"amenity": "restaurant", "name:ar": "\u0643\u0646\u062a\u0627\u0643\u064a kfc"}}, {"type": "node", "id": 5099590521, "lat": 28.5415537, "lon": 77.1552717, "tags": {"amenity": "restaurant", "name": "Food Court!", "name:en": "Food Court!"}}, {"type": "node", "id": 5105850522, "lat": 28.5594484, "lon": 77.1963657, "tags": {"amenity": "restaurant", "name:ar": "\u0645\u0637\u0639\u0645 \u0641\u0644\u0627\u0641\u0644"}}, {"type": "node", "id": 5109322722, "lat": 28.5625301, "lon": 77.2239752, "tags": {"amenity": "restaurant", "name": "Sky High", "website": "https://skyhighdelhi.com/"}}, {"type": "node", "id": 5109638828, "lat": 28.5372472, "lon": 77.2360256, "tags": {"amenity": "restaurant", "name": "Chehel Pehel"}}, {"type": "node", "id": 5109833022, "lat": 28.6078554, "lon": 77.2296194, "tags": {"addr:housenumber": "16", "addr:postcode": "110003", "addr:street": "Pandara Road", "amenity": "restaurant", "name": "Pindi", "name:en": "Pindi restaurant Delhi", "phone": "911123387932"}}, {"type": "node", "id": 5109849421, "lat": 28.6341541, "lon": 77.218784, "tags": {"addr:housename": "B", "addr:place": "Connaught Place", "addr:postcode": "110001", "air_conditioning": "no", "amenity": "restaurant", "diet:vegan": "yes", "diet:vegetarian": "yes", "indoor_seating": "yes", "level": "1", "name": "The Immigrant Cafe", "outdoor_seating": "no", "smoking": "yes", "wheelchair": "no"}}, {"type": "node", "id": 5110975822, "lat": 28.5537018, "lon": 77.2407879, "tags": {"amenity": "restaurant", "contact:website": "https://www.cafe27.in", "level": "5", "name": "Cafe 27 Rooftop Bar"}}, {"type": "node", "id": 5111038921, "lat": 28.5525546, "lon": 77.2414184, "tags": {"amenity": "restaurant", "name": "Uncultured Cafe Sky Culture"}}, {"type": "node", "id": 5123980562, "lat": 28.5497391, "lon": 77.2356742, "tags": {"amenity": "restaurant", "name": "The Mountain Cafe"}}, {"type": "node", "id": 5131701517, "lat": 28.5438893, "lon": 77.2300281, "tags": {"amenity": "restaurant", "cuisine": "kebab", "name": "Aali's Kathi Kababs", "phone": "+91-011-2649-2859", "phone_1": "+91-011-4106-5757"}}, {"type": "node", "id": 5131717121, "lat": 28.5439159, "lon": 77.230178, "tags": {"amenity": "restaurant", "cuisine": "chinese;indian;mughlai", "name": "Dills Chawla Chik-Inn", "phone": "+91-011-6888-8686", "phone_1": "+91-99531-99431"}}, {"type": "node", "id": 5136715528, "lat": 28.6027056, "lon": 77.1865603, "tags": {"amenity": "restaurant", "cuisine": "indian", "name": "Hari Prakash Food Point"}}, {"type": "node", "id": 5143628924, "lat": 28.6579615, "lon": 77.2233418, "tags": {"addr:postcode": "110006", "amenity": "restaurant", "cuisine": "local", "diet:vegetarian": "only", "name": "Ingerpuri", "start_date": "1947"}}, {"type": "node", "id": 5143628925, "lat": 28.6580412, "lon": 77.223216, "tags": {"addr:postcode": "110006", "amenity": "restaurant", "check_date": "2025-02-16", "cuisine": "local", "diet:vegetarian": "only", "internet_access": "no", "level": "0;1", "name": "Kake di Hatti", "name:en": "Kake di Hatti", "name:hi": "\u0915\u093e\u0915\u0947 \u0926\u0940 \u0939\u091f\u094d\u091f\u0940", "opening_hours": "08:00-01:00", "phone": "+91 92058 17114; +91 99365 93140; +91 80106 95450", "start_date": "1942", "wheelchair": "limited"}}, {"type": "node", "id": 5158476428, "lat": 28.4948019, "lon": 77.2291798, "tags": {"amenity": "restaurant", "cuisine": "tea;local;chinese;noodles;deli;indian;curry", "diet:vegetarian": "yes", "name": "Tandoori Wok", "operator": "Jeetu"}}, {"type": "node", "id": 5159969121, "lat": 28.657558, "lon": 77.2231804, "tags": {"addr:postcode": "110006", "amenity": "restaurant", "name": "Jagjit Restaurant", "name:en": "Jagjit Restaurant"}}, {"type": "node", "id": 5162645434, "lat": 28.5751812, "lon": 77.1393042, "tags": {"access": "private", "amenity": "restaurant", "delivery": "no", "name": "Canteen"}}, {"type": "node", "id": 5170742146, "lat": 28.5818967, "lon": 77.1492702, "tags": {"addr:city": "New Delhi", "addr:postcode": "110010", "amenity": "restaurant", "cuisine": "indian"}}, {"type": "node", "id": 5170793183, "lat": 28.5776212, "lon": 77.0919168}, {"type": "node", "id": 5170793184, "lat": 28.5773086, "lon": 77.0917668}, {"type": "node", "id": 5170793185, "lat": 28.5772376, "lon": 77.0919423}, {"type": "node", "id": 5170793186, "lat": 28.5775645, "lon": 77.092085}, {"type": "node", "id": 5170793188, "lat": 28.5775946, "lon": 77.0918951}, {"type": "node", "id": 5170793195, "lat": 28.5773557, "lon": 77.0919939}, {"type": "node", "id": 5208925324, "lat": 28.6211972, "lon": 77.0928781}, {"type": "node", "id": 5208925325, "lat": 28.6212941, "lon": 77.092856}, {"type": "node", "id": 5208925326, "lat": 28.6213096, "lon": 77.092962}, {"type": "node", "id": 5208925327, "lat": 28.6212165, "lon": 77.0929885}, {"type": "node", "id": 5210748029, "lat": 28.6005614, "lon": 77.2273808, "tags": {"amenity": "restaurant", "name": "Wok In The Clouds"}}, {"type": "node", "id": 5211877822, "lat": 28.5548149, "lon": 77.1951171, "tags": {"amenity": "restaurant", "name": "Coast Cafe"}}, {"type": "node", "id": 5218330121, "lat": 28.5334254, "lon": 77.2420236, "tags": {"amenity": "restaurant", "name": "artusi"}}, {"type": "node", "id": 5218620423, "lat": 28.5917587, "lon": 77.2379033, "tags": {"amenity": "restaurant", "name": "Indian Accent"}}, {"type": "node", "id": 5218620424, "lat": 28.5333473, "lon": 77.2418684, "tags": {"amenity": "restaurant", "name": "fig & maple"}}, {"type": "node", "id": 5222845022, "lat": 28.5346937, "lon": 77.2435444, "tags": {"amenity": "restaurant", "name": "What A Comic Show!"}}, {"type": "node", "id": 5225150123, "lat": 28.551392, "lon": 77.2084764, "tags": {"amenity": "restaurant", "name": "Little Saigon"}}, {"type": "node", "id": 5227841100, "lat": 28.6069705, "lon": 77.2907555, "tags": {"amenity": "restaurant", "name": "Fast Trax"}}, {"type": "node", "id": 5227842552, "lat": 28.6069381, "lon": 77.2905963, "tags": {"air_conditioning": "yes", "amenity": "restaurant", "brand": "Subway", "brand:pa": "\u0a38\u0a2c\u0a35\u0a47\u0a05", "brand:ur": "\u0633\u0628 \u0648\u06d2", "brand:wikidata": "Q244457", "brand:wikipedia": "en:Subway (restaurant)", "level": "0", "name": "Subway", "name:pa": "\u0a38\u0a2c\u0a35\u0a47\u0a05", "name:ur": "\u0633\u0628 \u0648\u06d2", "wheelchair": "no"}}, {"type": "node", "id": 5234749222, "lat": 28.5529818, "lon": 77.240823, "tags": {"air_conditioning": "yes", "amenity": "restaurant", "diet:gluten_free": "yes", "diet:lacto_vegetarian": "yes", "diet:vegan": "yes", "level": "0", "name": "Getafix", "outdoor_seating": "no", "tables": "12", "wheelchair": "no"}}, {"type": "node", "id": 5236238312, "lat": 28.5641526, "lon": 77.234189, "tags": {"amenity": "restaurant", "level": "0", "name": "Sanjay Chur Chur Naan", "name:hi": "\u0938\u0902\u091c\u092f \u091a\u0942\u0930 \u091a\u0942\u0930 \u0928\u093e\u0928"}}, {"type": "node", "id": 5236252843, "lat": 28.5640022, "lon": 77.2341903, "tags": {"amenity": "restaurant", "name": "Moolchand Parantha"}}, {"type": "node", "id": 5236259895, "lat": 28.5634458, "lon": 77.2344541, "tags": {"amenity": "restaurant", "name": "Roll Corner"}}, {"type": "node", "id": 5236666021, "lat": 28.5464509, "lon": 77.1970758, "tags": {"amenity": "restaurant", "name": "Napoli Pizza"}}, {"type": "node", "id": 5257509521, "lat": 28.5546855, "lon": 77.1224691, "tags": {"amenity": "restaurant", "name": "Anna Maya"}}, {"type": "node", "id": 5269340185, "lat": 28.6119427, "lon": 77.2887478, "tags": {"amenity": "restaurant", "cuisine": "Indian;Mughlai;Chinese", "name": "Indian Curry", "name:fa": "\u06a9\u0627\u0631\u06cc \u0647\u0646\u062f\u06cc", "phone": "+91-99994-97326;+91-99994-97327;+91-011-6502-0332"}}, {"type": "node", "id": 5269850622, "lat": 28.5706695, "lon": 77.2424491, "tags": {"amenity": "restaurant", "name:ar": "\u0645\u0637\u0639\u0645 \u0627\u0644\u0627\u0641\u063a\u0627\u0646\u064a", "name:en": "Kabul Delhi Restaurant"}}, {"type": "node", "id": 5273128897, "lat": 28.6118764, "lon": 77.2888106, "tags": {"amenity": "restaurant", "delivery": "yes", "name": "Shanghai Kitchen", "phone": "+91-99991-00369;+91-99991-00859"}}, {"type": "node", "id": 5297002821, "lat": 28.6026965, "lon": 77.2410926, "tags": {"amenity": "restaurant", "name": "Masala House"}}, {"type": "node", "id": 5301853070, "lat": 28.6117937, "lon": 77.2872019, "tags": {"amenity": "restaurant", "cuisine": "indian", "delivery": "yes", "name": "Chawlas Food Express", "phone": "+91-99116-68918;+91-99116-68918"}}, {"type": "node", "id": 5323174525, "lat": 28.6408832, "lon": 77.213014, "tags": {"amenity": "restaurant"}}, {"type": "node", "id": 5329504729, "lat": 28.6353446, "lon": 77.2203635, "tags": {"addr:block": "K", "addr:city": "New Delhi", "addr:housenumber": "15", "addr:neighbourhood": "Connaught Place", "addr:postcode": "110001", "air_conditioning": "yes", "amenity": "restaurant", "bar": "no", "branch": "Connaught Place", "brand": "Sagar Ratna", "check_date": "2024-09-17", "contact:facebook": "sagarratnaofficial", "cuisine": "indian", "diet:lactose_free": "yes", "diet:vegan": "yes", "diet:vegetarian": "yes", "image:menu": "d5c7fef7-7a20-4fee-92e2-b98c9c8bf758", "image:menu:0": "d1e87968-6f95-4826-87a7-221a8199360b", "image:menu:1": "3c754826-eb60-42b1-a0d8-67023b2329f4", "image:menu:2": "91010955-0ee4-4ed5-a373-df46286f6d81", "image:menu:3": "31813afa-4dbb-48eb-a5b0-64e602a9f843", "image:menu:4": "7c962b49-4088-4b14-bd86-bcee4ea70d98", "image:menu:5": "cd0420cc-d125-47ac-8bdb-3a6ee352b415", "image:menu:6": "a18ef6e5-43ee-4b5b-bdf6-e2a35b11bbe1", "image:menu:7": "da144236-2143-4bb6-979b-b2ecc69864b6", "internet_access": "no", "level": "0;1", "name": "Sagar Ratna", "name:hi": "\u0938\u093e\u0917\u0930 \u0930\u0924\u094d\u0928\u093e", "opening_hours": "08:00-23:00", "operator": "M/s Sagar Ratna Restaurants Pvt Ltd", "outdoor_seating": "no", "panoramax": "0429c2c4-bab1-44a4-88bd-43afbcde61b9", "panoramax:0": "1fd58a46-2970-4414-b75c-954acc43cc66", "panoramax:1": "aaca5a4b-377f-4651-bc28-12d3407a01c2", "panoramax:2": "2b440358-fb82-4a12-bb6d-b7a3dbe3e0bc", "payment:cash": "yes", "payment:credit_cards": "yes", "payment:debit_cards": "yes", "payment:upi": "yes", "phone": "+91 11 4737 7300", "smoking": "no", "source": "survey", "start_date": "1986", "takeaway": "yes", "toilets": "yes", "toilets:access": "customers", "toilets:fee": "no", "toilets:level": "1", "toilets:wheelchair": "no", "website": "https://www.sagarratna.in", "wheelchair": "no"}}, {"type": "node", "id": 5342570523, "lat": 28.7364236, "lon": 77.1207824, "tags": {"amenity": "restaurant", "check_date": "2024-07-21", "internet_access": "no", "name": "Brij Hub", "wheelchair": "no"}}, {"type": "node", "id": 5343112122, "lat": 28.7370886, "lon": 77.129468, "tags": {"amenity": "restaurant", "name": "Green Chick Chop"}}, {"type": "node", "id": 5371750021, "lat": 28.5268034, "lon": 77.1881657, "tags": {"amenity": "restaurant", "cuisine": "noodles;indian", "name": "Qutab Restaurant"}}, {"type": "node", "id": 5371750121, "lat": 28.5222274, "lon": 77.1818239, "tags": {"amenity": "restaurant", "cuisine": "noodles;indian;pizza", "name": "Cafe Twist"}}, {"type": "node", "id": 5372994253, "lat": 28.552896, "lon": 77.2408823, "tags": {"addr:block": "HS", "addr:city": "New Delhi", "addr:housenumber": "16", "addr:place": "Kailash Colony Market", "addr:postcode": "110048", "air_conditioning": "yes", "amenity": "restaurant", "cuisine": "south_indian", "delivery": "yes", "diet:vegetarian": "only", "level": "0;2;3", "name": "Juggernaut", "opening_hours": "Mo-Su 06:00-24:00", "phone": "+91-7777-97-4444;+91-11-4131-9991;+91-11-4131-9992", "website": "https://juggernaut.online", "wheelchair": "no"}}, {"type": "node", "id": 5374946776, "lat": 28.5590342, "lon": 77.1709638, "tags": {"amenity": "restaurant", "cuisine": "indian", "name": "Aggarwal Sweets"}}, {"type": "node", "id": 5380366023, "lat": 28.7391895, "lon": 77.1351639, "tags": {"amenity": "restaurant", "name": "Kohli Cafe", "phone": "+919999137953"}}, {"type": "node", "id": 5382858924, "lat": 28.615296, "lon": 77.2782886, "tags": {"amenity": "restaurant", "name": "Haldram\u2019s"}}, {"type": "node", "id": 5385787222, "lat": 28.5333542, "lon": 77.2429097, "tags": {"amenity": "restaurant", "name": "Laidback Cafe"}}, {"type": "node", "id": 5400432321, "lat": 28.7395318, "lon": 77.123207, "tags": {"amenity": "restaurant", "name": "Garg's Veggie Point"}}, {"type": "node", "id": 5414224654, "lat": 28.5651736, "lon": 77.1672697, "tags": {"amenity": "restaurant", "cuisine": "mughlai", "name": "Alkauser"}}, {"type": "node", "id": 5415748243, "lat": 28.5438862, "lon": 77.2299571, "tags": {"amenity": "restaurant", "name": "Hawkerz Boxx"}}, {"type": "node", "id": 5416434522, "lat": 28.5421501, "lon": 77.2529516, "tags": {"amenity": "restaurant", "name": "The American Connection"}}, {"type": "node", "id": 5431387428, "lat": 28.6611454, "lon": 77.302603, "tags": {"amenity": "restaurant", "name": "Pearl Grand"}}, {"type": "node", "id": 5437048621, "lat": 28.630345, "lon": 77.2776021, "tags": {"amenity": "restaurant", "cuisine": "south_indian", "name": "House of Anna"}}, {"type": "node", "id": 5437048721, "lat": 28.6329164, "lon": 77.2808368, "tags": {"amenity": "restaurant", "name": "Priyanshi South Indian Restaurant"}}, {"type": "node", "id": 5443361421, "lat": 28.5535373, "lon": 77.1941882, "tags": {"amenity": "restaurant", "check_date": "2024-07-22", "name": "Mia Bella"}}, {"type": "node", "id": 5484875022, "lat": 28.5626341, "lon": 77.2688626, "tags": {"amenity": "restaurant", "cuisine": "italian;greek", "name": "Kalamata"}}, {"type": "node", "id": 5488627982, "lat": 28.6411123, "lon": 77.2136081, "tags": {"amenity": "restaurant", "diet:vegetarian": "yes", "name": "Krishna Cafe", "wheelchair": "no"}}, {"type": "node", "id": 5508582321, "lat": 28.5498228, "lon": 77.2354791, "tags": {"amenity": "restaurant", "name": "Roadhouse Cafe"}}, {"type": "node", "id": 5559967400, "lat": 28.5745561, "lon": 77.229256, "tags": {"amenity": "restaurant", "cuisine": "waffle", "name": "Me Waffle n More"}}, {"type": "node", "id": 5567990903, "lat": 28.6269167, "lon": 77.2328582, "tags": {"amenity": "restaurant"}}, {"type": "node", "id": 5594954522, "lat": 28.5567703, "lon": 77.2331413, "tags": {"amenity": "restaurant", "name": "Gatsby"}}, {"type": "node", "id": 5603128546, "lat": 28.568831, "lon": 77.186991, "tags": {"amenity": "restaurant", "name:ja": "\uff9b\uff70\uff80\uff7d\uff65\uff76\uff9e\uff70\uff83\uff9e\uff9d"}}, {"type": "node", "id": 5603128931, "lat": 28.535789, "lon": 77.19687, "tags": {"amenity": "restaurant", "name:ja": "Delhi Darbar"}}, {"type": "node", "id": 5609687384, "lat": 28.5109411, "lon": 77.2021567, "tags": {"amenity": "restaurant", "cuisine": "south_indian;north_indian;chinese", "name": "Karnataka"}}, {"type": "node", "id": 5609687387, "lat": 28.5175248, "lon": 77.200275, "tags": {"amenity": "restaurant", "craft": "handicraft;jeweller;metal_construction", "name": "End Of The Day", "note": "It'd be great if someone could look at the establishment's website and give this a better tag.", "website": "https://www.studiometallurgy.com/"}}, {"type": "node", "id": 5630944567, "lat": 28.519364, "lon": 77.2004958, "tags": {"amenity": "restaurant", "name": "Odisha Hotel", "phone": "+91-99109-08551", "tourism": "hotel"}}, {"type": "node", "id": 5634524438, "lat": 28.6291804, "lon": 77.219755, "tags": {"addr:city": "New Delhi", "amenity": "restaurant", "cuisine": "indian", "name": "Pind Balluchi", "phone": "07686948952", "website": "https://www.pindballuchi.com/"}}, {"type": "node", "id": 5647754113, "lat": 28.6315666, "lon": 77.2223238, "tags": {"amenity": "restaurant", "brand": "Chili's", "brand:wikidata": "Q1072948", "cuisine": "tex-mex", "diet:vegetarian": "yes", "name": "Chili's", "official_name": "Chili's Grill & Bar"}}, {"type": "node", "id": 5656397310, "lat": 28.633169, "lon": 77.2179864, "tags": {"addr:housename": "A", "amenity": "restaurant", "diet:vegan": "yes", "diet:vegetarian": "yes", "name": "Rodeo"}}, {"type": "node", "id": 5657189084, "lat": 28.524724, "lon": 77.2558837, "tags": {"amenity": "restaurant", "cuisine": "Indian;chinese;snacks;dessert", "name": "Chandra Sweets", "outdoor_seating": "no", "payment:cash": "yes", "smoking": "no", "takeaway": "yes"}}, {"type": "node", "id": 5767395177, "lat": 28.6097558, "lon": 77.1362048, "tags": {"amenity": "restaurant"}}, {"type": "node", "id": 5784310848, "lat": 28.6339281, "lon": 77.217254, "tags": {"addr:block": "G", "addr:housenumber": "4;5;6", "amenity": "restaurant", "diet:vegan": "yes", "diet:vegetarian": "yes", "name": "Oriental Garden Chinese"}}, {"type": "node", "id": 5784312104, "lat": 28.6337075, "lon": 77.2169847, "tags": {"addr:housenumber": "G09", "addr:street": "D00", "amenity": "restaurant", "diet:vegetarian": "yes", "name": "Xero degrees", "website": "https://www.xerodegrees.com/"}}, {"type": "node", "id": 5792388053, "lat": 28.6271703, "lon": 77.2197132, "tags": {"addr:city": "New Delhi", "addr:street": "Janpath", "amenity": "restaurant", "cuisine": "south_indian", "diet:lacto_vegetarian": "yes", "diet:vegan": "yes", "name": "Padmanabham"}}, {"type": "node", "id": 5827200864, "lat": 28.5388101, "lon": 77.2138829, "tags": {"amenity": "restaurant", "brand": "Pizza Hut", "brand:wikidata": "Q191615", "cuisine": "pizza", "name": "Pizza Hut"}}, {"type": "node", "id": 5864629285, "lat": 28.632007, "lon": 77.2176823, "tags": {"amenity": "restaurant", "name": "Sharavana Bhavan", "name:en": "Sharavana Bhavan"}}, {"type": "node", "id": 5960718389, "lat": 28.5309684, "lon": 77.2174597, "tags": {"amenity": "restaurant", "name": "Om bhojanalaya", "name:en": "Om bhojanaya", "opening_hours": "Mo-Su 09:00-23:00"}}, {"type": "node", "id": 5960767985, "lat": 28.5309082, "lon": 77.2165552, "tags": {"amenity": "restaurant", "name": "Ronak hotel", "opening_hours": "Mo-Su 07:00-22:00"}}, {"type": "node", "id": 5960774593, "lat": 28.5309019, "lon": 77.2161069, "tags": {"amenity": "restaurant", "name": "Imtiyaz", "opening_hours": "Mo-Th,Sa-Su 07:30-22:30"}}, {"type": "node", "id": 5960774596, "lat": 28.5305488, "lon": 77.2161958, "tags": {"amenity": "restaurant", "name": "Muradabadi Hotel", "opening_hours": "Mo-Su 12:00-11:00"}}, {"type": "node", "id": 5960777186, "lat": 28.530861, "lon": 77.2160576, "tags": {"amenity": "restaurant", "name": "munna hotel", "opening_hours": "Mo-Su 09:00-23:00"}}, {"type": "node", "id": 5960793695, "lat": 28.5349486, "lon": 77.2167873, "tags": {"amenity": "restaurant", "name": "new aggarwal sweets"}}, {"type": "node", "id": 5960811186, "lat": 28.5330915, "lon": 77.2218476, "tags": {"amenity": "restaurant", "name": "Chauhan fast food corner", "opening_hours": "Mo-Su 08:00-23:00"}}, {"type": "node", "id": 5960811191, "lat": 28.5340646, "lon": 77.2187337, "tags": {"amenity": "restaurant", "cuisine": "chinese", "name": "Chilli Dragon"}}, {"type": "node", "id": 5984798036, "lat": 28.5144627, "lon": 77.2050016, "tags": {"amenity": "restaurant", "name": "Bikaner Choice", "shop": "confectionery"}}, {"type": "node", "id": 5992640685, "lat": 28.6778452, "lon": 77.2054951, "tags": {"addr:postcode": "110007", "addr:street": "Jawahar Nagar kohlapur Rd", "amenity": "restaurant", "name": "Ved dhaba"}}, {"type": "node", "id": 5993580494, "lat": 28.5496346, "lon": 77.1293556, "tags": {"amenity": "restaurant", "cuisine": "indian", "name": "very good restaurant and no expensive", "name:fr": "resto excellent et pas cher", "opening_hours": "Mo-Su 11:00-21:00"}}, {"type": "node", "id": 5995059734, "lat": 28.6578827, "lon": 77.1888491, "tags": {"addr:housenumber": "block no 18b, new market, karol bagh, new Delhi, 110005", "addr:street": "7726", "amenity": "restaurant", "description": "restaurant and takeaway", "name": "Bawarchi khana", "phone": "9560476123", "website": "bawarchikhana.co.in"}}, {"type": "node", "id": 6047921386, "lat": 28.6410202, "lon": 77.2126034, "tags": {"amenity": "restaurant", "diet:vegetarian": "yes", "name": "Diamond restaurant"}}, {"type": "node", "id": 6084384922, "lat": 28.5851406, "lon": 77.1807738}, {"type": "node", "id": 6084384923, "lat": 28.5851587, "lon": 77.1807538}, {"type": "node", "id": 6084384924, "lat": 28.5851821, "lon": 77.1807433}, {"type": "node", "id": 6084384925, "lat": 28.5852072, "lon": 77.1807438}, {"type": "node", "id": 6084384926, "lat": 28.5852303, "lon": 77.1807551}, {"type": "node", "id": 6084384927, "lat": 28.5852478, "lon": 77.1807757}, {"type": "node", "id": 6084384928, "lat": 28.5852571, "lon": 77.1808024}, {"type": "node", "id": 6084384929, "lat": 28.5852467, "lon": 77.1808573}, {"type": "node", "id": 6084384930, "lat": 28.5852286, "lon": 77.1808772, "tags": {"entrance": "yes", "level": "1"}}, {"type": "node", "id": 6084384931, "lat": 28.5852052, "lon": 77.1808877}, {"type": "node", "id": 6084384932, "lat": 28.5851801, "lon": 77.1808873}, {"type": "node", "id": 6084384933, "lat": 28.585157, "lon": 77.1808759}, {"type": "node", "id": 6084384934, "lat": 28.5851395, "lon": 77.1808553}, {"type": "node", "id": 6084384935, "lat": 28.5851302, "lon": 77.1808287}, {"type": "node", "id": 6084384936, "lat": 28.5852567, "lon": 77.180831}, {"type": "node", "id": 6084384937, "lat": 28.5851306, "lon": 77.1808}, {"type": "node", "id": 6094909115, "lat": 28.6407001, "lon": 77.211572, "tags": {"amenity": "restaurant", "name": "Grand Singh restaurant"}}, {"type": "node", "id": 6110288538, "lat": 28.543911, "lon": 77.2085924, "tags": {"amenity": "restaurant", "name": "The Golden Dragon"}}, {"type": "node", "id": 6112993597, "lat": 28.5676803, "lon": 77.2472215, "tags": {"amenity": "restaurant", "cuisine": "north_indian", "name": "Pind Balluchi", "phone": "+91-80102-02020"}}, {"type": "node", "id": 6112993602, "lat": 28.5670744, "lon": 77.2464398, "tags": {"air_conditioning": "yes", "amenity": "restaurant", "bar": "yes", "contact:phone": "+91-11-4107-5200", "level": "1", "name": "The Golden Dragon", "opening_hours": "Mo-Su 12:00-23:30", "toilets:wheelchair": "no"}}, {"type": "node", "id": 6115749047, "lat": 28.5674361, "lon": 77.2466759, "tags": {"amenity": "restaurant", "brand": "Pizza Hut", "brand:wikidata": "Q191615", "cuisine": "pizza", "level": "0.5", "name": "Pizza Hut"}}, {"type": "node", "id": 6161686838, "lat": 28.6353515, "lon": 77.2190315, "tags": {"amenity": "restaurant", "diet:vegan": "yes", "diet:vegetarian": "yes", "name": "Mother India"}}, {"type": "node", "id": 6161689896, "lat": 28.6323784, "lon": 77.2213733, "tags": {"addr:block": "E", "addr:housenumber": "15", "amenity": "restaurant", "bar": "no", "check_date": "2023-12-07", "cuisine": "coffee_shop", "indoor_seating": "yes", "level": "0", "name": "United Coffee House", "outdoor_seating": "no", "smoking": "no"}}, {"type": "node", "id": 6161690529, "lat": 28.6350577, "lon": 77.2181263, "tags": {"amenity": "restaurant", "diet:vegan": "yes", "diet:vegetarian": "yes", "name": "V\u00e9da", "operator": "The Billiardiers"}}, {"type": "node", "id": 6161690588, "lat": 28.6344013, "lon": 77.2214575, "tags": {"air_conditioning": "yes", "amenity": "restaurant", "diet:vegan": "yes", "diet:vegetarian": "yes", "indoor_seating": "yes", "name": "Unplugged Courtyard", "outdoor_seating": "no"}}, {"type": "node", "id": 6161987878, "lat": 28.6291307, "lon": 77.2197582, "tags": {"amenity": "restaurant", "brand": "Hard Rock Cafe", "brand:wikidata": "Q918151", "cuisine": "american", "name": "Hard Rock Cafe", "takeaway": "yes"}}, {"type": "node", "id": 6161987883, "lat": 28.6298758, "lon": 77.2210617, "tags": {"alcohol": "yes", "amenity": "restaurant", "diet:lacto_vegetarian": "yes", "diet:vegan": "yes", "drink:beer": "yes", "drink:vodka": "yes", "drink:wine": "yes", "indoor_seating": "yes", "name": "Local", "outdoor_seating": "no"}}, {"type": "node", "id": 6224257207, "lat": 28.627319, "lon": 77.2326929, "tags": {"air_conditioning": "yes", "amenity": "restaurant", "indoor_seating": "yes", "level": "0", "name": "Triveni Terrace Cafe", "outdoor_seating": "yes", "self_service": "yes"}}, {"type": "node", "id": 6269340657, "lat": 28.5333765, "lon": 77.206089, "tags": {"amenity": "restaurant", "cuisine": "pizza", "name": "Evoo", "name:en": "EVOO Eatery & Pizzeria", "wheelchair": "no"}}, {"type": "node", "id": 6278067985, "lat": 28.6347294, "lon": 77.2203803, "tags": {"air_conditioning": "yes", "amenity": "restaurant", "cuisine": "rajasthani", "diet:vegan": "yes", "diet:vegetarian": "yes", "indoor_seating": "yes", "level": "0", "name": "Rajasthali", "opening_hours": "Mo-Su 12:00-16:00 \"lunch\", 19:00-23:00 \"dinner\"", "outdoor_seating": "no", "wheelchair": "no"}}, {"type": "node", "id": 6278106187, "lat": 28.6325274, "lon": 77.2223125, "tags": {"amenity": "restaurant", "name": "Hotmess"}}, {"type": "node", "id": 6311067879, "lat": 28.5478153, "lon": 77.1260083, "tags": {"alcohol": "yes", "amenity": "restaurant", "check_date": "2019-02-23", "name": "Classic Diplomat"}}, {"type": "node", "id": 6311069095, "lat": 28.5476869, "lon": 77.1258178, "tags": {"amenity": "restaurant", "check_date": "2019-02-23", "name": "Metropolitan Express", "tourism": "hotel"}}, {"type": "node", "id": 6311069104, "lat": 28.5475668, "lon": 77.1256408}, {"type": "node", "id": 6311069105, "lat": 28.5474914, "lon": 77.1258473}, {"type": "node", "id": 6314478111, "lat": 28.5229264, "lon": 77.2079252, "tags": {"amenity": "restaurant", "brand": "Pizza Hut", "brand:wikidata": "Q191615", "cuisine": "pizza", "name": "Pizza Hut"}}, {"type": "node", "id": 6328795085, "lat": 28.6317221, "lon": 77.22247, "tags": {"amenity": "restaurant", "cuisine": "indian", "name": "Bagundi"}}, {"type": "node", "id": 6385598126, "lat": 28.6547263, "lon": 77.1377879, "tags": {"amenity": "restaurant", "brand": "Pizza Hut", "brand:wikidata": "Q191615", "brand:wikipedia": "en:Pizza Hut", "cuisine": "pizza", "name": "Pizza Hut"}}, {"type": "node", "id": 6403497366, "lat": 28.5497267, "lon": 77.2503461, "tags": {"amenity": "restaurant", "diet:vegetarian": "yes", "drink:alcohol": "served", "name": "Sandoz"}}, {"type": "node", "id": 6403500831, "lat": 28.5513772, "lon": 77.2516676, "tags": {"alcohol": "yes", "amenity": "restaurant", "brand": "Nando's", "brand:wikidata": "Q3472954", "cuisine": "chicken;portuguese", "level": "0", "name": "Nando's", "opening_hours": "Mo-Su 11:30-23:45"}}, {"type": "node", "id": 6403500833, "lat": 28.5514625, "lon": 77.2516742, "tags": {"amenity": "restaurant", "cuisine": "north_indian", "name": "Dhaba"}}, {"type": "node", "id": 6403528198, "lat": 28.5514625, "lon": 77.2519617, "tags": {"alcohol": "yes", "amenity": "restaurant", "cuisine": "japanese", "drink:sake": "yes", "level": "0", "name": "Yuzu"}}, {"type": "node", "id": 6403528201, "lat": 28.5514558, "lon": 77.2514485, "tags": {"alcohol": "yes", "amenity": "restaurant", "level": "0", "name": "Nehru Place Social"}}, {"type": "node", "id": 6415687246, "lat": 28.6821959, "lon": 77.2924705, "tags": {"amenity": "restaurant", "name": "Janta Eating House"}}, {"type": "node", "id": 6419518544, "lat": 28.6931152, "lon": 77.2047845, "tags": {"alcohol": "yes", "amenity": "restaurant", "level": "1", "name": "Judge and Jury"}}, {"type": "node", "id": 6459196255, "lat": 28.5418736, "lon": 77.2546185, "tags": {"alcohol": "yes", "amenity": "restaurant", "name": "Khidmat", "wheelchair": "no"}}, {"type": "node", "id": 6464859622, "lat": 28.5186562, "lon": 77.2947871}, {"type": "node", "id": 6464859623, "lat": 28.518667, "lon": 77.2948235}, {"type": "node", "id": 6464859624, "lat": 28.518564, "lon": 77.2948735}, {"type": "node", "id": 6464859625, "lat": 28.5185563, "lon": 77.2948585}, {"type": "node", "id": 6466155022, "lat": 28.5406405, "lon": 77.1852509, "tags": {"alcohol": "yes", "amenity": "restaurant", "cuisine": "chinese;indian", "name": "Dalchini"}}, {"type": "node", "id": 6473646422, "lat": 28.5544185, "lon": 77.1943669, "tags": {"alcohol": "yes", "amenity": "restaurant", "branch": "Hauz Khas Village", "name": "Social", "smoking": "isolated", "website": "https://socialoffline.in/HauzKhasSocial/"}}, {"type": "node", "id": 6488795811, "lat": 28.5194743, "lon": 77.2064407, "tags": {"amenity": "restaurant", "name": "Gore ka Dhaba"}}, {"type": "node", "id": 6495330876, "lat": 28.6342714, "lon": 77.2192315, "tags": {"addr:housename": "B-25", "addr:place": "Connaught Place", "addr:postcode": "110001", "air_conditioning": "yes", "alcohol": "yes", "amenity": "restaurant", "diet:vegan": "yes", "diet:vegetarian": "yes", "indoor_seating": "yes", "level": "0", "name": "Zen", "opening_hours": "PH,Mo-Su 11:30-19:45", "outdoor_seating": "no", "smoking": "separated", "wheelchair": "limited"}}, {"type": "node", "id": 6495346838, "lat": 28.6342817, "lon": 77.2190663, "tags": {"addr:housename": "B", "addr:place": "Connaught Place", "addr:postcode": "110001", "air_conditioning": "no", "amenity": "restaurant", "diet:vegan": "yes", "diet:vegetarian": "yes", "indoor_seating": "yes", "level": "1", "name": "The Big Chill", "outdoor_seating": "no", "smoking": "yes"}}, {"type": "node", "id": 6504248518, "lat": 28.6838201, "lon": 77.2885902, "tags": {"addr:city": "shahdara", "addr:housenumber": "Crazy Bout Pizza", "addr:postcode": "110032", "addr:street": "Street no.14", "amenity": "restaurant", "cuisine": "pizza;burger;pasta", "name": "Crazy Bout Pizza"}}, {"type": "node", "id": 6514899686, "lat": 28.6892639, "lon": 77.2867997, "tags": {"amenity": "restaurant", "name": "Dilli Darbar"}}, {"type": "node", "id": 6535485502, "lat": 28.5472818, "lon": 77.2444724, "tags": {"amenity": "restaurant", "cuisine": "indian", "internet_access": "wlan", "name": "Nimtho", "name:en": "Nimtho", "name:fr": "Nimtho"}}, {"type": "node", "id": 6616640811, "lat": 28.5700511, "lon": 77.2417581, "tags": {"addr:block": "E", "addr:housenumber": "3", "addr:place": "Lajpat Nagar 2", "addr:postcode": "110024", "amenity": "restaurant", "delivery": "yes", "diet:vegetarian": "yes", "level": "1", "name": "The Burger Club", "phone": "+91-88-00-807-807", "short_name": "TBC", "wheelchair": "no"}}, {"type": "node", "id": 6657141286, "lat": 28.6409128, "lon": 77.2136434, "tags": {"amenity": "restaurant", "internet_access": "wlan", "name": "Bistrot 55"}}, {"type": "node", "id": 6657822763, "lat": 28.5678415, "lon": 77.1890504, "tags": {"amenity": "restaurant", "cuisine": "indian", "internet_access": "wlan", "level": "0", "name": "Thali Wala", "phone": "+911149092764", "takeaway": "yes", "wheelchair": "yes"}}, {"type": "node", "id": 6657822766, "lat": 28.5673141, "lon": 77.1889333, "tags": {"amenity": "restaurant", "check_date:opening_hours": "2021-12-04", "delivery": "Mo-Su 10:30-23:00", "level": "0", "name": "Nirula's", "opening_hours": "Mo-Su 10:30-23:00", "phone": "18001025247", "takeaway": "yes", "website": "https://nirulas.com/"}}, {"type": "node", "id": 6676143713, "lat": 28.6305595, "lon": 77.2212797, "tags": {"amenity": "restaurant", "cuisine": "indian;pizza", "diet:vegetarian": "yes", "internet_access": "no", "name": "The Art House Cafe", "opening_hours": "Mo-Su 10:00-01:00", "toilets": "yes", "wheelchair": "limited"}}, {"type": "node", "id": 6707994776, "lat": 28.634703, "lon": 77.2205246, "tags": {"addr:block": "C", "addr:housenumber": "42/2", "addr:place": "Connaught Place", "addr:postcode": "110001", "addr:street": "Middle Circle", "amenity": "restaurant", "contact:email": "info@shakesquare.co.in", "contact:facebook": "https://www.facebook.com/Shake-Square-Connaught-Place-242986939074737", "contact:instagram": "https://www.instagram.com/shakesquare", "contact:website": "http://shakesquare.co.in", "cuisine": "shake;ice_cream;italian;salad;noodles;pizza;pasta", "diet:vegan": "yes", "diet:vegetarian": "only", "drink:shake": "yes", "level": "0;1", "name": "Shake Square", "operator": "M/s SS Milk Products", "seats": "23", "smoking": "no", "wheelchair": "no"}}, {"type": "node", "id": 6741865643, "lat": 28.643686, "lon": 77.1882167, "tags": {"amenity": "restaurant", "level": "1", "name": "The Feast House"}}, {"type": "node", "id": 6743603886, "lat": 28.6497142, "lon": 77.2343609, "tags": {"addr:postcode": "110006", "amenity": "restaurant", "name": "Fish Point"}}, {"type": "node", "id": 6760233482, "lat": 28.5877629, "lon": 77.1674682, "tags": {"amenity": "restaurant", "name": "Faculty of Food"}}, {"type": "node", "id": 6760297386, "lat": 28.5877769, "lon": 77.1673736, "tags": {"amenity": "restaurant", "branch": "South Campus", "cuisine": "italian", "diet:vegetarian": "yes", "level": "0", "name": "Big Yellow Door", "wheelchair": "no"}}, {"type": "node", "id": 6785996652, "lat": 28.5614698, "lon": 77.1937906, "tags": {"addr:district": "Safdarjung Enclave", "addr:housenumber": "97", "addr:postcode": "110029", "addr:subdistrict": "Humayunpur", "addr:unit": "2", "amenity": "restaurant", "check_date": "2024-12-21", "contact:instagram": "mohingathetasteofmyanmar", "cuisine": "burmese;noodle", "diet:vegan": "yes", "diet:vegetarian": "yes", "email": "mohingaresto@gmail.com", "internet_access": "wlan", "internet_access:fee": "customers", "level": "0", "name": "Mohinga", "name:hi": "\u092e\u094b\u0939\u0940\u0902\u0917\u093e", "outdoor_seating": "no", "panoramax": "5497920e-d43b-43b4-b35e-b577881b6d83", "panoramax:0": "4db988e1-3ecf-403a-a515-8c5cc99b9253", "panoramax:1": "23e78c6c-8b30-4b78-82c9-55a3f8a12938", "panoramax:2": "6b76ec95-3106-4fe3-b5f7-38b9ac3ad3fa", "panoramax:3": "87d2ac12-fdf6-49d6-8f2b-b39129f45a29", "panoramax:4": "2c850b3c-ebc3-4571-ba42-3ef5d444f605", "panoramax:5": "4c22c7f4-4dd5-48bb-b19d-2ce99e9d706a", "phone": "+91-98115-76380;+91-79827-52510", "smoking": "separated", "toilets": "yes", "wikimedia_commons": "File:Mohinga,_Humayunpur,_Delhi.jpg"}}, {"type": "node", "id": 6785996675, "lat": 28.5846582, "lon": 77.2231435, "tags": {"addr:unit": "17", "amenity": "restaurant", "cuisine": "indian", "name": "Jamun"}}, {"type": "node", "id": 6786009785, "lat": 28.5614854, "lon": 77.1939491, "tags": {"amenity": "restaurant", "cuisine": "manipuri", "level": "0", "name": "The Categorical Eat-Pham", "phone": "+91-11-4181-2089;+91-99581-25827"}}, {"type": "node", "id": 6792923897, "lat": 28.6209452, "lon": 77.2180853, "tags": {"addr:city": "New Delhi", "addr:housenumber": "19", "addr:street": "Ashoka Road", "amenity": "restaurant", "cuisine": "italian", "name": "Sorento", "name:ru": "\u0421\u043e\u0440\u0435\u043d\u0442\u043e", "opening_hours": "Mo-Su 12:30-14:45, 19:00-23:45"}}, {"type": "node", "id": 6793251785, "lat": 28.6013446, "lon": 77.2410517, "tags": {"addr:housenumber": "28", "addr:street": "Sunder Nagar", "amenity": "restaurant", "cuisine": "italian", "name:ru": "\u0420\u0435\u0441\u0442\u043e\u0440\u0430\u043d Basil and Thyme", "opening_hours": "Mo-Su 11:00-23:00"}}, {"type": "node", "id": 6793339982, "lat": 28.5628638, "lon": 77.2248731, "tags": {"amenity": "restaurant", "brand": "Pizza Hut", "brand:wikidata": "Q191615", "cuisine": "pizza", "name": "Pizza Hut"}}, {"type": "node", "id": 6795202891, "lat": 28.5442403, "lon": 77.2510224, "tags": {"amenity": "restaurant", "name": "Curry House", "name:en": "Muradabadi Curry"}}, {"type": "node", "id": 6795214385, "lat": 28.5443046, "lon": 77.2512173, "tags": {"amenity": "restaurant", "name": "Bikaneri Sweets"}}, {"type": "node", "id": 6812471481, "lat": 28.552562, "lon": 77.24204, "tags": {"amenity": "restaurant", "level": "0", "name": "Green Chick Shop"}}, {"type": "node", "id": 6817346160, "lat": 28.5498716, "lon": 77.2510781, "tags": {"air_conditioning": "yes", "amenity": "restaurant", "bar": "no", "brand": "Pizza Hut", "brand:wikidata": "Q191615", "brewery": "no", "changing_table": "no", "check_date": "2024-05-19", "contact:phone": "+91-11-3988-3988", "cuisine": "pizza", "diet:chicken": "yes", "diet:fish": "yes", "diet:halal": "yes", "diet:meat": "yes", "diet:non-vegetarian": "yes", "diet:omnivore": "yes", "diet:seafood": "yes", "diet:vegetarian": "yes", "highchair": "no", "internet_access": "no", "level": "0", "name": "Pizza Hut", "operator": "Devyani International Limited", "outdoor_seating": "no", "payment:cash": "yes", "payment:credit_cards": "yes", "payment:debit_cards": "yes", "reservation": "no", "smoking": "no", "tables": "12", "toilets": "no", "toilets:wheelchair": "no", "wheelchair": "no"}}, {"type": "node", "id": 6900471305, "lat": 28.5374778, "lon": 77.2564665, "tags": {"amenity": "restaurant", "name": "Horn Please", "operator": "24/7"}}, {"type": "node", "id": 6929384385, "lat": 28.5469986, "lon": 77.2537901, "tags": {"amenity": "restaurant", "name": "Blue Parrott Cafe"}}, {"type": "node", "id": 6957678134, "lat": 28.6022338, "lon": 77.1861298, "tags": {"amenity": "restaurant", "name": "Palatini Pizzeria"}}, {"type": "node", "id": 6957678141, "lat": 28.6016675, "lon": 77.186001, "tags": {"addr:city": "New Delhi", "amenity": "restaurant", "level": "1", "name": "Moti Mahal Delux"}}, {"type": "node", "id": 6957678143, "lat": 28.6021801, "lon": 77.1861058, "tags": {"amenity": "restaurant", "name": "Lazeez Affaire"}}, {"type": "node", "id": 6957678156, "lat": 28.6016518, "lon": 77.1861386, "tags": {"alcohol": "yes", "amenity": "restaurant", "name": "Fujiya"}}, {"type": "node", "id": 6992113685, "lat": 28.630052, "lon": 77.2732845, "tags": {"amenity": "restaurant", "name": "Tasty Muradabadi Chicken Biryani"}}, {"type": "node", "id": 6996497685, "lat": 28.5786205, "lon": 77.2385021, "tags": {"amenity": "restaurant", "cuisine": "indian", "name": "Suri Saab"}}, {"type": "node", "id": 7021447890, "lat": 28.5481225, "lon": 77.2510734, "tags": {"amenity": "restaurant", "level": "1", "name": "Only Bar", "wheelchair": "no"}}, {"type": "node", "id": 7040114786, "lat": 28.6825138, "lon": 77.2056697, "tags": {"amenity": "restaurant", "name": "SS Amristari Kulcha Corner"}}, {"type": "node", "id": 7040118785, "lat": 28.6477274, "lon": 77.1960745, "tags": {"amenity": "restaurant", "name": "Amristari Kulcha King"}}, {"type": "node", "id": 7041338185, "lat": 28.5689762, "lon": 77.1848546, "tags": {"amenity": "restaurant", "name": "La Piazza"}}, {"type": "node", "id": 7041370085, "lat": 28.5584754, "lon": 77.1638371, "tags": {"amenity": "restaurant", "name": "Leo\u2019s Artisan Pizza"}}, {"type": "node", "id": 7041383486, "lat": 28.5732664, "lon": 77.2306604, "tags": {"amenity": "restaurant", "name": "AKU\u2019s The Brrgrr Co."}}, {"type": "node", "id": 7041400209, "lat": 28.6344467, "lon": 77.2220056, "tags": {"amenity": "restaurant", "diet:vegan": "yes", "diet:vegetarian": "yes", "indoor_seating": "yes", "name": "Sandoz", "outdoor_seating": "no"}}, {"type": "node", "id": 7044738885, "lat": 28.6599133, "lon": 77.2235649, "tags": {"amenity": "restaurant", "cuisine": "indian", "diet:vegetarian": "only", "name": "Vegetarian Restaurant", "name:ur": "\u0633\u0628\u0632\u06cc \u062e\u0648\u0631 \u0631\u06cc\u0633\u062a\u0648\u0631\u0627\u0646"}}, {"type": "node", "id": 7044903485, "lat": 28.6345679, "lon": 77.2219125, "tags": {"amenity": "restaurant", "diet:vegan": "yes", "diet:vegetarian": "yes", "indoor_seating": "yes", "name": "Minar", "outdoor_seating": "no", "survey:date": "2023-01-24"}}, {"type": "node", "id": 7066449791, "lat": 28.5399032, "lon": 77.2585227, "tags": {"amenity": "restaurant", "level": "0", "name": "Wood Box", "wheelchair": "no"}}, {"type": "node", "id": 7083796923, "lat": 28.6350184, "lon": 77.2195254, "tags": {"addr:housename": "H", "addr:housenumber": "9", "addr:place": "Connaught Place", "addr:postcode": "110001", "air_conditioning": "yes", "amenity": "restaurant", "bar": "yes", "contact:phone": "+91 11 2332 0081;+91 11 4152 8042", "contact:website": "https://toninoindia.com/", "cuisine": "italian", "diet:vegan": "yes", "diet:vegetarian": "yes", "drink:beer": "served", "drink:wine": "served", "level": "1", "name": "Caff\u00e8 Tonino", "toilets": "yes", "toilets:access": "customers", "wheelchair": "no"}}, {"type": "node", "id": 7110019814, "lat": 28.6345219, "lon": 77.2225088, "tags": {"amenity": "restaurant", "diet:vegan": "yes", "diet:vegetarian": "yes", "indoor_seating": "yes", "name": "National Restaurant", "outdoor_seating": "no"}}, {"type": "node", "id": 7114741289, "lat": 28.528554, "lon": 77.2197605, "tags": {"air_conditioning": "yes", "amenity": "restaurant", "diet:vegan": "yes", "diet:vegetarian": "yes", "indoor_seating": "yes", "name": "Burma Burma", "outdoor_seating": "no"}}, {"type": "node", "id": 7120341586, "lat": 28.5576397, "lon": 77.2056845, "tags": {"amenity": "restaurant", "name": "Nagaland's Kitchen"}}, {"type": "node", "id": 7124277889, "lat": 28.519133, "lon": 77.2063245, "tags": {"amenity": "restaurant", "contact:phone": "+91 92138 13519;+91 88609 93937", "delivery": "yes", "diet:lacto_vegetarian": "only", "name": "Jai Shri Krishna", "wheelchair": "no"}}, {"type": "node", "id": 7149123090, "lat": 28.5291511, "lon": 77.2137981, "tags": {"addr:housenumber": "25A", "addr:place": "Hauz Rani", "amenity": "restaurant", "contact:phone": "+91 80103 55355;+91 88007 40222;+91 99900 01669", "level": "1", "name": "Teekoy Kerala Restaurant"}}, {"type": "node", "id": 7222985985, "lat": 28.6411587, "lon": 77.2134007, "tags": {"addr:street": "1176 Main Bazar", "amenity": "restaurant", "internet_access": "wlan", "name": "Singh\u2019s caf\u00e9 & restaurant"}}, {"type": "node", "id": 7229991868, "lat": 28.5704045, "lon": 77.2425463, "tags": {"addr:housenumber": "E-96", "addr:place": "Lajpat Nagar 2", "addr:postcode": "110024", "amenity": "restaurant", "name:en": "Afghan Darbar Restaurant", "opening_hours": "Mo-Su 12:00-23:00", "phone": "+91 11 4950 2058"}}, {"type": "node", "id": 7389579737, "lat": 28.7029756, "lon": 77.2059397, "tags": {"amenity": "restaurant"}}, {"type": "node", "id": 7618454281, "lat": 28.5332223, "lon": 77.2155902, "tags": {"addr:city": "Delhi", "addr:housenumber": "J Block", "addr:postcode": "110017", "addr:street": "Malviya nagar", "amenity": "restaurant", "cuisine": "bengali", "name": "BongTaste", "opening_hours": "10:00-22:00", "opening_hours:covid19": "sa-su 10-22", "phone": "+91 9873646321"}}, {"type": "node", "id": 7844387261, "lat": 28.6472447, "lon": 77.1195401, "tags": {"addr:city": "New Delhi", "addr:housenumber": "J-2/11", "addr:postcode": "110027", "addr:street": "BK dutt Market Rajouri Garden", "amenity": "restaurant", "name": "FLY bar", "phone": "+919999992790"}}, {"type": "node", "id": 7887163357, "lat": 28.7008342, "lon": 77.1361351, "tags": {"addr:city": "Delhi", "addr:housenumber": "Shop No 2 JD21A", "addr:postcode": "110089", "addr:street": "Pitampura", "amenity": "restaurant", "cuisine": "Samosa;burger;Gulab_Jamun", "name": "TMR Samosa"}}, {"type": "node", "id": 7947290195, "lat": 28.6910247, "lon": 77.1197309, "tags": {"addr:city": "New Delhi", "addr:housenumber": "7/D34", "addr:postcode": "110034", "addr:street": "Road no. 42", "air_conditioning": "yes", "amenity": "restaurant", "bar": "yes", "capacity": "50", "cuisine": "indian;italian;american;north_indian", "diet:non-vegetarian": "yes", "diet:vegetarian": "yes", "name": "Grand Celebration Party Hub", "phone": "+91 98911 28518", "reservation": "recommended"}}, {"type": "node", "id": 8014185779, "lat": 28.5204237, "lon": 77.2022859, "tags": {"addr:city": "New Delhi", "addr:housenumber": "F-16,Saidulajab Main MB Road", "addr:postcode": "110030", "addr:street": "Mehrauli Badarpur Road", "amenity": "restaurant", "cuisine": "Punjabi;chinese", "name": "Arora di Hatti", "phone": "9810381918"}}, {"type": "node", "id": 8116475662, "lat": 28.5634646, "lon": 77.240684}, {"type": "node", "id": 8116475663, "lat": 28.5634767, "lon": 77.240847}, {"type": "node", "id": 8116475664, "lat": 28.5634206, "lon": 77.2408498}, {"type": "node", "id": 8116475665, "lat": 28.5634133, "lon": 77.2406908}, {"type": "node", "id": 8151189592, "lat": 28.6797211, "lon": 77.194019, "tags": {"addr:full": "28/5, Nangia Park Chowk, Block 29, Shakti Nagar, Delhi,", "amenity": "restaurant", "diet:vegetarian": "only", "name": "Govardhan Vegetarian"}}, {"type": "node", "id": 8151189839, "lat": 28.6287272, "lon": 77.2229395, "tags": {"addr:full": "Antriksh Bhavan, 22, KG Marg, Barakhamba, New Delhi, Delhi", "amenity": "restaurant", "name": "Parikrama - The Revolving Restaurant", "website": "www.thewoofytails.com"}}, {"type": "node", "id": 8176935925, "lat": 28.7278904, "lon": 77.1294083, "tags": {"amenity": "restaurant", "description": "Meat Shop", "name": "Zaika", "opening_hours": "Mo-Su 09:45-22:15"}}, {"type": "node", "id": 8177833575, "lat": 28.7185808, "lon": 77.1250359, "tags": {"addr:housenumber": "S-22", "amenity": "restaurant", "description": "Health food restaurant", "name": "Gym's Kook", "opening_hours": "Mo-Su 09:00-23:30"}}, {"type": "node", "id": 8204008811, "lat": 28.5348461, "lon": 77.2910419, "tags": {"amenity": "restaurant", "cuisine": "chinese;indian", "name": "Handi"}}, {"type": "node", "id": 8219681122, "lat": 28.7187798, "lon": 77.1252694, "tags": {"addr:housenumber": "308, Amba Tower, 3rd Floor", "addr:street": "DC Chowk", "amenity": "restaurant", "name": "Diet Zone"}}, {"type": "node", "id": 8223628694, "lat": 28.7104326, "lon": 77.1131248, "tags": {"addr:street": "Avantika Road", "amenity": "restaurant", "description": "Sweets Shop", "name": "Bansi Vala", "opening_hours": "Mo-Su 06:00-23:00"}}, {"type": "node", "id": 8223660655, "lat": 28.710397, "lon": 77.1132755, "tags": {"amenity": "restaurant", "description": "Street Vendor", "name": "Kadai Dhudh"}}, {"type": "node", "id": 8241891434, "lat": 28.7060642, "lon": 77.1896896, "tags": {"addr:housenumber": "shop no 4, F 14/11", "addr:street": "Model Town Phase 2, Pocket E, Gujranwala Town Part 2, Model Town", "amenity": "restaurant", "description": "Japanese cuisine", "name": "Dashi", "opening_hours": "Mo-Su 12:00-23:00", "phone": "011 4076 7770", "website": "https://dashi.in/"}}, {"type": "node", "id": 8353742730, "lat": 28.6824754, "lon": 77.3094817, "tags": {"addr:street": "Ucms campus", "amenity": "restaurant", "description": "not open after covid", "name": "College canteen"}}, {"type": "node", "id": 8365915118, "lat": 28.5593978, "lon": 77.2909795, "tags": {"amenity": "restaurant", "name": "Haseen Biryani corner"}}, {"type": "node", "id": 8507512872, "lat": 28.6875793, "lon": 77.3111002, "tags": {"addr:street": "Pocket E", "amenity": "restaurant", "name": "Lavanya Chinese Food"}}, {"type": "node", "id": 8507539961, "lat": 28.6875433, "lon": 77.3111394, "tags": {"addr:housenumber": "94", "addr:street": "Pocket E", "amenity": "restaurant", "description": "Best chat bhandar near GTB", "name": "Vishal Chat Bhandar", "phone": "9899999151"}}, {"type": "node", "id": 8509374244, "lat": 28.6821519, "lon": 77.1990491, "tags": {"addr:city": "Delhi", "addr:housenumber": "2/11 Roop nagar", "addr:postcode": "110007", "addr:street": "Near Shakti Nagar Chowk", "amenity": "restaurant", "name": "Blackmail lounge&Bar", "phone": "+919711311310"}}, {"type": "node", "id": 8510675587, "lat": 28.6842992, "lon": 77.3142867, "tags": {"addr:housenumber": "1-2", "addr:street": "Pocket F market", "amenity": "restaurant", "cuisine": "tandoor;chicken;mughalai;north_indian", "description": "veg and non veg, tandoori items available", "diet:meat": "yes", "diet:non-vegetarian": "yes", "name": "Mathur's Kitchen", "opening_hours": "Mo, We-Su 11:00-23:00", "phone": "7065000490"}}, {"type": "node", "id": 8529811934, "lat": 28.5203046, "lon": 77.2289059, "tags": {"addr:city": "New Delhi", "addr:housenumber": "19/551 DDA FLATS MADANGIR", "addr:postcode": "110062", "addr:street": "Lal Bahadur Shastri Marg", "amenity": "restaurant", "brand": "Chai Gupshup", "capacity": "10", "cuisine": "pizza;tea;burger;sandwich;pasta", "diet:vegetarian": "yes", "fixme": "Website (www.chaigupshup.com) doesn't work. Is this place still working?", "name": "Chai Gupshup", "opening_hours": "Mo-Su 09:00-23:00", "outdoor_seating": "yes", "phone": "+919891358708", "takeaway": "yes"}}, {"type": "node", "id": 8536111837, "lat": 28.6867606, "lon": 77.309899, "tags": {"addr:housenumber": "10A", "addr:street": "Pocket E", "amenity": "restaurant", "description": "Kerala restaurant", "name": "Neelagiri Malayali Restaurant", "opening_hours": "Mo-Su 08:00-22:00", "phone": "9811212288"}}, {"type": "node", "id": 8849869940, "lat": 28.6379817, "lon": 77.1136695}, {"type": "node", "id": 8849869941, "lat": 28.6379325, "lon": 77.1136376}, {"type": "node", "id": 8849869942, "lat": 28.6378952, "lon": 77.1136998}, {"type": "node", "id": 8849869943, "lat": 28.6379498, "lon": 77.1137408}, {"type": "node", "id": 8849869966, "lat": 28.6342187, "lon": 77.1112756}, {"type": "node", "id": 8849869967, "lat": 28.6341379, "lon": 77.1112738}, {"type": "node", "id": 8849869968, "lat": 28.6341427, "lon": 77.1110844}, {"type": "node", "id": 8849869969, "lat": 28.6342139, "lon": 77.1110826}, {"type": "node", "id": 8916577176, "lat": 28.6302728, "lon": 77.1796827, "tags": {"amenity": "restaurant", "cuisine": "indian", "name": "Shyam Bakery", "opening_hours": "Mo-Su 08:00-21:00", "opening_hours:covid19": "Mo-Su 08:00-20:00"}}, {"type": "node", "id": 8916577192, "lat": 28.6310878, "lon": 77.1828001, "tags": {"amenity": "restaurant", "name": "Rohan Hotel", "name:ur": "\u0631\u0648\u06c1\u0646 \u06c1\u0648\u0679\u0644"}}, {"type": "node", "id": 8985017286, "lat": 28.6922478, "lon": 77.1777771, "tags": {"amenity": "restaurant", "name": "Apni Rasoi"}}, {"type": "node", "id": 8985017288, "lat": 28.6923866, "lon": 77.1780345, "tags": {"amenity": "restaurant", "name": "Bablu Kebab Shop"}}, {"type": "node", "id": 8985481418, "lat": 28.6916593, "lon": 77.1755879, "tags": {"amenity": "restaurant", "name": "Sandoz Ashok Vihar"}}, {"type": "node", "id": 8985874378, "lat": 28.6963196, "lon": 77.1793168, "tags": {"amenity": "restaurant", "name": "Invitation"}}, {"type": "node", "id": 9037075910, "lat": 28.6304108, "lon": 77.2198181, "tags": {"amenity": "restaurant", "diet:vegetarian": "yes", "name": "Nik Baker's"}}, {"type": "node", "id": 9085982627, "lat": 28.6809393, "lon": 77.3133407, "tags": {"addr:city": "Dilshad Garden, Delhi", "addr:postcode": "110095", "addr:street": "Block A", "amenity": "restaurant", "contact:mobile": "+91 92121 79797", "cuisine": "indian;chaap;north_indian", "diet:vegetarian": "yes", "name": "Guru Nanak Rasoi", "opening_hours": "Mo-Su 10:00-23:00", "phone": "+91 98102 04027"}}, {"type": "node", "id": 9086023442, "lat": 28.6799917, "lon": 77.3116547, "tags": {"addr:city": "Dilshad Garden, Delhi", "addr:housenumber": "35", "addr:postcode": "110095", "addr:street": "Block B", "amenity": "restaurant", "cuisine": "indian;north_indian", "diet:vegetarian": "yes", "name": "Aggarwal Bikaneri Sweets", "opening_hours": "Mo-Su 08:00-22:00"}}, {"type": "node", "id": 9134826700, "lat": 28.6128038, "lon": 76.9908781}, {"type": "node", "id": 9134826701, "lat": 28.6128054, "lon": 76.9910603}, {"type": "node", "id": 9134826702, "lat": 28.6126121, "lon": 76.9910751}, {"type": "node", "id": 9134826703, "lat": 28.6126154, "lon": 76.9908873}, {"type": "node", "id": 9134866492, "lat": 28.6127047, "lon": 76.9909817, "tags": {"amenity": "restaurant", "cuisine": "indian", "name": "Bikaner Sweets"}}, {"type": "node", "id": 9134892518, "lat": 28.6122939, "lon": 76.990948}, {"type": "node", "id": 9134892519, "lat": 28.6121712, "lon": 76.9909274}, {"type": "node", "id": 9134892520, "lat": 28.6121839, "lon": 76.9910487}, {"type": "node", "id": 9180387212, "lat": 28.6867124, "lon": 77.3245479, "tags": {"amenity": "restaurant", "name": "Nazeer Foods"}}, {"type": "node", "id": 9195213776, "lat": 28.5547625, "lon": 77.1732631, "tags": {"addr:housenumber": "60-A", "addr:street": "prateek market, Munirka", "amenity": "restaurant", "name": "Sarathi South Indian Family restaurant", "phone": "8860837177,8585991449"}}, {"type": "node", "id": 9238938944, "lat": 28.6353058, "lon": 77.2842479, "tags": {"amenity": "restaurant", "cuisine": "pizza", "name": "Chicago Pizza"}}, {"type": "node", "id": 9239861666, "lat": 28.6303516, "lon": 77.2207134, "tags": {"amenity": "restaurant", "level": "2", "name": "Barbeque Nation", "wheelchair": "limited"}}, {"type": "node", "id": 9239861671, "lat": 28.6303321, "lon": 77.2206386, "tags": {"amenity": "restaurant", "name": "Blues", "operator": "Regent Restaurant"}}, {"type": "node", "id": 9239861673, "lat": 28.6303565, "lon": 77.22068, "tags": {"addr:housename": "Munshilal Building", "addr:street": "Outer Circle", "addr:unit": "N-61;N-62", "amenity": "restaurant", "contact:phone": "+91-96505-09371;+91-96505-09376;+91-96505-09364", "level": "1", "name": "Castle's Barbeque", "wheelchair": "limited"}}, {"type": "node", "id": 9239861674, "lat": 28.6303371, "lon": 77.2206681, "tags": {"amenity": "restaurant", "level": "1", "name": "Taste of China", "operator": "Regent Restaurant", "wheelchair": "no"}}, {"type": "node", "id": 9239861686, "lat": 28.6302128, "lon": 77.2201334, "tags": {"amenity": "restaurant", "diet:vegetarian": "yes", "level": "1", "name": "Ardor 2.1", "wheelchair": "no"}}, {"type": "node", "id": 9247464323, "lat": 28.5990752, "lon": 77.0115149, "tags": {"amenity": "restaurant"}}, {"type": "node", "id": 9279741263, "lat": 28.6303457, "lon": 77.2208085, "tags": {"addr:city": "New Delhi", "addr:housenumber": "N-19", "addr:place": "Connaught Place", "addr:postcode": "110001", "addr:street": "Outer Circle", "amenity": "restaurant", "contact:phone": "+91 11 4321 5555", "cuisine": "South Indian;North Indian;Chinese", "name": "DS Dosa Factory"}}, {"type": "node", "id": 9378685601, "lat": 28.6293409, "lon": 77.1370155, "tags": {"addr:city": "Delhi Cantonment", "addr:housenumber": "C-127", "addr:postcode": "110028", "addr:street": "Girdhari Lal Goswami Marg", "air_conditioning": "yes", "amenity": "restaurant", "bar": "yes", "cuisine": "indian;chinese", "delivery": "yes", "diet:halal": "yes", "diet:vegan": "yes", "diet:vegetarian": "yes", "image": "https://tallistation.in", "name": "Talli Station Naraina", "opening_hours": "Mo-Su 11:00-23:00", "opening_hours:covid19": "Mo-Su 12:00-20:00", "phone": "+91 9911054940", "takeaway": "yes", "website": "https://tallistation.in"}}, {"type": "node", "id": 9378736182, "lat": 28.6433841, "lon": 77.1777613, "tags": {"addr:city": "New Delhi", "addr:housenumber": "Unit No 167", "addr:postcode": "110008", "addr:street": "Rajendra Bhawan, Rajendra Place, New Delhi, Delhi", "air_conditioning": "yes", "amenity": "restaurant", "bar": "yes", "cuisine": "chinese;indian", "delivery": "yes", "diet:halal": "yes", "diet:vegan": "yes", "diet:vegetarian": "yes", "image": "https://tallistation.in", "name": "Talli Station Rajendra Place", "opening_hours": "Mo-Su 11:00-23:00", "opening_hours:covid19": "Mo-Su 12:00-20:00", "phone": "+91 9911054940", "takeaway": "yes", "website": "https://tallistation.in"}}, {"type": "node", "id": 9378751947, "lat": 28.6291859, "lon": 77.137002}, {"type": "node", "id": 9378751948, "lat": 28.6294658, "lon": 77.1371601}, {"type": "node", "id": 9378751949, "lat": 28.6434575, "lon": 77.1775786}, {"type": "node", "id": 9378751950, "lat": 28.6432343, "lon": 77.1775678}, {"type": "node", "id": 9378751951, "lat": 28.64322, "lon": 77.1780712}, {"type": "node", "id": 9378751952, "lat": 28.6435003, "lon": 77.1781416}, {"type": "node", "id": 9378751953, "lat": 28.643543, "lon": 77.1775822}, {"type": "node", "id": 9378787102, "lat": 28.6473, "lon": 77.1194981, "tags": {"addr:city": "New Delhi", "addr:housenumber": "J2, 11, Block J,", "addr:postcode": "110027", "addr:street": "Rajouri Garden, New Delhi, Delhi", "air_conditioning": "yes", "amenity": "restaurant", "bar": "yes", "brand": "Talli Station", "capacity": "60", "cuisine": "chinese;italian;indian", "delivery": "yes", "diet:halal": "yes", "diet:vegan": "yes", "diet:vegetarian": "yes", "name": "Talli Station Rajouri Garden", "opening_hours": "Mo-Su 11:00-23:00", "opening_hours:covid19": "Mo-Su 12:00-20:00", "phone": "+91 9911054940", "website": "https://tallistation.in"}}, {"type": "node", "id": 9378798600, "lat": 28.6292748, "lon": 77.0827141, "tags": {"addr:city": "new Delhi", "addr:housenumber": "G-38 to 42,", "addr:postcode": "110058", "addr:street": "ground floor, Suneja Tower-1-Plot-7, Janakpuri District Center, Janakpuri", "air_conditioning": "yes", "amenity": "restaurant", "bar": "yes", "brand": "Talli station", "capacity": "50", "cuisine": "indian;chinese;italian", "delivery": "yes", "diet:halal": "yes", "diet:vegan": "yes", "diet:vegetarian": "yes", "name": "Talli Station Janakpuri", "opening_hours": "Mo-Su 12:00-23:00", "opening_hours:covid19": "Mo-Su 12:00-20:00", "phone": "+91 9911054940", "takeaway": "yes", "website": "https://tallistation.in"}}, {"type": "node", "id": 9451667583, "lat": 28.7241201, "lon": 77.0886094, "tags": {"addr:street": "shri balaji babosa marg", "amenity": "restaurant", "name": "Chaap factory"}}, {"type": "node", "id": 9502029145, "lat": 28.5533532, "lon": 77.2406799, "tags": {"amenity": "restaurant", "cuisine": "kebab", "diet:non-vegetarian": "yes", "name": "Relax Restaurant", "note": "Location is approximate"}}, {"type": "node", "id": 9632496558, "lat": 28.6964486, "lon": 77.1842968, "tags": {"addr:city": "New Delhi", "addr:housenumber": "Plot No.118, Block-B, GT Karnal Rd, Industrial Area, Jahangirpuri Industrial Area,", "addr:postcode": "110033", "addr:street": "Ashok Vihar, New Delhi", "amenity": "restaurant", "diet:non-vegetarian": "yes", "diet:vegetarian": "yes", "name": "Anidra Cafe and Lounge", "phone": "+91 97739 68228"}}, {"type": "node", "id": 9827506500, "lat": 28.6117272, "lon": 77.3358126, "tags": {"addr:city": "Delhi", "addr:postcode": "110096", "addr:street": "Mayur Vihar Phase 3 Road, Pocket A2", "amenity": "restaurant", "cuisine": "indian;kebab;chicken", "diet:non-vegetarian": "yes", "diet:vegetarian": "yes", "name": "Kuki Kathi Junction", "opening_hours": "Mo-Su 16:00-23:00", "phone": "+91 9953828506", "website": "https://kukikathijunction.com"}}, {"type": "node", "id": 9937556917, "lat": 28.5375912, "lon": 77.2104123, "tags": {"amenity": "restaurant", "name": "Gaon"}}, {"type": "node", "id": 9937843117, "lat": 28.5517564, "lon": 77.1225963, "tags": {"amenity": "restaurant", "name": "Dhaba est 1986"}}, {"type": "node", "id": 9937845917, "lat": 28.551561, "lon": 77.1225437, "tags": {"addr:city": "New Delhi", "amenity": "restaurant", "name": "One8 commune", "name:en": "One8 commune", "owner": "Virat Kohli"}}, {"type": "node", "id": 9978848762, "lat": 28.6528063, "lon": 77.1273471, "tags": {"amenity": "restaurant", "name": "Community Centre Raja Garden"}}, {"type": "node", "id": 10015351982, "lat": 28.6894525, "lon": 77.2709972, "tags": {"addr:city": "new delhi", "addr:housenumber": "shyam gali", "addr:postcode": "110053", "addr:street": "gali no.1", "amenity": "restaurant", "cuisine": "pizza;burger;chinese;sandwich;chicken;indian", "diet:non-vegetarian": "yes", "diet:vegetarian": "yes", "name": "MF Delito Diet", "opening_hours": "Mo-Su 10:00-22:00"}}, {"type": "node", "id": 10027880529, "lat": 28.6300714, "lon": 77.2732351, "tags": {"amenity": "restaurant", "name": "Manakamana Restaurant"}}, {"type": "node", "id": 10047592016, "lat": 28.5421331, "lon": 77.1861903, "tags": {"amenity": "restaurant", "cuisine": "bengali", "name": "Aahar"}}, {"type": "node", "id": 10047612517, "lat": 28.5421683, "lon": 77.1862089, "tags": {"amenity": "restaurant", "cuisine": "bengali", "name": "Sumona"}}, {"type": "node", "id": 10049646653, "lat": 28.5482464, "lon": 77.1842238}, {"type": "node", "id": 10049646654, "lat": 28.548315, "lon": 77.1843883}, {"type": "node", "id": 10049646655, "lat": 28.5482338, "lon": 77.1844341}, {"type": "node", "id": 10049646656, "lat": 28.54822, "lon": 77.1843905}, {"type": "node", "id": 10049646657, "lat": 28.5482695, "lon": 77.184359}, {"type": "node", "id": 10049646658, "lat": 28.5482437, "lon": 77.1842861}, {"type": "node", "id": 10049646659, "lat": 28.5481619, "lon": 77.1843192}, {"type": "node", "id": 10049646660, "lat": 28.5481448, "lon": 77.1842568}, {"type": "node", "id": 10116901517, "lat": 28.6421676, "lon": 77.2373339, "tags": {"amenity": "restaurant", "cuisine": "indian", "name": "Kallu Nihari"}}, {"type": "node", "id": 10172949309, "lat": 28.5436287, "lon": 77.2956314, "tags": {"amenity": "restaurant", "name": "restraunt"}}, {"type": "node", "id": 10223877817, "lat": 28.5434693, "lon": 77.1242076, "tags": {"addr:housenumber": "#2", "addr:postcode": "110037", "addr:street": "Mahipalpur", "amenity": "restaurant", "cuisine": "breakfast;burger;coffee_shop;indian;pizza", "name": "Pizza O\u2019bello", "phone": "+919205418659", "website": "https://pizzaobello.com/"}}, {"type": "node", "id": 10237610644, "lat": 28.5729599, "lon": 77.2302558, "tags": {"amenity": "restaurant", "cuisine": "japanese;chinese", "name": "Aka Gaka"}}, {"type": "node", "id": 10249007388, "lat": 28.5732343, "lon": 77.2306804, "tags": {"amenity": "restaurant", "name": "Moets", "takeaway": "yes"}}, {"type": "node", "id": 10250886679, "lat": 28.6077855, "lon": 77.2299247, "tags": {"addr:housenumber": "8", "addr:street": "Pandara Road Market", "amenity": "restaurant", "cuisine": "indian", "diet:vegan": "yes", "diet:vegetarian": "only", "name": "Veg Gulati", "phone": "+91 11 2338 8830;+91 112338862", "takeaway": "yes", "website": "www.veggulati.in"}}, {"type": "node", "id": 10250892163, "lat": 28.607798, "lon": 77.2296832, "tags": {"amenity": "restaurant"}}, {"type": "node", "id": 10250892907, "lat": 28.6077919, "lon": 77.2297742, "tags": {"amenity": "restaurant", "name": "Have more"}}, {"type": "node", "id": 10250904256, "lat": 28.6077837, "lon": 77.2298805, "tags": {"amenity": "restaurant", "name": "Ichiban"}},