{"version": 0.6, "generator": "Overpass API 0.7.62.8 e802775f", "osm3s": {"timestamp_osm_base": "2025-11-29T17:19:02Z", "copyright": "The data included in this document is from www.openstreetmap.org. The data is made available under ODbL."}, "elements": [{"type": "node", "id": 3512075978, "lat": 17.2544758, "lon": 77.5815109}, {"type": "node", "id": 3512075979, "lat": 17.2544797, "lon": 77.5816059}, {"type": "node", "id": 3512075980, "lat": 17.2543683, "lon": 77.5816109}, {"type": "node", "id": 3512075981, "lat": 17.2543644, "lon": 77.581516}, {"type": "node", "id": 3517011242, "lat": 17.2686688, "lon": 77.585718}, {"type": "node", "id": 3517011243, "lat": 17.2685834, "lon": 77.5857149}, {"type": "node", "id": 3517011244, "lat": 17.2685882, "lon": 77.5856722}, {"type": "node", "id": 3517011245, "lat": 17.2686688, "lon": 77.5856793}, {"type": "node", "id": 3517011246, "lat": 17.2685664, "lon": 77.5856685}, {"type": "node", "id": 3517011247, "lat": 17.2685613, "lon": 77.5857784}, {"type": "node", "id": 3517011248, "lat": 17.2684877, "lon": 77.5857746}, {"type": "node", "id": 3517011249, "lat": 17.2684928, "lon": 77.5856647}, {"type": "node", "id": 3517018975, "lat": 17.2688769, "lon": 77.5860454}, {"type": "node", "id": 3517018976, "lat": 17.2687045, "lon": 77.5860407}, {"type": "node", "id": 3517018977, "lat": 17.2687074, "lon": 77.5859261}, {"type": "node", "id": 3517018978, "lat": 17.2688698, "lon": 77.5859306}, {"type": "node", "id": 3517018979, "lat": 17.2688689, "lon": 77.5859698}, {"type": "node", "id": 3517018980, "lat": 17.2688169, "lon": 77.5859684}, {"type": "node", "id": 3517018981, "lat": 17.2688162, "lon": 77.5859962}, {"type": "node", "id": 3517018982, "lat": 17.268878, "lon": 77.5859979}, {"type": "node", "id": 3528115106, "lat": 17.6016537, "lon": 77.7107517, "tags": {"name": "kohir", "shop": "supermarket"}}, {"type": "node", "id": 5045104321, "lat": 17.4558508, "lon": 77.4198904, "tags": {"email": "Revanu.ganjgeri1333@gmail.com", "internet_access": "wlan", "opening_hours": "24/7", "phone": "8971239945", "shop": "mobile_phone"}}, {"type": "node", "id": 5045112538, "lat": 17.456629, "lon": 77.4201121, "tags": {"addr:street": "chincholi", "phone": "8105-363756", "shop": "mobile_phone"}}, {"type": "node", "id": 5045128521, "lat": 17.4568146, "lon": 77.4181036, "tags": {"addr:street": "chincholi", "phone": "8791239945", "shop": "mobile_phone"}}, {"type": "node", "id": 5104606022, "lat": 17.4542168, "lon": 77.4216806, "tags": {"email": "Revanu.ganjgeri1333@gmail.com", "phone": "9108383822", "shop": "mobile_phone"}}, {"type": "node", "id": 5104640623, "lat": 17.4477706, "lon": 77.4252661, "tags": {"email": "Revanu.ganjgeri1333@gmail.com", "phone": "9668661451", "shop": "mobile_phone"}}, {"type": "node", "id": 6840090512, "lat": 17.2558103, "lon": 77.5862771, "tags": {"name": "RK Super Market", "shop": "supermarket", "source": "survey"}}, {"type": "node", "id": 6840090532, "lat": 17.2614195, "lon": 77.5847851, "tags": {"name": "Bhavani Automobiles", "shop": "motorcycle", "source": "survey"}}, {"type": "node", "id": 6840090579, "lat": 17.2567707, "lon": 77.5915188, "tags": {"name": "RK Super Market", "shop": "supermarket", "source": "survey"}}, {"type": "node", "id": 6840090724, "lat": 17.4416583, "lon": 77.7072862, "tags": {"name": "Padugula Shekhar shop", "shop": "department_store", "source": "survey"}}, {"type": "node", "id": 6840090825, "lat": 17.2599904, "lon": 77.5852586, "tags": {"name": "Vaishnaoi Honda,Authorised Service Centre", "shop": "motorcycle", "source": "survey"}}, {"type": "node", "id": 6840090895, "lat": 17.2612659, "lon": 77.5848026, "tags": {"name": "Karthik Electronics", "shop": "electronics", "source": "survey"}}, {"type": "node", "id": 6840746065, "lat": 17.214781, "lon": 77.424623, "tags": {"name": "Devi Kirana & General Store", "shop": "department_store", "source": "survey"}}, {"type": "node", "id": 6840746066, "lat": 17.218405, "lon": 77.427223, "tags": {"name": "Khader Bakery", "shop": "bakery", "source": "survey"}}, {"type": "node", "id": 6840746067, "lat": 17.21767, "lon": 77.4248508, "tags": {"name": "Al Saif Bakery", "shop": "bakery", "source": "survey"}}, {"type": "node", "id": 6840746068, "lat": 17.21991, "lon": 77.425865, "tags": {"name": "MADINA CHICKEN CENTER", "shop": "butcher", "source": "survey"}}, {"type": "node", "id": 6847212500, "lat": 17.2603704, "lon": 77.584988, "tags": {"name": "aditya super market", "shop": "supermarket", "source": "survey"}}, {"type": "node", "id": 6847212658, "lat": 17.2556645, "lon": 77.5879786, "tags": {"name": "AK-47 MEN'S WEAR TANDUR", "shop": "clothes", "source": "survey"}}, {"type": "node", "id": 6847212676, "lat": 17.2545075, "lon": 77.5857702, "tags": {"name": "Blue Duck Jeans Company", "shop": "clothes", "source": "survey"}}, {"type": "node", "id": 6847212733, "lat": 17.254309, "lon": 77.590743, "tags": {"name": "Hajj Kirana Merchant", "shop": "department_store", "source": "survey"}}, {"type": "node", "id": 6847914685, "lat": 17.219575, "lon": 77.42586, "tags": {"name": "Rajesh Kirana", "shop": "supermarket", "source": "survey"}}, {"type": "node", "id": 6850830204, "lat": 17.2146421, "lon": 77.4238537, "tags": {"name": "Raja Kirana & General Santos", "shop": "department_store", "source": "survey"}}, {"type": "node", "id": 6850830236, "lat": 17.2577566, "lon": 77.5881144, "tags": {"name": "Sri Lakshmi Foot Wear", "shop": "shoes", "source": "survey"}}, {"type": "node", "id": 6850830285, "lat": 17.2545839, "lon": 77.5904746, "tags": {"name": "Quality Bakery", "shop": "bakery", "source": "survey"}}, {"type": "node", "id": 11273060008, "lat": 17.2628703, "lon": 77.583766, "tags": {"name": "New Look", "shop": "hairdresser"}}, {"type": "way", "id": 344467080, "nodes": [3512075978, 3512075979, 3512075980, 3512075981, 3512075978], "tags": {"building": "yes", "name": "CHICKEN", "opening_hours:covid19": "24/7", "phone": "123456789", "shop": "convenience"}}, {"type": "way", "id": 344993616, "nodes": [3517011242, 3517011243, 3517011244, 3517011245, 3517011242], "tags": {"building": "yes", "shop": "yes"}}, {"type": "way", "id": 344993617, "nodes": [3517011246, 3517011247, 3517011248, 3517011249, 3517011246], "tags": {"building": "yes", "shop": "yes"}}, {"type": "way", "id": 344994859, "nodes": [3517018975, 3517018976, 3517018977, 3517018978, 3517018979, 3517018980, 3517018981, 3517018982, 3517018975], "tags": {"building": "yes", "shop": "yes"}}]}