{"version": 0.6, "generator": "Overpass API 0.7.62.8 e802775f", "osm3s": {"timestamp_osm_base": "2025-11-29T17:14:56Z", "copyright": "The data included in this document is from www.openstreetmap.org. The data is made available under ODbL."}, "elements": [{"type": "node", "id": 9571992156, "lat": 33.1702938, "lon": 68.7871106}, {"type": "node", "id": 9571992157, "lat": 33.1701632, "lon": 68.7874535}, {"type": "node", "id": 9571992158, "lat": 33.1702956, "lon": 68.7875244}, {"type": "node", "id": 9571992159, "lat": 33.1704262, "lon": 68.7871821}, {"type": "node", "id": 9571992164, "lat": 33.1701329, "lon": 68.7880038}, {"type": "node", "id": 9571992165, "lat": 33.1698385, "lon": 68.7878566}, {"type": "node", "id": 9571992166, "lat": 33.1697826, "lon": 68.7880162}, {"type": "node", "id": 9571992167, "lat": 33.170077, "lon": 68.7881633}, {"type": "node", "id": 9571992168, "lat": 33.169914, "lon": 68.7871301}, {"type": "node", "id": 9571992169, "lat": 33.1702066, "lon": 68.7872895}, {"type": "node", "id": 9571992170, "lat": 33.17015, "lon": 68.787442}, {"type": "node", "id": 9571992171, "lat": 33.169856, "lon": 68.78728}, {"type": "node", "id": 9573880102, "lat": 33.2027731, "lon": 68.7170256}, {"type": "node", "id": 9573880103, "lat": 33.202729, "lon": 68.7170253}, {"type": "node", "id": 9573880104, "lat": 33.2027287, "lon": 68.7170837}, {"type": "node", "id": 9573880105, "lat": 33.2027728, "lon": 68.717084}, {"type": "node", "id": 9574605580, "lat": 33.1742028, "lon": 68.7876008}, {"type": "node", "id": 9574605581, "lat": 33.1740578, "lon": 68.7879682}, {"type": "node", "id": 9574605582, "lat": 33.1738596, "lon": 68.7878565}, {"type": "node", "id": 9574605583, "lat": 33.1740046, "lon": 68.7874891}, {"type": "node", "id": 9576809136, "lat": 33.1690274, "lon": 68.7841914}, {"type": "node", "id": 9576809137, "lat": 33.169002, "lon": 68.7842554}, {"type": "node", "id": 9576809138, "lat": 33.1690551, "lon": 68.7842856}, {"type": "node", "id": 9576809139, "lat": 33.1690799, "lon": 68.7842195}, {"type": "way", "id": 1039473195, "nodes": [9571992156, 9571992157, 9571992158, 9571992159, 9571992156], "tags": {"addr:city": "Sharana", "addr:housenumber": "13", "addr:postcode": "2401", "addr:street": "Orgon Line", "building": "commercial", "building:levels": "3", "height": "9", "name": "\u0645\u062f\u06cc\u0646\u0647 \u0645\u0627\u0631\u06a9\u06d0\u067c", "name:en": "Madina Market", "shop": "mall"}}, {"type": "way", "id": 1039473197, "nodes": [9571992164, 9571992165, 9571992166, 9571992167, 9571992164], "tags": {"addr:city": "Sharana", "addr:postcode": "2401", "addr:street": "Orgon Line", "building": "commercial", "building:levels": "2", "name": "\u062d\u0627\u062c\u064a \u0646\u0648\u0631\u0645\u062d\u0645\u062f \u0645\u0627\u0631\u06a9\u06d0\u067c", "name:en": "Haji Noor Mohammad Market", "shop": "mall"}}, {"type": "way", "id": 1039473198, "nodes": [9571992168, 9571992169, 9571992170, 9571992171, 9571992168], "tags": {"addr:city": "Sharana", "addr:housenumber": "14", "addr:postcode": "2401", "addr:street": "Orgon Second Road", "building": "commercial", "building:levels": "2", "height": "6", "name": "\u062d\u0627\u062c\u064a \u0628\u0627\u0646\u0648\u0631 \u0645\u0627\u0631\u06a9\u06d0\u067c", "name:en": "Haji Banoor Market", "shop": "mall"}}, {"type": "way", "id": 1039719869, "nodes": [9573880102, 9573880103, 9573880104, 9573880105, 9573880102], "tags": {"addr:city": "Sharana", "addr:postcode": "2401", "addr:street": "Sharana to Khairbin Road", "building": "yes", "opening_hours": "sunrise-sunset", "payment:cash": "yes", "shop": "kiosk"}}, {"type": "way", "id": 1039812967, "nodes": [9574605580, 9574605581, 9574605582, 9574605583, 9574605580], "tags": {"addr:city": "Sharana", "addr:postcode": "2401", "addr:street": "Gardez Line", "building": "commercial", "building:levels": "2", "name": "\u062d\u0627\u062c\u064a \u0639\u06cc\u0633\u06cc \u062e\u0627\u0646 \u0645\u0627\u0631\u06a9\u06d0\u067c", "name:en": "Haji Essa Khan Market", "shop": "mall"}}, {"type": "way", "id": 1040095255, "nodes": [9576809136, 9576809137, 9576809138, 9576809139, 9576809136], "tags": {"building": "yes", "name": "\u062f \u0631\u0648\u063a\u062a\u0648\u0646 \u06a9\u0627\u0646\u062a\u06cc\u0646", "shop": "convenience"}}]}