{"version": 0.6, "generator": "Overpass API 0.7.62.8 e802775f", "osm3s": {"timestamp_osm_base": "2025-11-29T17:10:54Z", "copyright": "The data included in this document is from www.openstreetmap.org. The data is made available under ODbL."}, "elements": [{"type": "node", "id": 1039027104, "lat": 13.3426021, "lon": 77.1033562, "tags": {"addr:housename": "2nd Floor, Santhruphi Complex", "addr:postcode": "572101", "addr:street": "Vivekananda Road", "name": "Swarnmandir Jewel Designer Pvt. Ltd.", "shop": "jewelry", "source": "http://www.swarnmandir.com/", "website": "http://www.swarnmandir.com/"}}, {"type": "node", "id": 4152606962, "lat": 13.3364239, "lon": 77.1197583}, {"type": "node", "id": 4152606963, "lat": 13.3363299, "lon": 77.1197153}, {"type": "node", "id": 4152606964, "lat": 13.3362776, "lon": 77.1198485}, {"type": "node", "id": 4152606965, "lat": 13.3363717, "lon": 77.1198894}, {"type": "node", "id": 4152606966, "lat": 13.3293242, "lon": 77.1084503, "tags": {"shop": "medical_supply"}}, {"type": "node", "id": 4152606978, "lat": 13.355178, "lon": 77.1276738, "tags": {"shop": "houseware"}}, {"type": "node", "id": 4152609303, "lat": 13.3188557, "lon": 77.127526}, {"type": "node", "id": 4152609304, "lat": 13.3188217, "lon": 77.1276199}, {"type": "node", "id": 4152609305, "lat": 13.3186991, "lon": 77.1275555}, {"type": "node", "id": 4152609523, "lat": 13.3364548, "lon": 77.1196128}, {"type": "node", "id": 4152609524, "lat": 13.3364142, "lon": 77.1197276}, {"type": "node", "id": 4152609525, "lat": 13.336319, "lon": 77.1196806}, {"type": "node", "id": 4152609526, "lat": 13.3363571, "lon": 77.1195697}, {"type": "node", "id": 4152610179, "lat": 13.3365943, "lon": 77.1194311}, {"type": "node", "id": 4152610405, "lat": 13.3366223, "lon": 77.1193515}, {"type": "node", "id": 4152610406, "lat": 13.3364877, "lon": 77.1192915}, {"type": "node", "id": 4152610407, "lat": 13.3364579, "lon": 77.1193746}, {"type": "node", "id": 4152615071, "lat": 13.3335027, "lon": 77.1102063}, {"type": "node", "id": 4152615072, "lat": 13.3334728, "lon": 77.1103321}, {"type": "node", "id": 4152615073, "lat": 13.3333867, "lon": 77.1103104}, {"type": "node", "id": 4152615074, "lat": 13.3334167, "lon": 77.1101847}, {"type": "node", "id": 4152618710, "lat": 13.3367013, "lon": 77.1192604}, {"type": "node", "id": 4152618711, "lat": 13.3366173, "lon": 77.1192145}, {"type": "node", "id": 4152618712, "lat": 13.3365734, "lon": 77.1193064}, {"type": "node", "id": 4152618713, "lat": 13.3366551, "lon": 77.1193491}, {"type": "node", "id": 4152627555, "lat": 13.3382978, "lon": 77.1060488}, {"type": "node", "id": 4152627556, "lat": 13.3381629, "lon": 77.1060427}, {"type": "node", "id": 4152627557, "lat": 13.3381449, "lon": 77.1062799}, {"type": "node", "id": 4152627558, "lat": 13.3382933, "lon": 77.1062938}, {"type": "node", "id": 4152632007, "lat": 13.3293004, "lon": 77.1193725, "tags": {"shop": "travel_agency"}}, {"type": "node", "id": 4152641279, "lat": 13.3322772, "lon": 77.1128231, "tags": {"addr:district": "Tumakuru", "addr:full": "S.S.Puram Main Road", "addr:postcode": "572101", "addr:state": "Karnataka", "amenity": "hospital", "name": "Kasturba Hospital, Tumakuru", "name:kn": "\u0c95\u0cb8\u0ccd\u0ca4\u0cc2\u0cb0\u0cac\u0cbe \u0c86\u0cb8\u0ccd\u0caa\u0ca4\u0ccd\u0cb0\u0cc6", "shop": "variety_store", "source": "OpenGovernmentData"}}, {"type": "node", "id": 4152642653, "lat": 13.3380047, "lon": 77.1065852, "tags": {"name": "Woodland showroom", "shop": "yes"}}, {"type": "node", "id": 4152658322, "lat": 13.3380023, "lon": 77.1049543, "tags": {"name": "Reliance Fresh", "name:kn": "\u0cb0\u0cbf\u0cb2\u0caf\u0ca8\u0ccd\u0cb8\u0ccd \u0cab\u0ccd\u0cb0\u0cc6\u0cb7\u0ccd", "shop": "supermarket"}}, {"type": "node", "id": 4152665002, "lat": 13.3376615, "lon": 77.1026954, "tags": {"name": "Sudha", "name:kn": "\u0cb8\u0cc1\u0ca7", "shop": "tea"}}, {"type": "node", "id": 4152665535, "lat": 13.336718, "lon": 77.1192162}, {"type": "node", "id": 4152665536, "lat": 13.3366344, "lon": 77.1191764}, {"type": "node", "id": 4152667651, "lat": 13.3449304, "lon": 77.102147}, {"type": "node", "id": 4152667652, "lat": 13.3449166, "lon": 77.1023664}, {"type": "node", "id": 4152667653, "lat": 13.3440936, "lon": 77.1023027}, {"type": "node", "id": 4152667654, "lat": 13.3441315, "lon": 77.1020727}, {"type": "node", "id": 4152681489, "lat": 13.3390564, "lon": 77.1137482, "tags": {"addr:city": "tumkur", "addr:postcode": "572103", "addr:street": "B. H. Road", "name": "TVS showroom", "shop": "yes"}}, {"type": "node", "id": 4163360526, "lat": 13.3382141, "lon": 77.1006869}, {"type": "node", "id": 4163360527, "lat": 13.338175, "lon": 77.1006788}, {"type": "node", "id": 4163360528, "lat": 13.3381724, "lon": 77.1007593}, {"type": "node", "id": 4163360529, "lat": 13.3382037, "lon": 77.100762}, {"type": "node", "id": 4163374193, "lat": 13.3385191, "lon": 77.1010652}, {"type": "node", "id": 4163374194, "lat": 13.3384959, "lon": 77.1010693}, {"type": "node", "id": 4163374195, "lat": 13.3385075, "lon": 77.101138}, {"type": "node", "id": 4163374196, "lat": 13.3385306, "lon": 77.1011339}, {"type": "node", "id": 4163433489, "lat": 13.3391204, "lon": 77.0972201}, {"type": "node", "id": 4163433490, "lat": 13.3391047, "lon": 77.0973113}, {"type": "node", "id": 4163433491, "lat": 13.3390734, "lon": 77.0972577}, {"type": "node", "id": 4215311005, "lat": 13.3848978, "lon": 77.2025775, "tags": {"shop": "tea"}}, {"type": "node", "id": 4517075191, "lat": 13.7447546, "lon": 76.8971915, "tags": {"name": "Khan Motors", "name:en": "Khan Motors", "name:kn": "\u0c96\u0cbe\u0ca8\u0ccd \u0cae\u0ccb\u0c9f\u0cbe\u0cb0\u0ccd\u0cb8\u0ccd", "shop": "car_repair"}}, {"type": "node", "id": 4794996858, "lat": 13.3269924, "lon": 77.1171985, "tags": {"shop": "supermarket"}}, {"type": "node", "id": 5019399389, "lat": 13.3239672, "lon": 77.1164418, "tags": {"shop": "bakery"}}, {"type": "node", "id": 10294670212, "lat": 13.3578614, "lon": 77.1026038}, {"type": "node", "id": 10294670213, "lat": 13.3576702, "lon": 77.1026028}, {"type": "node", "id": 10294670214, "lat": 13.3576679, "lon": 77.103055}, {"type": "node", "id": 10294670215, "lat": 13.3578592, "lon": 77.103056}, {"type": "node", "id": 11360306584, "lat": 13.3196194, "lon": 77.093233, "tags": {"check_date": "2023-11-18", "name": "Cothas Coffee", "shop": "tea"}}, {"type": "node", "id": 11360306586, "lat": 13.3197673, "lon": 77.0944979, "tags": {"check_date": "2023-11-18", "name": "Maruthi Home Needs", "shop": "convenience"}}, {"type": "node", "id": 11897876569, "lat": 13.34329, "lon": 77.0562794, "tags": {"name": "Narayana Tea House", "shop": "tea"}}, {"type": "node", "id": 11919220929, "lat": 13.7400385, "lon": 76.9014396, "tags": {"addr:street": "Balaji Nagara Road", "name": "More Supermarket", "shop": "supermarket"}}, {"type": "node", "id": 12698433901, "lat": 13.3286123, "lon": 77.1238082, "tags": {"addr:street": "SIT Back Gate", "name": "More", "shop": "department_store"}}, {"type": "node", "id": 12698433902, "lat": 13.3284355, "lon": 77.1238658, "tags": {"addr:street": "SIT Back Gate", "name": "BATA", "shop": "shoes"}}, {"type": "node", "id": 12698434001, "lat": 13.3285151, "lon": 77.125411, "tags": {"addr:street": "SIT Back Gate", "name": "SIT juice center", "shop": "beverages"}}, {"type": "node", "id": 12714982002, "lat": 13.3311783, "lon": 77.1145233, "tags": {"name": "Durgashree juice center", "shop": "beverages"}}, {"type": "node", "id": 12714986801, "lat": 13.3336807, "lon": 77.1091003, "tags": {"name": "Sri Mahalakshmi Jewellers", "shop": "jewelry"}}, {"type": "way", "id": 414059919, "nodes": [4152606962, 4152606963, 4152606964, 4152606965, 4152606962], "tags": {"addr:city": "tumkuru", "addr:housenumber": "ashok nagar,6th cross", "addr:postcode": "572103", "addr:street": "6", "building": "yes", "name": "GJ computers", "shop": "computer"}}, {"type": "way", "id": 414060336, "nodes": [4152609523, 4152609524, 4152609525, 4152609526, 4152609523], "tags": {"addr:city": "tumkuru", "addr:housenumber": "Ashok nagar,tumkur", "addr:postcode": "572103", "addr:street": "main", "building": "yes", "name": "SRS travels", "shop": "travel_agency"}}, {"type": "way", "id": 414060340, "nodes": [4152609303, 4152609304, 4152609305, 4152609303], "tags": {"building": "yes", "name": "Sankranthi", "name:kn": "\u0cb8\u0c82\u0c95\u0ccd\u0cb0\u0cbe\u0c82\u0ca4\u0cbf", "shop": "supermarket"}}, {"type": "way", "id": 414060582, "nodes": [4152610405, 4152610406, 4152610407, 4152610179, 4152610405], "tags": {"building": "yes", "name": "Cake of the Day", "shop": "bakery"}}, {"type": "way", "id": 414061052, "nodes": [4152615071, 4152615072, 4152615073, 4152615074, 4152615071], "tags": {"addr:city": "tumkur", "addr:postcode": "572102", "addr:street": "2st cross sspuram", "building": "yes", "name": "Medplus", "name:kn": "\u0cae\u0cc6\u0ca1\u0ccd\u200d\u0caa\u0ccd\u0cb2\u0cb8\u0ccd", "opening_hours": "daily 12 hours", "shop": "medical_supply"}}, {"type": "way", "id": 414061053, "nodes": [4152618710, 4152618711, 4152618712, 4152618713, 4152618710], "tags": {"building": "yes", "name": "Adishwar", "name:kn": "\u0c85\u0ca6\u0cbf\u0cb6\u0ccd\u0cb5\u0cb0\u0ccd", "shop": "electronics"}}, {"type": "way", "id": 414062275, "nodes": [4152627555, 4152627556, 4152627557, 4152627558, 4152627555], "tags": {"building": "yes", "name": "Planetmax", "shop": "mall"}}, {"type": "way", "id": 414068220, "nodes": [4152665535, 4152665536, 4152618711, 4152618710, 4152665535], "tags": {"building": "yes", "name": "Sidhagana Medplus", "shop": "medical_supply"}}, {"type": "way", "id": 414068437, "nodes": [4152667651, 4152667652, 4152667653, 4152667654, 4152667651], "tags": {"building": "yes", "name": "Shopping Complex", "shop": "yes"}}, {"type": "way", "id": 415295421, "nodes": [4163360526, 4163360527, 4163360528, 4163360529, 4163360526], "tags": {"building": "yes", "name": "Xerox Shop", "shop": "yes"}}, {"type": "way", "id": 415296978, "nodes": [4163374193, 4163374194, 4163374195, 4163374196, 4163374193], "tags": {"building": "yes", "name": "Sapna Book Store", "shop": "books"}}, {"type": "way", "id": 415302247, "nodes": [4163433489, 4163433490, 4163433491, 4163433489], "tags": {"building": "yes", "name": "Alankar Tea Stall", "shop": "yes"}}, {"type": "way", "id": 1125783552, "nodes": [10294670212, 10294670213, 10294670214, 10294670215, 10294670212], "tags": {"building": "yes", "building:levels": "3", "name": "S Mall", "shop": "mall"}}]}