{"version": 0.6, "generator": "Overpass API 0.7.62.8 e802775f", "osm3s": {"timestamp_osm_base": "2025-11-29T17:19:02Z", "copyright": "The data included in this document is from www.openstreetmap.org. The data is made available under ODbL."}, "elements": [{"type": "node", "id": 1534914796, "lat": 23.2288966, "lon": 69.7841807, "tags": {"name": "Khamir Crafts Centre", "shop": "handicraft"}}, {"type": "node", "id": 1545193201, "lat": 23.2338894, "lon": 69.7989278, "tags": {"name": "Abdul Hasan Khatri", "shop": "handicraft", "type": "Ajrakh"}}, {"type": "node", "id": 1545193205, "lat": 23.234319, "lon": 69.7947652, "tags": {"name": "Abdul Rehman Budha Khatri", "shop": "handicraft", "type": "Ajrakh"}}, {"type": "node", "id": 1545193315, "lat": 23.2346088, "lon": 69.7992596, "tags": {"contact:email": "dismail2006@yahoo.co.in", "contact:phone": "+912832299786", "name": "Ismail Mohammed Khatri", "shop": "handicraft", "type": "Ajrakh"}}, {"type": "node", "id": 1545193340, "lat": 23.234115, "lon": 69.798888, "tags": {"contact:email": "khatriibrahimisa@yahoo.co.in", "name": "Khatri Ibrahim Isa", "shop": "handicraft", "type": "Ajrakh"}}, {"type": "node", "id": 1545193343, "lat": 23.2346149, "lon": 69.7950266, "tags": {"contact:email": "khatriibrahimisa@yahoo.co.in", "name": "Khatri Ibrahim Isa", "shop": "handicraft", "type": "Ajrakh"}}, {"type": "node", "id": 1545193407, "lat": 23.2341178, "lon": 69.7939359, "tags": {"name": "S O Khatri", "shop": "handicraft", "type": "Ajrakh"}}, {"type": "node", "id": 4121113501, "lat": 23.0722346, "lon": 70.1318767}, {"type": "node", "id": 4121113506, "lat": 23.072245, "lon": 70.1318328}, {"type": "node", "id": 4121113511, "lat": 23.0722505, "lon": 70.1315645}, {"type": "node", "id": 4121113524, "lat": 23.0722682, "lon": 70.1316458}, {"type": "node", "id": 4121113543, "lat": 23.0723145, "lon": 70.1316339}, {"type": "node", "id": 4121113544, "lat": 23.0723163, "lon": 70.131642}, {"type": "node", "id": 4121113548, "lat": 23.0723261, "lon": 70.1319022}, {"type": "node", "id": 4121113551, "lat": 23.0723273, "lon": 70.1315857}, {"type": "node", "id": 4121113553, "lat": 23.0723318, "lon": 70.1316066}, {"type": "node", "id": 4121113557, "lat": 23.0723364, "lon": 70.1318583}, {"type": "node", "id": 4121113565, "lat": 23.072356, "lon": 70.1316003}, {"type": "node", "id": 4121113571, "lat": 23.0723625, "lon": 70.13163}, {"type": "node", "id": 4121113597, "lat": 23.0724154, "lon": 70.131522}, {"type": "node", "id": 4121113602, "lat": 23.0724239, "lon": 70.1315608}, {"type": "node", "id": 4284010633, "lat": 23.0693449, "lon": 70.1315141}, {"type": "node", "id": 4284010634, "lat": 23.0694113, "lon": 70.1312841}, {"type": "node", "id": 4284010635, "lat": 23.0696686, "lon": 70.1316044}, {"type": "node", "id": 4284010636, "lat": 23.0697225, "lon": 70.1313563}, {"type": "node", "id": 4327969093, "lat": 23.075957, "lon": 70.1074294, "tags": {"shop": "convenience"}}, {"type": "node", "id": 4585125296, "lat": 23.0701405, "lon": 70.1084769, "tags": {"name": "Delux", "name:en": "Delux", "shop": "hairdresser"}}, {"type": "node", "id": 6087068087, "lat": 23.1194154, "lon": 70.1143163, "tags": {"name": "Krishna Store", "shop": "convenience"}}, {"type": "node", "id": 6087086412, "lat": 23.1194479, "lon": 70.1145326, "tags": {"shop": "medical_supply"}}, {"type": "node", "id": 6087086413, "lat": 23.1194626, "lon": 70.1145512, "tags": {"name": "Pressing", "shop": "dry_cleaning"}}, {"type": "node", "id": 6087086414, "lat": 23.1194869, "lon": 70.1145695, "tags": {"shop": "dairy"}}, {"type": "node", "id": 6087086415, "lat": 23.1194626, "lon": 70.1144958, "tags": {"shop": "supermarket"}}, {"type": "node", "id": 10253757760, "lat": 23.0683406, "lon": 70.1434314, "tags": {"addr:city": "Gandhidham", "addr:housenumber": "Shop no. d-18", "addr:postcode": "370201", "addr:street": "Chawla Chowk", "name": "Seema Electronics", "opening_hours": "Mo-Su 10:00-21:00", "phone": "9427567127", "shop": "electronics"}}, {"type": "node", "id": 10951251340, "lat": 23.1092436, "lon": 70.0312125, "tags": {"addr:city": "Anjar", "addr:postcode": "370110", "addr:street": "Post Office Road, Nr Central Bank", "name": "Hunnar Cakes Pure Veg", "operator": "Amit Davda", "payment:cash": "yes", "payment:contactless": "yes", "phone": "+919824588064", "shop": "bakery"}}, {"type": "node", "id": 11168877254, "lat": 23.0725326, "lon": 70.1285887, "tags": {"name": "Dwarika Furniture", "shop": "furniture"}}, {"type": "node", "id": 11168877280, "lat": 23.1042245, "lon": 70.1210278, "tags": {"name": "Shantidham", "shop": "supermarket"}}, {"type": "node", "id": 11959812587, "lat": 23.0754225, "lon": 70.1132598, "tags": {"name": "APJ FRIENDS GROUP & CO.", "shop": "yes"}}, {"type": "node", "id": 12167787205, "lat": 23.0757482, "lon": 70.1074337, "tags": {"name": "OM CINEPLEX", "shop": "supermarket"}}, {"type": "node", "id": 12167865748, "lat": 23.1061518, "lon": 70.0346075, "tags": {"name": "RADHA KRISHNA TELECOM AND SATELLITE", "shop": "yes"}}, {"type": "node", "id": 12169277249, "lat": 23.1009235, "lon": 70.034186, "tags": {"name": "Royal Handicraft", "shop": "yes"}}, {"type": "node", "id": 12169283941, "lat": 23.1174947, "lon": 70.0310169, "tags": {"name": "Bhagyashree Gruh Udhyog", "shop": "yes"}}, {"type": "node", "id": 12169389250, "lat": 23.1118748, "lon": 70.0281311, "tags": {"name": "Welspun store Anjar (Home space)", "shop": "supermarket"}}, {"type": "way", "id": 410280932, "nodes": [4121113597, 4121113602, 4121113551, 4121113553, 4121113565, 4121113571, 4121113544, 4121113543, 4121113524, 4121113511, 4121113597], "tags": {"building": "yes", "name": "Gazibo food parlour", "shop": "department_store"}}, {"type": "way", "id": 410280966, "nodes": [4121113557, 4121113548, 4121113501, 4121113506, 4121113557], "tags": {"building": "yes", "name": "Naya Jeevan Store", "shop": "department_store"}}, {"type": "way", "id": 429281669, "nodes": [4284010634, 4284010636, 4284010635, 4284010633, 4284010634], "tags": {"building": "commercial", "name": "Vandana Parlour", "shop": "department_store"}}]}