{"version": 0.6, "generator": "Overpass API 0.7.62.8 e802775f", "osm3s": {"timestamp_osm_base": "2025-11-29T17:33:21Z", "copyright": "The data included in this document is from www.openstreetmap.org. The data is made available under ODbL."}, "elements": [{"type": "node", "id": 5625896491, "lat": 16.5298504, "lon": 81.4677955}, {"type": "node", "id": 5625896492, "lat": 16.5297424, "lon": 81.4678089}, {"type": "node", "id": 5625896493, "lat": 16.5297272, "lon": 81.4676759}, {"type": "node", "id": 5625896494, "lat": 16.5298352, "lon": 81.4676625}, {"type": "node", "id": 6202919089, "lat": 16.487516, "lon": 81.2440814, "tags": {"amenity": "bank", "name": "State Bank Of India", "wikidata": "Q65956514"}}, {"type": "node", "id": 6203241185, "lat": 16.530777, "lon": 81.4717362, "tags": {"amenity": "bank", "name": "Andhra Bank"}}, {"type": "node", "id": 6204671886, "lat": 16.5448707, "lon": 81.5266414, "tags": {"amenity": "bank", "name": "HDFC Bank"}}, {"type": "node", "id": 6204699790, "lat": 16.5438562, "lon": 81.5145861, "tags": {"amenity": "bank", "name": "Indian Overseas Bank", "wikidata": "Q73843197"}}, {"type": "node", "id": 6204699794, "lat": 16.5418721, "lon": 81.5024404, "tags": {"addr:street": "Juvalapalem Road", "amenity": "bank", "name": "Andhra Bank"}}, {"type": "node", "id": 6204699796, "lat": 16.5415613, "lon": 81.5024289, "tags": {"amenity": "bank", "name": "Karur Vysya Bank"}}, {"type": "node", "id": 6204713087, "lat": 16.5454232, "lon": 81.4828093, "tags": {"amenity": "bank", "name": "Central Bank Of India"}}, {"type": "node", "id": 6204824986, "lat": 16.5444272, "lon": 81.5169462, "tags": {"amenity": "bank", "name": "BOI Bank"}}, {"type": "node", "id": 6205360887, "lat": 16.5380911, "lon": 81.5163588, "tags": {"amenity": "bank", "name": "Andhra bank"}}, {"type": "node", "id": 6205628086, "lat": 16.5432367, "lon": 81.516381, "tags": {"amenity": "bank", "name": "ICICI Bank"}}, {"type": "node", "id": 6206997485, "lat": 16.5420216, "lon": 81.5032886, "tags": {"amenity": "bank", "name": "Indian Bank"}}, {"type": "node", "id": 6206997585, "lat": 16.5418788, "lon": 81.5015716, "tags": {"amenity": "bank", "name": "Axis bank"}}, {"type": "node", "id": 6207258385, "lat": 16.5397946, "lon": 81.5163828, "tags": {"amenity": "bank", "name": "State Bank Of India"}}, {"type": "node", "id": 6207339587, "lat": 16.515907, "lon": 81.3462016, "tags": {"amenity": "bank", "name": "Andhra Bank"}}, {"type": "node", "id": 6207341386, "lat": 16.5193685, "lon": 81.3706214, "tags": {"amenity": "bank", "name": "Vijaya Bank"}}, {"type": "node", "id": 7244018923, "lat": 16.4236729, "lon": 81.650609}, {"type": "node", "id": 7244018924, "lat": 16.4235857, "lon": 81.6506292}, {"type": "node", "id": 7244018925, "lat": 16.4236674, "lon": 81.6510896}, {"type": "node", "id": 7244018926, "lat": 16.423774, "lon": 81.6510766}, {"type": "node", "id": 7938865700, "lat": 16.5434273, "lon": 81.5143381, "tags": {"amenity": "bank", "atm": "yes", "branch": "Juvalapaem", "brand": "State Bank of India", "brand:wikidata": "Q1340361", "name": "State Bank of India", "short_name": "SBI"}}, {"type": "node", "id": 7938865706, "lat": 16.5415615, "lon": 81.5023032, "tags": {"amenity": "bank", "name": "kotak mahindra bank"}}, {"type": "node", "id": 7947098666, "lat": 16.5432482, "lon": 81.5138903, "tags": {"amenity": "bank", "name": "Lakshmi villas bank"}}, {"type": "node", "id": 7947171210, "lat": 16.5425369, "lon": 81.496613, "tags": {"amenity": "bank", "atm": "yes", "brand": "State Bank of India", "brand:wikidata": "Q1340361", "name": "State Bank of India", "short_name": "SBI"}}, {"type": "node", "id": 7947171212, "lat": 16.5429294, "lon": 81.4951658, "tags": {"amenity": "bank", "name": "punjab bank"}}, {"type": "node", "id": 8422638051, "lat": 16.5414149, "lon": 81.5015012, "tags": {"amenity": "bank", "name": "Hdfc Bank"}}, {"type": "node", "id": 11782103768, "lat": 16.54304, "lon": 81.5083267, "tags": {"amenity": "bank", "brand": "Canara Bank", "brand:en": "Canara Bank", "brand:hi": "\u0915\u0947\u0928\u0930\u093e \u092c\u0948\u0902\u0915", "brand:kn": "\u0c95\u0cc6\u0ca8\u0cb0\u0cbe \u0cac\u0ccd\u0caf\u0cbe\u0c82\u0c95\u0ccd", "brand:pa": "\u0a15\u0a47\u0a28\u0a30\u0a3e \u0a2c\u0a48\u0a02\u0a15", "brand:pnb": "\u06a9\u06cc\u0646\u0631\u0627 \u0628\u06cc\u0646\u06a9", "brand:ur": "\u06a9\u06cc\u0646\u0631\u0627 \u0628\u06cc\u0646\u06a9", "brand:wikidata": "Q2003777", "check_date": "2024-04-02", "name": "Canara Bank", "name:en": "Canara Bank", "name:hi": "\u0915\u0947\u0928\u0930\u093e \u092c\u0948\u0902\u0915", "name:kn": "\u0c95\u0cc6\u0ca8\u0cb0\u0cbe \u0cac\u0ccd\u0caf\u0cbe\u0c82\u0c95\u0ccd", "name:pa": "\u0a15\u0a47\u0a28\u0a30\u0a3e \u0a2c\u0a48\u0a02\u0a15", "name:pnb": "\u06a9\u06cc\u0646\u0631\u0627 \u0628\u06cc\u0646\u06a9", "name:ur": "\u06a9\u06cc\u0646\u0631\u0627 \u0628\u06cc\u0646\u06a9"}}, {"type": "node", "id": 11782154369, "lat": 16.5426868, "lon": 81.5067195, "tags": {"amenity": "bank", "brand": "South Indian Bank", "brand:wikidata": "Q2044973", "check_date": "2024-04-02", "name": "South Indian Bank"}}, {"type": "node", "id": 11782154370, "lat": 16.5419984, "lon": 81.5027963, "tags": {"amenity": "bank", "brand": "ICICI Bank", "brand:wikidata": "Q1653258", "check_date": "2024-04-02", "name": "ICICI Bank", "short_name": "ICICI"}}, {"type": "node", "id": 11782154371, "lat": 16.5419124, "lon": 81.501484, "tags": {"amenity": "bank", "brand": "State Bank of India", "brand:wikidata": "Q1340361", "check_date": "2024-04-02", "name": "State Bank of India", "short_name": "SBI"}}, {"type": "node", "id": 11782154372, "lat": 16.5412591, "lon": 81.4998783, "tags": {"amenity": "bank", "brand": "Bank of Baroda", "brand:wikidata": "Q2003797", "check_date": "2024-04-02", "name": "Bank of Baroda"}}, {"type": "node", "id": 11787295954, "lat": 16.5385896, "lon": 81.6168374, "tags": {"amenity": "bank", "brand": "CSB Bank", "brand:wikidata": "Q5053244", "name": "CSB Bank", "official_name": "Catholic Syrian Bank"}}, {"type": "node", "id": 11787305645, "lat": 16.5377829, "lon": 81.6293779, "tags": {"amenity": "bank", "brand": "HDFC Bank", "brand:wikidata": "Q631047", "name": "HDFC Bank", "short_name": "HDFC"}}, {"type": "node", "id": 11787310189, "lat": 16.5471821, "lon": 81.5408088, "tags": {"amenity": "bank", "name": "HDFC Bank"}}, {"type": "node", "id": 11787328824, "lat": 16.5506934, "lon": 81.5652117, "tags": {"amenity": "bank", "name": "Kotak mahindra bank"}}, {"type": "node", "id": 11787333767, "lat": 16.5480982, "lon": 81.5447679, "tags": {"amenity": "bank", "name": "Union bank"}}, {"type": "node", "id": 11787333768, "lat": 16.538422, "lon": 81.6251659, "tags": {"amenity": "bank", "brand": "Indian Bank", "brand:wikidata": "Q2003789", "name": "Indian Bank"}}, {"type": "way", "id": 589126822, "nodes": [5625896494, 5625896491, 5625896492, 5625896493, 5625896494], "tags": {"amenity": "bank", "name": "Kopalle co-operative bank"}}, {"type": "way", "id": 776400160, "nodes": [7244018923, 7244018924, 7244018925, 7244018926, 7244018923], "tags": {"amenity": "bank", "brand": "State Bank of India", "brand:wikidata": "Q1340361", "brand:wikipedia": "en:State Bank of India", "building": "yes", "name": "State Bank of India"}}]}