{"version": 0.6, "generator": "Overpass API 0.7.62.8 e802775f", "osm3s": {"timestamp_osm_base": "2025-11-29T17:08:46Z", "copyright": "The data included in this document is from www.openstreetmap.org. The data is made available under ODbL."}, "elements": [{"type": "node", "id": 4679023592, "lat": 25.1794276, "lon": 69.5637894, "tags": {"addr:street": "bostan road kunri Sindh Pakistan", "email": "mehartractor@gmail.com", "internet_access": "wlan", "name": "Almustfa tractor showroom", "operator": "Mehar mustafa", "phone": "0238557144", "shop": "car"}}, {"type": "node", "id": 4679024591, "lat": 25.1792862, "lon": 69.5725867, "tags": {"addr:street": "bostan road kunri", "name": "Mehar Autoes kunri", "operator": "Waseem Mehar", "phone": "0238558373", "shop": "car_parts"}}, {"type": "node", "id": 4714101289, "lat": 25.1761726, "lon": 69.5674272, "tags": {"addr:housenumber": "03003026345", "addr:postcode": "71000", "addr:street": "Almustfa hose of Russian tractors", "email": "Mehartractor@gmail.com", "name": "Mehar traders chillies shop", "name:am": "03003300944", "opening_hours": "Sa-Th", "phone": "03003300944", "shop": "yes", "website": "http://Mehar.com"}}, {"type": "node", "id": 4773813921, "lat": 25.17763, "lon": 69.5676488, "tags": {"shop": "car"}}, {"type": "node", "id": 4773814022, "lat": 25.1762387, "lon": 69.5678751, "tags": {"name": "Mehar Autoes kunri", "name:en": "Mehar Autoes kunri", "shop": "car_parts"}}, {"type": "node", "id": 4773814221, "lat": 25.1763777, "lon": 69.5676005, "tags": {"name": "Mustafa tractor house kunri", "name:en": "Mustafa tractor house kunri", "shop": "car"}}, {"type": "node", "id": 4843736223, "lat": 25.2180097, "lon": 69.5141592, "tags": {"name": "Mehar farm", "name:en": "Mehar farm", "shop": "bookmaker"}}, {"type": "node", "id": 5481213522, "lat": 25.2858398, "lon": 69.2509792, "tags": {"name": "Habib Sweets", "shop": "bakery"}}, {"type": "node", "id": 5803154157, "lat": 25.2827368, "lon": 69.3976911, "tags": {"shop": "bakery"}}, {"type": "node", "id": 6938700195, "lat": 25.3499355, "lon": 69.3897183}, {"type": "node", "id": 6938700196, "lat": 25.3496396, "lon": 69.3896085}, {"type": "node", "id": 6938700197, "lat": 25.3496012, "lon": 69.389743}, {"type": "node", "id": 6938700198, "lat": 25.3499099, "lon": 69.3898333}, {"type": "node", "id": 6938700207, "lat": 25.3497548, "lon": 69.3890949}, {"type": "node", "id": 6938700208, "lat": 25.3496925, "lon": 69.3892665}, {"type": "node", "id": 6938700209, "lat": 25.3496013, "lon": 69.3892383}, {"type": "node", "id": 6938700210, "lat": 25.3496605, "lon": 69.3890914}, {"type": "node", "id": 6955216787, "lat": 25.3501611, "lon": 69.3882626}, {"type": "node", "id": 6955216788, "lat": 25.3500978, "lon": 69.3883584}, {"type": "node", "id": 6955216789, "lat": 25.3500261, "lon": 69.388342}, {"type": "node", "id": 6955216790, "lat": 25.3500873, "lon": 69.3882369}, {"type": "node", "id": 6982360138, "lat": 25.3484358, "lon": 69.3888454}, {"type": "node", "id": 6982360139, "lat": 25.3492061, "lon": 69.3889061}, {"type": "node", "id": 6982360140, "lat": 25.349149, "lon": 69.3891011}, {"type": "node", "id": 6982360141, "lat": 25.3484928, "lon": 69.3886504}, {"type": "way", "id": 741161410, "nodes": [6938700195, 6938700196, 6938700197, 6938700198, 6938700195], "tags": {"addr:town": "RAHU ABAD", "building": "yes", "name": "AMANULLAH", "opening_hours": "Mo-Sa 08:00-20:00", "operator": "Amanullah", "payment:cash": "yes", "payment:coins": "yes", "payment:notes": "yes", "shop": "supermarket"}}, {"type": "way", "id": 741161413, "nodes": [6938700207, 6938700208, 6938700209, 6938700210, 6938700207], "tags": {"addr:city": "RAHU ABAD", "building": "yes", "name": "Gulam Sarwar", "opening_hours": "sunrise-sunset", "operator": "Sarwar", "payment:cash": "yes", "payment:coins": "yes", "payment:notes": "yes", "shop": "supermarket"}}, {"type": "way", "id": 743006763, "nodes": [6955216787, 6955216790, 6955216789, 6955216788, 6955216787], "tags": {"addr:town": "RAHU ABAD", "building": "yes", "name": "Kanji Shop", "shop": "supermarket"}}, {"type": "way", "id": 746102013, "nodes": [6982360139, 6982360141, 6982360138, 6982360140, 6982360139], "tags": {"name": "Kalroo", "shop": "supermarket"}}]}