{"version": 0.6, "generator": "Overpass API 0.7.62.8 e802775f", "osm3s": {"timestamp_osm_base": "2025-11-29T17:10:54Z", "copyright": "The data included in this document is from www.openstreetmap.org. The data is made available under ODbL."}, "elements": [{"type": "node", "id": 3753535605, "lat": 21.8584325, "lon": 69.573853}, {"type": "node", "id": 3753535606, "lat": 21.8584344, "lon": 69.5739295}, {"type": "node", "id": 3753535607, "lat": 21.858392, "lon": 69.5739308}, {"type": "node", "id": 3753535608, "lat": 21.8583939, "lon": 69.573853}, {"type": "node", "id": 3753535609, "lat": 21.8583047, "lon": 69.5734584}, {"type": "node", "id": 3753535610, "lat": 21.8582997, "lon": 69.5734202}, {"type": "node", "id": 3753535611, "lat": 21.8583215, "lon": 69.5734215}, {"type": "node", "id": 3753535612, "lat": 21.858324, "lon": 69.5734557}, {"type": "node", "id": 3753543466, "lat": 21.8601479, "lon": 69.5744494}, {"type": "node", "id": 3753543467, "lat": 21.8602524, "lon": 69.5746076}, {"type": "node", "id": 3753543468, "lat": 21.8602524, "lon": 69.5746908}, {"type": "node", "id": 3753543469, "lat": 21.8600309, "lon": 69.5747069}, {"type": "node", "id": 3753543470, "lat": 21.859996, "lon": 69.5744601}, {"type": "node", "id": 3755161479, "lat": 21.6403176, "lon": 69.6055656}, {"type": "node", "id": 3755161480, "lat": 21.6405433, "lon": 69.6056272}, {"type": "node", "id": 3755161481, "lat": 21.6405383, "lon": 69.6058472}, {"type": "node", "id": 3755161482, "lat": 21.6405059, "lon": 69.6059129}, {"type": "node", "id": 3755161483, "lat": 21.6402939, "lon": 69.6058593}, {"type": "node", "id": 3776185659, "lat": 21.6389588, "lon": 69.6148728, "tags": {"name": "GREEN FIBRE", "shop": "yes"}}, {"type": "node", "id": 3776185660, "lat": 21.6389145, "lon": 69.6150789, "tags": {"name": "NOKIA PRIORITY", "shop": "electronics"}}, {"type": "node", "id": 3776185661, "lat": 21.6388639, "lon": 69.6155562, "tags": {"name": "SHAKTI JEWEL & GEMS", "shop": "jewelry"}}, {"type": "node", "id": 3776185662, "lat": 21.6388374, "lon": 69.6162311, "tags": {"name": "VODAFONE STORE", "shop": "yes"}}, {"type": "node", "id": 3776185663, "lat": 21.6387919, "lon": 69.6164126, "tags": {"name": "RAM MEDICAL STORE", "shop": "medical_supply"}}, {"type": "node", "id": 3776185665, "lat": 21.639052, "lon": 69.6163522, "tags": {"name": "Foot Locker", "shop": "shoes"}}, {"type": "node", "id": 3776207270, "lat": 21.6388669, "lon": 69.618605, "tags": {"name": "OM SWEET SHOP", "shop": "yes"}}, {"type": "node", "id": 3776207271, "lat": 21.6388519, "lon": 69.6188518, "tags": {"name": "POOJARA MOBILE STORE", "shop": "mobile_phone"}}, {"type": "node", "id": 3776207272, "lat": 21.6388021, "lon": 69.6192165, "tags": {"name": "VIP BAGS", "shop": "yes"}}, {"type": "node", "id": 3776207274, "lat": 21.6385677, "lon": 69.6188625, "tags": {"name": "DELL SERVICES", "shop": "electronics"}}, {"type": "node", "id": 3776207277, "lat": 21.638458, "lon": 69.6200641, "tags": {"name": "MONGINIS CAKE SHOP", "shop": "bakery"}}, {"type": "node", "id": 3776207278, "lat": 21.6384281, "lon": 69.6206703, "tags": {"name": "A TO Z STORE", "shop": "yes"}}, {"type": "node", "id": 3776207279, "lat": 21.6383982, "lon": 69.6209439, "tags": {"name": "AMUL STORE", "shop": "dairy"}}, {"type": "node", "id": 3776207280, "lat": 21.6386276, "lon": 69.6219738, "tags": {"name": "BOOKLAND", "shop": "books"}}, {"type": "node", "id": 3776207282, "lat": 21.6387422, "lon": 69.622521, "tags": {"name": "SARAL SHOPPEE", "shop": "yes"}}, {"type": "node", "id": 3776405254, "lat": 21.6410543, "lon": 69.6004592, "tags": {"shop": "clothes"}}, {"type": "node", "id": 3776406160, "lat": 21.6404221, "lon": 69.5997666, "tags": {"shop": "jewelry"}}, {"type": "node", "id": 3784222903, "lat": 21.6357379, "lon": 69.6044895}, {"type": "node", "id": 3784222904, "lat": 21.6358712, "lon": 69.6045895}, {"type": "node", "id": 3784222905, "lat": 21.6354471, "lon": 69.6053369}, {"type": "node", "id": 3784222906, "lat": 21.6352936, "lon": 69.605263}, {"type": "node", "id": 3784222907, "lat": 21.6366305, "lon": 69.6031338}, {"type": "node", "id": 3784222908, "lat": 21.6352855, "lon": 69.6042897}, {"type": "node", "id": 3784222909, "lat": 21.6358146, "lon": 69.6036813}, {"type": "node", "id": 3784222910, "lat": 21.6361579, "lon": 69.6034076}, {"type": "node", "id": 3785205897, "lat": 21.6427802, "lon": 69.6067089, "tags": {"name": "Ram Krupa Travels", "shop": "travel_agency"}}, {"type": "node", "id": 3787657248, "lat": 21.6408193, "lon": 69.606595, "tags": {"name": "Eagle Travels", "shop": "travel_agency"}}, {"type": "node", "id": 3787657249, "lat": 21.6410901, "lon": 69.6057615, "tags": {"name": "Mahasagear Travels", "shop": "travel_agency"}}, {"type": "node", "id": 3787865665, "lat": 21.6412688, "lon": 69.604786}, {"type": "node", "id": 3787865666, "lat": 21.6412466, "lon": 69.6053732}, {"type": "node", "id": 3787865667, "lat": 21.6407255, "lon": 69.605356}, {"type": "node", "id": 3787865668, "lat": 21.6407649, "lon": 69.604755}, {"type": "node", "id": 3788750489, "lat": 21.6358258, "lon": 69.6234745}, {"type": "node", "id": 3788750490, "lat": 21.6358415, "lon": 69.623485}, {"type": "node", "id": 3788750491, "lat": 21.6357158, "lon": 69.6236985}, {"type": "node", "id": 3788750492, "lat": 21.6357, "lon": 69.6236837}, {"type": "node", "id": 3788750493, "lat": 21.6396769, "lon": 69.6106622}, {"type": "node", "id": 3788750494, "lat": 21.6395952, "lon": 69.6113929}, {"type": "node", "id": 3788750495, "lat": 21.6395581, "lon": 69.6113912}, {"type": "node", "id": 3788750496, "lat": 21.6396438, "lon": 69.6106539}, {"type": "node", "id": 4901490869, "lat": 21.88343, "lon": 69.7607072}, {"type": "node", "id": 4901490870, "lat": 21.8834344, "lon": 69.7607766}, {"type": "node", "id": 4901490871, "lat": 21.8833525, "lon": 69.7607861}, {"type": "node", "id": 4901490872, "lat": 21.8833364, "lon": 69.7607175}, {"type": "node", "id": 4901490873, "lat": 21.8833159, "lon": 69.7607088}, {"type": "node", "id": 4901490874, "lat": 21.8833306, "lon": 69.7607876}, {"type": "node", "id": 4901490875, "lat": 21.8831931, "lon": 69.7608184}, {"type": "node", "id": 4901490876, "lat": 21.8831821, "lon": 69.7607656}, {"type": "node", "id": 4901490877, "lat": 21.8832713, "lon": 69.7607514}, {"type": "node", "id": 4901490878, "lat": 21.8832677, "lon": 69.7607136}, {"type": "node", "id": 8146785975, "lat": 21.8586424, "lon": 69.5721027}, {"type": "node", "id": 8146785976, "lat": 21.8586046, "lon": 69.5721378}, {"type": "node", "id": 8146785977, "lat": 21.8586303, "lon": 69.5721655}, {"type": "node", "id": 8146785978, "lat": 21.8586646, "lon": 69.5721359}, {"type": "node", "id": 8146785979, "lat": 21.8586856, "lon": 69.5721605}, {"type": "node", "id": 8146785980, "lat": 21.8586342, "lon": 69.5722137}, {"type": "node", "id": 8146785981, "lat": 21.8585893, "lon": 69.572155}, {"type": "node", "id": 8146785982, "lat": 21.8587082, "lon": 69.5721855}, {"type": "node", "id": 8146785983, "lat": 21.8586591, "lon": 69.5722403}, {"type": "way", "id": 371811247, "nodes": [3753543466, 3753543467, 3753543468, 3753543469, 3753543470, 3753543466], "tags": {"building": "yes", "shop": "funeral_directors"}}, {"type": "way", "id": 371811738, "nodes": [3753535605, 3753535606, 3753535607, 3753535608, 3753535605], "tags": {"building": "yes", "shop": "convenience"}}, {"type": "way", "id": 371811739, "nodes": [3753535609, 3753535610, 3753535611, 3753535612, 3753535609], "tags": {"building": "yes", "shop": "convenience"}}, {"type": "way", "id": 371973350, "nodes": [3755161479, 3755161480, 3755161481, 3755161482, 3755161483, 3755161479], "tags": {"building": "yes", "name": "Khadigram Udhyog", "shop": "department_store"}}, {"type": "way", "id": 375036877, "nodes": [3784222903, 3784222904, 3784222905, 3784222906, 3784222903], "tags": {"building": "yes", "religion": "hindu", "shop": "funeral_directors"}}, {"type": "way", "id": 375036878, "nodes": [3784222907, 3784222903, 3784222908, 3784222909, 3784222910, 3784222907], "tags": {"religion": "hindu", "shop": "funeral_directors"}}, {"type": "way", "id": 375416721, "nodes": [3787865665, 3787865666, 3787865667, 3787865668, 3787865665], "tags": {"building": "yes", "shop": "yes"}}, {"type": "way", "id": 375512878, "nodes": [3788750489, 3788750490, 3788750491, 3788750492, 3788750489], "tags": {"building": "yes", "name": "Fruit sellers", "shop": "fruit"}}, {"type": "way", "id": 375512879, "nodes": [3788750493, 3788750494, 3788750495, 3788750496, 3788750493], "tags": {"building": "yes", "name": "Fruit sellers", "shop": "frame"}}, {"type": "way", "id": 498812027, "nodes": [4901490869, 4901490870, 4901490871, 4901490872, 4901490869], "tags": {"building": "yes", "shop": "department_store"}}, {"type": "way", "id": 498812028, "nodes": [4901490873, 4901490874, 4901490875, 4901490876, 4901490877, 4901490878, 4901490873], "tags": {"building": "yes", "shop": "department_store"}}, {"type": "way", "id": 875236425, "nodes": [8146785975, 8146785976, 8146785977, 8146785978, 8146785975], "tags": {"building": "yes", "shop": "dairy"}}, {"type": "way", "id": 875236426, "nodes": [8146785978, 8146785979, 8146785980, 8146785981, 8146785976, 8146785977, 8146785978], "tags": {"building": "yes", "name": "Ashapura Traders", "opening_hours": "Mo-Su 08:00-20:00", "phone": "00918980257997", "shop": "doityourself"}}, {"type": "way", "id": 875236427, "nodes": [8146785979, 8146785982, 8146785983, 8146785980, 8146785979], "tags": {"building": "yes", "name": "Trikamacharya Provision store", "opening_hours": "Mo-Su 08:00-20:00", "shop": "general"}}]}