{"version": 0.6, "generator": "Overpass API 0.7.62.8 e802775f", "osm3s": {"timestamp_osm_base": "2025-11-29T17:34:26Z", "copyright": "The data included in this document is from www.openstreetmap.org. The data is made available under ODbL."}, "elements": [{"type": "node", "id": 5080747868, "lat": 16.7112152, "lon": 81.0918828}, {"type": "node", "id": 5080747869, "lat": 16.7108299, "lon": 81.0919467}, {"type": "node", "id": 5080747870, "lat": 16.7107846, "lon": 81.0916489}, {"type": "node", "id": 5080747871, "lat": 16.7108984, "lon": 81.09163}, {"type": "node", "id": 5080747872, "lat": 16.7109168, "lon": 81.0917512}, {"type": "node", "id": 5080747873, "lat": 16.7110629, "lon": 81.091727}, {"type": "node", "id": 5080747874, "lat": 16.7110204, "lon": 81.0914477}, {"type": "node", "id": 5080747875, "lat": 16.7111459, "lon": 81.0914269}, {"type": "node", "id": 6372307611, "lat": 16.7204762, "lon": 81.0874725, "tags": {"addr:city": "eluru", "addr:postcode": "534001", "addr:street": "Nuzividu - Eluru Road", "amenity": "bank", "atm": "yes", "brand": "Andhra Bank", "brand:wikidata": "Q2003476", "brand:wikipedia": "en:Andhra Bank", "drive_through": "yes", "name": "Andhra Bank"}}, {"type": "node", "id": 6372307622, "lat": 16.7095853, "lon": 81.0980377, "tags": {"addr:city": "eluru", "addr:postcode": "534001", "addr:street": "Power Pet Station Road", "amenity": "bank", "drive_through": "yes", "name": "District cooperative bank"}}, {"type": "node", "id": 6372328203, "lat": 16.7385851, "lon": 81.0630642, "tags": {"addr:city": "eluru", "addr:postcode": "534003", "addr:street": "Nuzividu - Eluru Road", "amenity": "bank", "atm": "yes", "brand": "Indian Overseas Bank", "brand:wikidata": "Q2003611", "brand:wikipedia": "en:Indian Overseas Bank", "drive_through": "yes", "name": "Indian Overseas Bank"}}, {"type": "node", "id": 11648497149, "lat": 16.7043578, "lon": 81.0769185, "tags": {"amenity": "bank", "brand": "State Bank of India", "brand:wikidata": "Q1340361", "check_date": "2024-02-21", "name": "State Bank of India", "short_name": "SBI"}}, {"type": "node", "id": 11648497152, "lat": 16.7046446, "lon": 81.0738495, "tags": {"amenity": "bank", "brand": "ICICI Bank", "brand:wikidata": "Q1653258", "check_date": "2024-02-21", "name": "ICICI Bank", "short_name": "ICICI"}}, {"type": "node", "id": 11648497153, "lat": 16.7046811, "lon": 81.0731482, "tags": {"amenity": "bank", "brand": "Indian Bank", "brand:wikidata": "Q2003789", "check_date": "2024-02-21", "name": "Indian Bank"}}, {"type": "node", "id": 11648497154, "lat": 16.7046641, "lon": 81.0732842, "tags": {"amenity": "bank", "brand": "Kotak Mahindra Bank", "brand:wikidata": "Q2040404", "check_date": "2024-02-21", "name": "Kotak Mahindra Bank"}}, {"type": "node", "id": 11648497157, "lat": 16.701359, "lon": 81.0648978, "tags": {"amenity": "bank", "brand": "HDFC Bank", "brand:wikidata": "Q631047", "check_date": "2024-02-21", "name": "HDFC Bank", "short_name": "HDFC"}}, {"type": "node", "id": 12150408455, "lat": 16.7118423, "lon": 81.0859591}, {"type": "node", "id": 12150408456, "lat": 16.7118009, "lon": 81.0860848}, {"type": "node", "id": 12150408457, "lat": 16.7116567, "lon": 81.0860427}, {"type": "node", "id": 12150408458, "lat": 16.7116908, "lon": 81.0859114}, {"type": "way", "id": 521435951, "nodes": [5080747875, 5080747874, 5080747873, 5080747872, 5080747871, 5080747870, 5080747869, 5080747868, 5080747875], "tags": {"amenity": "bank", "name": "State Bank of India, Eluru"}}, {"type": "way", "id": 1312677416, "nodes": [12150408455, 12150408456, 12150408457, 12150408458, 12150408455], "tags": {"addr:district": "Xavier Nagar", "amenity": "bank", "atm": "yes", "brand": "Indian Overseas Bank", "brand:wikidata": "Q2003611", "building": "yes", "name": "Indian Overseas Bank", "opening_hours": "Mo-Fr 10:00-16:00; Sa 10:00-14:00"}}]}