{"version": 0.6, "generator": "Overpass API 0.7.62.8 e802775f", "osm3s": {"timestamp_osm_base": "2025-11-29T17:28:15Z", "copyright": "The data included in this document is from www.openstreetmap.org. The data is made available under ODbL."}, "elements": [{"type": "node", "id": 1444157313, "lat": 12.7185753, "lon": 77.8735039, "tags": {"name": "Ashoka Leyland", "shop": "car"}}, {"type": "node", "id": 1482351298, "lat": 12.7424464, "lon": 77.8361466, "tags": {"addr:housename": "Uzhavar sandhai", "addr:street": "avalapalli road", "name": "Uzhavar Sandhai", "shop": "greengrocer", "source": "bingsat - osm tracks"}}, {"type": "node", "id": 1484318652, "lat": 12.7354864, "lon": 77.8297215, "tags": {"addr:street": "Bagalur road", "air_conditioning": "yes", "check_date": "2025-03-04", "name": "GRT Jewellers", "payment:cash": "yes", "payment:credit_cards": "yes", "payment:debit_cards": "yes", "shop": "jewelry", "source": "survey"}}, {"type": "node", "id": 1906481672, "lat": 12.7773019, "lon": 77.7696827, "tags": {"name": "MCR Wine Palace", "shop": "alcohol"}}, {"type": "node", "id": 1906481696, "lat": 12.7779588, "lon": 77.7695637, "tags": {"name": "Internet Cafe", "shop": "computer"}}, {"type": "node", "id": 1906481705, "lat": 12.5224931, "lon": 77.7912445, "tags": {"shop": "bakery"}}, {"type": "node", "id": 1906481728, "lat": 12.778004, "lon": 77.76958, "tags": {"name": "Photographer", "shop": "electronics"}}, {"type": "node", "id": 1906481749, "lat": 12.7779471, "lon": 77.7696177, "tags": {"name": "Juice Shop", "shop": "beverages"}}, {"type": "node", "id": 1906481847, "lat": 12.7778593, "lon": 77.7695839, "tags": {"shop": "bakery"}}, {"type": "node", "id": 2303846295, "lat": 12.7337449, "lon": 77.8411681, "tags": {"name": "Akbar Bikes Garage", "shop": "motorcycle"}}, {"type": "node", "id": 2303846442, "lat": 12.7336871, "lon": 77.8410638, "tags": {"name": "Akshya Bakery", "shop": "bakery"}}, {"type": "node", "id": 2344393047, "lat": 12.7322797, "lon": 77.8283924, "tags": {"name": "Kanniah Bakery", "shop": "bakery"}}, {"type": "node", "id": 2344395354, "lat": 12.7323372, "lon": 77.8282801, "tags": {"name": "Agarwal Bhavan Sweets", "shop": "bakery"}}, {"type": "node", "id": 2344396387, "lat": 12.737851, "lon": 77.8304001, "tags": {"name": "Pallavi Supermarket", "shop": "supermarket"}}, {"type": "node", "id": 2344418937, "lat": 12.7332597, "lon": 77.8271467, "tags": {"name": "Radhas", "shop": "clothes"}}, {"type": "node", "id": 2344419183, "lat": 12.7336626, "lon": 77.8267658, "tags": {"name": "Gokuls", "shop": "clothes"}}, {"type": "node", "id": 2344420476, "lat": 12.7329458, "lon": 77.8262455, "tags": {"name": "Santosh", "shop": "clothes"}}, {"type": "node", "id": 2344421726, "lat": 12.7330085, "lon": 77.8266586, "tags": {"name": "Danam", "shop": "department_store"}}, {"type": "node", "id": 2344436339, "lat": 12.7462603, "lon": 77.8128579, "tags": {"name": "Niligiris", "shop": "supermarket"}}, {"type": "node", "id": 2344447856, "lat": 12.73702, "lon": 77.8303674, "tags": {"check_date": "2024-10-20", "name": "Jyothi Supermarket", "shop": "supermarket"}}, {"type": "node", "id": 2435043649, "lat": 12.81874, "lon": 77.6897201}, {"type": "node", "id": 2435043650, "lat": 12.818685, "lon": 77.6903129}, {"type": "node", "id": 2435043651, "lat": 12.8179397, "lon": 77.690396}, {"type": "node", "id": 2550426996, "lat": 12.8353836, "lon": 77.6843293, "tags": {"addr:city": "Bangalore", "addr:postcode": "560100", "addr:street": "Anantha Nagar Road", "name": "Sweet Land Bakery", "name:kn": "\u0cb8\u0ccd\u0cb5\u0cc0\u0c9f\u0ccd \u0cb2\u0ccd\u0caf\u0cbe\u0c82\u0ca1\u0ccd \u0cac\u0cc7\u0c95\u0cb0\u0cbf", "shop": "bakery"}}, {"type": "node", "id": 2550434272, "lat": 12.8354228, "lon": 77.679878, "tags": {"name": "Prestige Smart Kitchen", "shop": "appliance"}}, {"type": "node", "id": 3840533862, "lat": 12.8352868, "lon": 77.6919362, "tags": {"name": "Geo Travels", "shop": "travel_agency"}}, {"type": "node", "id": 4101562821, "lat": 12.5284254, "lon": 77.7894818, "tags": {"name": "AJBJ Chicken Center", "shop": "yes"}}, {"type": "node", "id": 4161475690, "lat": 12.8356377, "lon": 77.6844671, "tags": {"addr:city": "Bangalore", "addr:postcode": "560100", "addr:street": "Anantha Nagar Road", "name": "Hot Chips", "name:kn": "\u0cb9\u0cbe\u0c9f\u0ccd \u0c9a\u0cbf\u0caa\u0ccd\u0cb8\u0ccd", "shop": "bakery"}}, {"type": "node", "id": 4161522489, "lat": 12.8350074, "lon": 77.6844318, "tags": {"name": "Shetty Shop", "name:kn": "\u0cb6\u0cc6\u0c9f\u0ccd\u0c9f\u0cbf \u0c85\u0c82\u0c97\u0ca1\u0cbf", "shop": "convenience"}}, {"type": "node", "id": 4161531692, "lat": 12.8351843, "lon": 77.6830998, "tags": {"addr:city": "Bangalore", "addr:postcode": "560100", "addr:street": "Anantha Nagar Road", "name": "Sri Sai Cyber Cafe", "shop": "convenience"}}, {"type": "node", "id": 4161532389, "lat": 12.8353508, "lon": 77.682738, "tags": {"addr:city": "Bengaluru", "addr:postcode": "560100", "addr:street": "Anantha Nagar Road", "name": "Sri Vigneshwara Cyber Zone", "phone": "080-49529411", "shop": "convenience"}}, {"type": "node", "id": 4161597589, "lat": 12.8356336, "lon": 77.6914484, "tags": {"name": "Grand hypermarket", "shop": "supermarket"}}, {"type": "node", "id": 4266324393, "lat": 12.8357249, "lon": 77.6845263, "tags": {"addr:postcode": "560100", "addr:street": "Anantha Nagar Road", "name": "Nandini Dairy Store", "name:kn": "\u0ca8\u0c82\u0ca6\u0cbf\u0ca8\u0cbf \u0ca1\u0cc8\u0cb0\u0cbf", "shop": "department_store"}}, {"type": "node", "id": 4305372393, "lat": 12.5238979, "lon": 77.7914333, "tags": {"addr:postcode": "635107 ", "addr:street": "GHS SCHOOL ROAD ", "name": "Garda Electronics", "opening_hours": "Mo-Su 08:30-22:00", "operator": "Nagaraj ", "phone": "9655640140", "shop": "electronics"}}, {"type": "node", "id": 4445495297, "lat": 12.8366422, "lon": 77.6849685, "tags": {"name": "Fruit and Vegetable Store", "shop": "greengrocer"}}, {"type": "node", "id": 4445510861, "lat": 12.8352039, "lon": 77.6915346, "tags": {"addr:city": "bangalore", "addr:postcode": "560100", "name": "Dharwad Pedha", "shop": "bakery"}}, {"type": "node", "id": 4716468734, "lat": 12.7909833, "lon": 77.7269242, "tags": {"addr:city": "bangalore", "addr:postcode": "562107", "addr:street": "Hosur Road", "name": "sri chowdeshwari provision store", "opening_hours": "06:00-22:30", "shop": "supermarket"}}, {"type": "node", "id": 4798026737, "lat": 12.8074937, "lon": 77.6978459, "tags": {"addr:city": "Bangalore", "addr:postcode": "560099", "addr:street": "Hosur Road", "alt_name": "A2B", "amenity": "restaurant", "brand": "Adyar Ananda Bhavan", "brand:wikidata": "Q15178238", "cuisine": "regional", "diet:vegetarian": "only", "indoor_seating": "yes", "name": "Adyar Ananda Bhavan", "operator": "Adyar Ananda Bhavan", "outdoor_seating": "no", "phone": "+91 93428 11830", "shop": "confectionery", "website": "https://aabsweets.com"}}, {"type": "node", "id": 4799194311, "lat": 12.7470838, "lon": 77.8107268, "tags": {"addr:city": "Hosur", "addr:postcode": "635126", "addr:street": "Hosur Road", "alt_name": "A2B", "amenity": "restaurant", "brand": "Adyar Ananda Bhavan", "brand:wikidata": "Q15178238", "brand:wikipedia": "en:Adyar Ananda Bhavan", "check_date": "2024-10-20", "cuisine": "regional", "diet:vegetarian": "only", "email": "info@aabsweets.com", "name": "Adyar Ananda Bhavan", "name:kn": "\u0c86\u0ca6\u0ccd\u0caf\u0cbe\u0cb0\u0ccd \u0c86\u0ca8\u0c82\u0ca6 \u0cad\u0cb5\u0ca8", "operator": "Adyar Ananda Bhavan", "phone": "+91 4344 277 199", "shop": "confectionery", "smoking": "no", "website": "https://aabsweets.com"}}, {"type": "node", "id": 5377445538, "lat": 12.709651, "lon": 77.690709, "tags": {"addr:street": "4th cross", "clothes": "women;Silk", "opening_hours": "Mo-Su 09:00-20:00", "payment:cash": "yes", "payment:credit_cards": "yes", "payment:debit_cards": "yes", "shop": "clothes"}}, {"type": "node", "id": 5395273235, "lat": 12.8215205, "lon": 77.687234, "tags": {"name": "Airtel 4g", "shop": "mobile_phone"}}, {"type": "node", "id": 5402224038, "lat": 12.8201031, "lon": 77.6885226, "tags": {"name": "S. R. S. Travels", "shop": "travel_agency"}}, {"type": "node", "id": 5402302824, "lat": 12.8240253, "lon": 77.6847849, "tags": {"check_date": "2024-08-29", "name": "Unilet", "shop": "electronics", "source": "survey"}}, {"type": "node", "id": 5402312921, "lat": 12.8238095, "lon": 77.6850392, "tags": {"brand": "Bata", "brand:wikidata": "Q688082", "check_date": "2025-07-04", "name": "Bata", "payment:cash": "yes", "payment:credit_cards": "yes", "payment:debit_cards": "yes", "shop": "shoes", "source": "survey"}}, {"type": "node", "id": 5996650934, "lat": 12.7113862, "lon": 77.6993961, "tags": {"name": "Arya Bakery", "shop": "bakery"}}, {"type": "node", "id": 5997867363, "lat": 12.7110292, "lon": 77.6994076, "tags": {"shop": "bakery"}}, {"type": "node", "id": 5997867364, "lat": 12.7110835, "lon": 77.6994091, "tags": {"name": "Fruit Stall", "shop": "greengrocer"}}, {"type": "node", "id": 5997867365, "lat": 12.7111136, "lon": 77.6994091, "tags": {"clothes": "women", "name": "Bheru Fashion", "shop": "fashion"}}, {"type": "node", "id": 5997867366, "lat": 12.7111452, "lon": 77.6994138, "tags": {"name": "AR Mobiles", "shop": "mobile_phone"}}, {"type": "node", "id": 5997867367, "lat": 12.7115182, "lon": 77.6997425, "tags": {"name": "Hopcoms", "shop": "greengrocer"}}, {"type": "node", "id": 6496692949, "lat": 12.8616325, "lon": 77.7775388}, {"type": "node", "id": 6496692950, "lat": 12.8611744, "lon": 77.7774113}, {"type": "node", "id": 6496692951, "lat": 12.8612175, "lon": 77.7772482}, {"type": "node", "id": 6496692952, "lat": 12.8616757, "lon": 77.7773758}, {"type": "node", "id": 6892883955, "lat": 12.633602, "lon": 77.7846345, "tags": {"shop": "motorcycle_repair"}}, {"type": "node", "id": 7021356919, "lat": 12.862193, "lon": 77.7717239}, {"type": "node", "id": 7021356920, "lat": 12.8621002, "lon": 77.7717199}, {"type": "node", "id": 7021356921, "lat": 12.8620936, "lon": 77.7718151}, {"type": "node", "id": 7138517086, "lat": 12.5281443, "lon": 77.7895623, "tags": {"addr:postcode": "635107", "addr:street": "Hosur Main Road", "name:en": "Boys Saloon", "opening_hours": "Mo-Su 09:00-18:00", "shop": "beauty"}}, {"type": "node", "id": 7915978268, "lat": 12.5313996, "lon": 77.7898355, "tags": {"addr:city": "Denkanikottai", "addr:postcode": "635107", "addr:street": "1st Bye Pass Road", "brand": "Royal Enfield", "brand:wikidata": "Q2668720", "name": "Royal Enfiend Showroom", "operator": "Saravana Royal", "shop": "motorcycle"}}, {"type": "node", "id": 8283809155, "lat": 12.7606704, "lon": 77.7922351, "tags": {"addr:city": "Hosur", "addr:housenumber": "C-28", "addr:postcode": "635126", "addr:street": "1st & 2nd Phase, SIDCO Industrial Estate", "email": "mail@hosurkart.in", "name": "HosurKart - The Online Store", "opening_hours": "Mo-Sa 08:00-18:00", "operator": "HosurKart", "payment:cards": "yes", "payment:cash": "yes", "payment:net_banking": "yes", "payment:upi": "yes", "phone": "+919364519009", "shop": "supermarket", "website": "https://hosurkart.in"}}, {"type": "node", "id": 8779041517, "lat": 12.8160167, "lon": 77.6918314, "tags": {"name": "Royal Enfield Service Station", "shop": "motorcycle"}}, {"type": "node", "id": 9818979257, "lat": 12.8621492, "lon": 77.7718199}, {"type": "node", "id": 9818979258, "lat": 12.8621934, "lon": 77.7717819}, {"type": "node", "id": 9818979259, "lat": 12.8715955, "lon": 77.7667955}, {"type": "node", "id": 9818979260, "lat": 12.8716383, "lon": 77.7673433}, {"type": "node", "id": 9818979261, "lat": 12.8713867, "lon": 77.767364}, {"type": "node", "id": 9818979262, "lat": 12.8713438, "lon": 77.7668162}, {"type": "node", "id": 9818979327, "lat": 12.8744684, "lon": 77.7664224}, {"type": "node", "id": 9818979328, "lat": 12.8743896, "lon": 77.7669427}, {"type": "node", "id": 9818979329, "lat": 12.8741486, "lon": 77.7669044}, {"type": "node", "id": 9818979330, "lat": 12.8742273, "lon": 77.766384}, {"type": "node", "id": 9822761394, "lat": 12.8777048, "lon": 77.7638701, "tags": {"name": "Firefox Bikes", "operator": "Firefox Bikes", "shop": "bicycle"}}, {"type": "node", "id": 9822761395, "lat": 12.8777375, "lon": 77.7638106, "tags": {"name": "High Trails", "shop": "bicycle"}}, {"type": "node", "id": 9929537000, "lat": 12.8586119, "lon": 77.6975226, "tags": {"name": "J24 Essentials", "shop": "convenience"}}, {"type": "node", "id": 9942353717, "lat": 12.845308, "lon": 77.6893955}, {"type": "node", "id": 9942353718, "lat": 12.8452714, "lon": 77.6893741}, {"type": "node", "id": 9942353719, "lat": 12.8452269, "lon": 77.6893607}, {"type": "node", "id": 9942353720, "lat": 12.8451825, "lon": 77.6893741}, {"type": "node", "id": 9942353721, "lat": 12.8449916, "lon": 77.6899266}, {"type": "node", "id": 9942353722, "lat": 12.8453446, "lon": 77.6900902}, {"type": "node", "id": 9942353723, "lat": 12.8455512, "lon": 77.6895028}, {"type": "node", "id": 9942353724, "lat": 12.8453551, "lon": 77.6893714}, {"type": "node", "id": 9979581805, "lat": 12.8185412, "lon": 77.6904443}, {"type": "node", "id": 10065636655, "lat": 12.8455534, "lon": 77.7247458, "tags": {"shop": "convenience"}}, {"type": "node", "id": 10232765006, "lat": 12.8314694, "lon": 77.7034117}, {"type": "node", "id": 10232765007, "lat": 12.8307341, "lon": 77.7032489}, {"type": "node", "id": 10232765008, "lat": 12.8306273, "lon": 77.7034719}, {"type": "node", "id": 10232765009, "lat": 12.8314258, "lon": 77.703649}, {"type": "node", "id": 10278018687, "lat": 12.8021894, "lon": 77.6943969, "tags": {"shop": "travel_agency"}}, {"type": "node", "id": 10278023200, "lat": 12.8052422, "lon": 77.6979088, "tags": {"name": "B.M Pharmacy", "shop": "chemist"}}, {"type": "node", "id": 10278030031, "lat": 12.8026358, "lon": 77.6957274, "tags": {"shop": "clothes"}}, {"type": "node", "id": 10278031556, "lat": 12.8057638, "lon": 77.6993057, "tags": {"shop": "electronics"}}, {"type": "node", "id": 10278032204, "lat": 12.8023722, "lon": 77.6946086, "tags": {"name": "Iyengar's", "opening_hours": "Mo-Su 08:00-09:00,08:00-21:00", "shop": "bakery", "wheelchair": "no"}}, {"type": "node", "id": 10278039841, "lat": 12.8043966, "lon": 77.697234, "tags": {"name": "Ticket Booking", "shop": "travel_agency"}}, {"type": "node", "id": 10278040249, "lat": 12.8034303, "lon": 77.6967096, "tags": {"name": "Men's Salon", "shop": "hairdresser"}}, {"type": "node", "id": 10278052849, "lat": 12.8019681, "lon": 77.705089, "tags": {"name": "Sri Sai", "shop": "chemist"}}, {"type": "node", "id": 10278104489, "lat": 12.7980337, "lon": 77.7060937, "tags": {"name": "Sri Sai Telelinks", "shop": "mobile_phone"}}, {"type": "node", "id": 10278109631, "lat": 12.7989896, "lon": 77.7057982, "tags": {"name": "Mediplus", "shop": "chemist"}}, {"type": "node", "id": 10278125603, "lat": 12.7963799, "lon": 77.7100252, "tags": {"name:signed": "no", "opening_hours": "Mo-Su 07:00-21:00", "payment:credit_cards": "no", "payment:debit_cards": "no", "shop": "grocery", "wheelchair": "limited"}}, {"type": "node", "id": 10278126727, "lat": 12.7961121, "lon": 77.7083505, "tags": {"name": "Stylish gents beauty parler", "shop": "hairdresser"}}, {"type": "node", "id": 10278127101, "lat": 12.7972425, "lon": 77.7064655, "tags": {"diet:halal": "yes", "diet:kosher": "no", "name": "The Big Market", "opening_hours": "Mo-Su 08:00-09:30", "payment:credit_cards": "yes", "payment:debit_cards": "yes", "shop": "supermarket", "wheelchair": "no"}}, {"type": "node", "id": 10564863566, "lat": 12.7197579, "lon": 77.8221929, "tags": {"brand": "Honda", "brand:wikidata": "Q9584", "check_date": "2023-01-18", "name": "Advika Honda", "shop": "motorcycle", "source": "survey"}}, {"type": "node", "id": 10569153045, "lat": 12.7964304, "lon": 77.7100071, "tags": {"name:signed": "no", "opening_hours": "Mo-Su 07:00-21:00", "payment:credit_cards": "no", "payment:debit_cards": "no", "shop": "general", "wheelchair": "limited"}}, {"type": "node", "id": 10688149979, "lat": 12.7372452, "lon": 77.8241441, "tags": {"air_conditioning": "yes", "brand": "Tanishq", "brand:en": "Tanishq", "brand:wikidata": "Q13117711", "check_date": "2024-08-29", "name": "Tanishq", "name:en": "Tanishq", "payment:cash": "yes", "payment:credit_cards": "yes", "payment:debit_cards": "yes", "second_hand": "no", "shop": "jewelry", "source": "survey"}}, {"type": "node", "id": 11034491771, "lat": 12.640687, "lon": 78.0644288, "tags": {"check_date": "2023-07-08", "name": "Hind Farms", "organic": "only", "shop": "supermarket"}}, {"type": "node", "id": 11121183852, "lat": 12.6648433, "lon": 77.7839205}, {"type": "node", "id": 11121183853, "lat": 12.664734, "lon": 77.7838902}, {"type": "node", "id": 11121183854, "lat": 12.6647659, "lon": 77.7838061}, {"type": "node", "id": 11121183855, "lat": 12.6648673, "lon": 77.7838341}, {"type": "node", "id": 11341062541, "lat": 12.8361843, "lon": 77.6879899, "tags": {"name": "Mahakal Fashion", "shop": "clothes"}}, {"type": "node", "id": 11341069164, "lat": 12.8355771, "lon": 77.6908841, "tags": {"addr:postcode": "560100", "addr:street": "Ananth Nagar Road", "name": "Reliance Smart Point", "shop": "supermarket"}}, {"type": "node", "id": 11341071583, "lat": 12.8358986, "lon": 77.6887744, "tags": {"addr:street": "14th cross, Ananth Nagar", "name": "Durga Electricals and Hardware", "shop": "hardware"}}, {"type": "node", "id": 11341466752, "lat": 12.8354876, "lon": 77.6914121, "tags": {"addr:postcode": "560100", "addr:street": "Anantha Nagar Road", "brand": "Vishal Mega Mart", "brand:wikidata": "Q126895037", "name": "Vishal Mega Mart", "shop": "supermarket", "wheelchair": "yes"}}, {"type": "node", "id": 11341484903, "lat": 12.8354006, "lon": 77.6927405, "tags": {"addr:postcode": "560100", "addr:street": "Ananth Nagar", "brand": "Lenskart", "brand:wikidata": "Q17068753", "name": "Lenskart", "shop": "optician"}}, {"type": "node", "id": 11341486342, "lat": 12.835383, "lon": 77.691914, "tags": {"addr:postcode": "560100", "addr:street": "Anantha Nagar Road", "name": "Hot Chips", "shop": "bakery", "wheelchair": "no"}}, {"type": "node", "id": 11341491925, "lat": 12.8352231, "lon": 77.6930207, "tags": {"addr:postcode": "560100", "addr:street": "Anantha Nagar Road", "name": "Dry fruit Specials", "shop": "nuts"}}, {"type": "node", "id": 11341496121, "lat": 12.8352482, "lon": 77.6938219, "tags": {"name": "Sangeetha Mobiles", "shop": "mobile_phone"}}, {"type": "node", "id": 11341496848, "lat": 12.8353208, "lon": 77.6924032, "tags": {"name": "Magno footwares", "shop": "shoes", "wheelchair": "no"}}, {"type": "node", "id": 11341498394, "lat": 12.8352586, "lon": 77.6936602, "tags": {"addr:postcode": "560100", "addr:street": "Anantha Nagar Road", "name": "Agarwal Sweets", "shop": "pastry"}}, {"type": "node", "id": 11341518793, "lat": 12.8352645, "lon": 77.6935833, "tags": {"addr:postcode": "560100", "addr:street": "Anantha Nagar Road", "brand": "More", "brand:wikidata": "Q6910891", "name": "More", "shop": "supermarket"}}, {"type": "node", "id": 11341529869, "lat": 12.8353122, "lon": 77.693277, "tags": {"name": "Ratnadeep", "shop": "supermarket"}}, {"type": "node", "id": 11342636613, "lat": 12.8349928, "lon": 77.695376, "tags": {"name": "APM Optics", "shop": "optician"}}, {"type": "node", "id": 11342650965, "lat": 12.8352665, "lon": 77.6926479, "tags": {"name": "Tital Eye+", "shop": "optician", "wheelchair": "no"}}, {"type": "node", "id": 11342658515, "lat": 12.8355383, "lon": 77.692031, "tags": {"addr:street": "Anantha Nagar Road", "brand": "jockey", "name": "Jockey Store", "shop": "clothes"}}, {"type": "node", "id": 11342666026, "lat": 12.8354154, "lon": 77.6917711, "tags": {"addr:street": "Anantha Nagar Road", "name": "Cell Palace", "shop": "mobile_phone", "wheelchair": "no"}}, {"type": "node", "id": 11342669688, "lat": 12.8352798, "lon": 77.693619, "tags": {"addr:street": "Anantha Nagar Road", "beauty": "hair;spa", "brand": "Naturals", "brand:wikidata": "Q125728261", "name": "Naturals", "shop": "beauty"}}, {"type": "node", "id": 11342672397, "lat": 12.8353022, "lon": 77.6925178, "tags": {"addr:street": "Anantha Nagar", "name": "Saraswati Stationery", "shop": "stationery", "wheelchair": "no"}}, {"type": "node", "id": 11342688521, "lat": 12.8351202, "lon": 77.6932858, "tags": {"addr:street": "Anantha Nagar", "name": "Mutton and Chicken Stall", "shop": "butcher"}}, {"type": "node", "id": 11353307852, "lat": 12.8362458, "lon": 77.6867865, "tags": {"brand": "Bata", "brand:wikidata": "Q688082", "name": "Bata", "shop": "shoes"}}, {"type": "node", "id": 11353312858, "lat": 12.835677, "lon": 77.690165, "tags": {"addr:postcode": "560100", "addr:street": "Anantha Nagar Road", "name": "Tasty Park", "shop": "bakery", "wheelchair": "no"}}, {"type": "node", "id": 11353331329, "lat": 12.8359024, "lon": 77.6898855, "tags": {"name": "Women's Choice", "shop": "clothes"}}, {"type": "node", "id": 11353332587, "lat": 12.835936, "lon": 77.6847058, "tags": {"name": "Angel Mart", "shop": "greengrocer"}}, {"type": "node", "id": 11353353688, "lat": 12.8354052, "lon": 77.6798696, "tags": {"check_date": "2025-07-04", "indoor_seating": "no", "name": "New Surya Sweets", "outdoor_seating": "no", "shop": "bakery", "takeaway": "only"}}, {"type": "node", "id": 11353366277, "lat": 12.8365378, "lon": 77.6858336, "tags": {"name": "Sri Venkadeswara Bakery", "shop": "bakery"}}, {"type": "node", "id": 11355615419, "lat": 12.8357615, "lon": 77.6905702, "tags": {"name": "Health and Glow", "shop": "cosmetics"}}, {"type": "node", "id": 11355621517, "lat": 12.8352368, "lon": 77.6938893, "tags": {"name": "Organic Mandya", "organic": "yes", "shop": "greengrocer"}}, {"type": "node", "id": 11355628414, "lat": 12.8352064, "lon": 77.6931582, "tags": {"name": "Sri Gajanand Sweets", "shop": "bakery"}}, {"type": "node", "id": 11355639096, "lat": 12.8352608, "lon": 77.6928248, "tags": {"name": "specs makers", "shop": "optician", "wheelchair": "no"}}, {"type": "node", "id": 11355639807, "lat": 12.8355755, "lon": 77.6918112, "tags": {"name": "Green Trends", "shop": "beauty"}}, {"type": "node", "id": 11355639808, "lat": 12.835656, "lon": 77.690311, "tags": {"name": "Kurl-on", "shop": "furniture", "wheelchair": "no"}}, {"type": "node", "id": 11355639809, "lat": 12.8358533, "lon": 77.6891843, "tags": {"name": "Kalos Salon", "shop": "beauty"}}, {"type": "node", "id": 11355649594, "lat": 12.8361611, "lon": 77.6873485, "tags": {"name": "Fusion Salon", "shop": "beauty"}}, {"type": "node", "id": 11355651453, "lat": 12.8365529, "lon": 77.6848329, "tags": {"name": "Nixie Vegetables", "shop": "greengrocer"}}, {"type": "node", "id": 11355652902, "lat": 12.8359102, "lon": 77.6898188, "tags": {"name": "Leo cars", "shop": "car_repair"}}, {"type": "node", "id": 11363990662, "lat": 12.7282573, "lon": 77.8089618, "tags": {"addr:city": "Hosur", "addr:district": "Krishangiri", "addr:full": "H.No: 5/646,B1, Near bakeland Bakery, Muneeshwar Nagar,Hosur, Krishangiri-635109", "addr:housenumber": "5/646", "addr:postcode": "635109", "addr:street": "Hosur Inner Ring Road", "name": "Posh End - Unisex Beauty Lounge", "opening_hours": "Mo-Su 08:00-20:00", "phone": "+91 63851 73734", "shop": "salon"}}, {"type": "node", "id": 11377221569, "lat": 12.7483495, "lon": 77.8075322, "tags": {"addr:postcode": "635126", "addr:street": "Hosur Road", "check_date": "2024-10-20", "email": "reliancedigital@ril.com", "name:en": "Reliance Trends", "opening_hours": "Mo-Su 11:00-22:00", "payment:cash": "yes", "payment:credit_cards": "yes", "payment:debit_cards": "yes", "phone": "+91 7977912345", "shop": "clothes", "website": "https://www.reliancedigital.in"}}, {"type": "node", "id": 11659991949, "lat": 12.8237201, "lon": 77.6850775, "tags": {"brand": "Puma", "brand:wikidata": "Q157064", "check_date": "2024-02-24", "internet_access": "wlan", "internet_access:fee": "customers", "name": "Puma", "payment:cash": "yes", "payment:credit_cards": "yes", "payment:debit_cards": "yes", "shop": "clothes", "wheelchair": "no"}}, {"type": "node", "id": 11659991950, "lat": 12.8236609, "lon": 77.6851292, "tags": {"check_date": "2024-02-24", "internet_access": "wlan", "internet_access:fee": "customers", "name": "Titan Eye+", "payment:cash": "yes", "payment:credit_cards": "yes", "payment:debit_cards": "yes", "shop": "optician", "wheelchair": "no"}}, {"type": "node", "id": 11659991951, "lat": 12.8236113, "lon": 77.6851744, "tags": {"brand": "Fastrack", "brand:wikidata": "Q28164179", "check_date": "2024-02-24", "internet_access": "wlan", "internet_access:fee": "customers", "name": "Fastrack", "payment:cash": "yes", "payment:credit_cards": "yes", "payment:debit_cards": "yes", "shop": "watches", "wheelchair": "no"}}, {"type": "node", "id": 11660036944, "lat": 12.8240536, "lon": 77.6847266, "tags": {"brand": "Honda", "brand:wikidata": "Q9584", "check_date": "2024-02-24", "internet_access": "wlan", "internet_access:fee": "customers", "name": "Honda", "name:en": "Ananda Honda", "payment:cash": "yes", "payment:credit_cards": "yes", "payment:debit_cards": "yes", "shop": "motorcycle", "wheelchair": "no"}}, {"type": "node", "id": 11806333946, "lat": 12.8606499, "lon": 77.7830433, "tags": {"brand": "pai", "check_date": "2025-02-22", "name": "Pai", "shop": "appliance", "website": "https://www.paiinternational.in/", "wheelchair": "limited"}}, {"type": "node", "id": 12042954730, "lat": 12.7641029, "lon": 77.792828, "tags": {"check_date": "2025-08-26", "name": "Classic Roadways", "shop": "yes", "source": "survey"}}, {"type": "node", "id": 12064579148, "lat": 12.86098, "lon": 77.7871399, "tags": {"female": "yes", "hairdresser": "barber", "male": "yes", "shop": "hairdresser"}}, {"type": "node", "id": 12064581877, "lat": 12.8603085, "lon": 77.7919672, "tags": {"name": "A.R shoe plaza", "shop": "shoes"}}, {"type": "node", "id": 12064599823, "lat": 12.8603096, "lon": 77.7919235, "tags": {"name": "Rajdhani supermarket", "payment:credit_cards": "yes", "payment:debit_cards": "yes", "shop": "supermarket", "wheelchair": "no"}}, {"type": "node", "id": 12144442647, "lat": 12.8183869, "lon": 77.6908576, "tags": {"brand": "Decathlon", "brand:wikidata": "Q509349", "check_date": "2024-08-29", "name": "Decathlon", "payment:cash": "yes", "payment:credit_cards": "yes", "payment:debit_cards": "yes", "shop": "sports", "source": "survey"}}, {"type": "node", "id": 12144442656, "lat": 12.7870782, "lon": 77.7412967, "tags": {"brand": "Royal Enfield", "brand:wikidata": "Q2668720", "check_date": "2024-08-29", "name": "Royal Enfield", "shop": "motorcycle", "source": "survey"}}, {"type": "node", "id": 12144442658, "lat": 12.7814421, "lon": 77.76427, "tags": {"brand": "Adyar Ananda Bhavan", "brand:wikidata": "Q15178238", "check_date": "2024-08-29", "name": "Adyar Ananda Bhavan", "shop": "confectionery", "source": "survey"}}, {"type": "node", "id": 12144444082, "lat": 12.7360823, "lon": 77.8275273, "tags": {"brand": "Bhima Jewellers", "brand:wikidata": "Q17004889", "check_date": "2024-08-29", "name": "Bhima Jewellers", "payment:cash": "yes", "payment:credit_cards": "yes", "payment:debit_cards": "yes", "shop": "jewelry", "source": "survey"}}, {"type": "node", "id": 12144444093, "lat": 12.7357682, "lon": 77.8286372, "tags": {"check_date": "2024-08-29", "name": "Sangeetha", "shop": "mobile_phone", "source": "survey"}}, {"type": "node", "id": 12144450801, "lat": 12.7289786, "lon": 77.842842, "tags": {"check_date": "2024-08-29", "name": "Royal Oak", "payment:cash": "yes", "payment:credit_cards": "yes", "payment:debit_cards": "yes", "shop": "furniture", "source": "survey"}}, {"type": "node", "id": 12229758568, "lat": 12.8602453, "lon": 77.7926242, "tags": {"check_date": "2024-10-06", "name": "AR Fashions", "shop": "clothes"}}, {"type": "node", "id": 12231720776, "lat": 12.8632435, "lon": 77.7945121, "tags": {"check_date": "2025-10-19", "shop": "dairy"}}, {"type": "node", "id": 12231720780, "lat": 12.8597719, "lon": 77.7931904, "tags": {"check_date": "2025-10-19", "female": "yes", "male": "yes", "name": "Royal Unisex Saloon", "shop": "hairdresser"}}, {"type": "node", "id": 12231720781, "lat": 12.8598949, "lon": 77.7929397, "tags": {"hairdresser": "barber", "male": "yes", "name": "Karthik Salon", "shop": "hairdresser"}}, {"type": "node", "id": 12231720782, "lat": 12.8600093, "lon": 77.790927, "tags": {"name": "Global Traders", "shop": "greengrocer"}}, {"type": "node", "id": 12231720783, "lat": 12.8599833, "lon": 77.7909247, "tags": {"name": "Global Distributors", "shop": "yes"}}, {"type": "node", "id": 12231720784, "lat": 12.8600189, "lon": 77.790957, "tags": {"name": "My phone", "shop": "mobile_phone"}}, {"type": "node", "id": 12231720785, "lat": 12.859992, "lon": 77.7909551, "tags": {"name": "Style My Princess", "shop": "beauty"}}, {"type": "node", "id": 12231720786, "lat": 12.8600126, "lon": 77.7910009, "tags": {"name": "Sufi Mens Wear", "shop": "clothes"}}, {"type": "node", "id": 12231720787, "lat": 12.8599826, "lon": 77.7910105, "tags": {"name": "Uday Enterproses", "shop": "yes"}}, {"type": "node", "id": 12231720788, "lat": 12.8597329, "lon": 77.7935848, "tags": {"name": "Sri Lakshmi Digital Photo Studio", "shop": "copyshop"}}, {"type": "node", "id": 12231720789, "lat": 12.8596914, "lon": 77.7936665, "tags": {"check_date": "2025-05-15", "name": "Prakash Electrical And Hardware", "shop": "hardware"}}, {"type": "node", "id": 12231720790, "lat": 12.8599417, "lon": 77.7906265, "tags": {"name": "Shameer Bike center", "shop": "motorcycle_repair"}}, {"type": "node", "id": 12231720791, "lat": 12.8599238, "lon": 77.790575, "tags": {"name": "Lokanath Provision Store", "shop": "yes"}}, {"type": "node", "id": 12231720792, "lat": 12.8599278, "lon": 77.7905253, "tags": {"name": "Lalitha Hardware", "shop": "hardware"}}, {"type": "node", "id": 12231720793, "lat": 12.8598964, "lon": 77.7904734, "tags": {"name": "SVS Garments", "shop": "clothes"}}, {"type": "node", "id": 12231720794, "lat": 12.8598708, "lon": 77.7903335, "tags": {"description": "excavator parts", "name": "Shivasakthi Hydrocare", "shop": "yes"}}, {"type": "node", "id": 12231720796, "lat": 12.8597978, "lon": 77.7898898, "tags": {"name": "Ramu Scooter Clinic", "shop": "motorcycle_repair"}}, {"type": "node", "id": 12231720799, "lat": 12.8597828, "lon": 77.7896394, "tags": {"name": "Sri Sai Mobiles", "shop": "copyshop"}}, {"type": "node", "id": 12231740203, "lat": 12.8603723, "lon": 77.7889349, "tags": {"shop": "bed"}}, {"type": "node", "id": 12231740205, "lat": 12.8612952, "lon": 77.7869888, "tags": {"name": "Sri Beereshwara Enterprises", "shop": "mobile_phone"}}, {"type": "node", "id": 12231740206, "lat": 12.8613215, "lon": 77.786878, "tags": {"name": "Laxmi Fashion", "shop": "clothes"}}, {"type": "node", "id": 12231740207, "lat": 12.8613276, "lon": 77.7867733, "tags": {"name": "Pawan Fashion", "shop": "clothes"}}, {"type": "node", "id": 12231740208, "lat": 12.8612925, "lon": 77.786628, "tags": {"name": "New Balaj Textiles", "shop": "clothes"}}, {"type": "node", "id": 12231740209, "lat": 12.8612854, "lon": 77.7865728, "tags": {"name": "Bheru Fashion", "shop": "clothes"}}, {"type": "node", "id": 12231740210, "lat": 12.8612994, "lon": 77.786422, "tags": {"name": "Lakshmi Foot Ware", "shop": "shoes"}}, {"type": "node", "id": 12231740211, "lat": 12.8613158, "lon": 77.7863711, "tags": {"shop": "clothes"}}, {"type": "node", "id": 12231740213, "lat": 12.8611635, "lon": 77.7860603, "tags": {"name": "Kavery Textile", "shop": "fabric"}}, {"type": "node", "id": 12231740215, "lat": 12.8610366, "lon": 77.7853696, "tags": {"shop": "florist"}}, {"type": "node", "id": 12231740216, "lat": 12.8611265, "lon": 77.7857109, "tags": {"shop": "florist", "wheelchair": "yes"}}, {"type": "node", "id": 12231740217, "lat": 12.860166, "lon": 77.7836393, "tags": {"brand": "Nandini", "brand:wikidata": "Q124374212", "name": "Nandini", "shop": "dairy", "wheelchair": "limited"}}, {"type": "node", "id": 12231740218, "lat": 12.860632, "lon": 77.7828192, "tags": {"name": "Woodmark Plywoods", "shop": "hardware", "wheelchair": "yes"}}, {"type": "node", "id": 12231740219, "lat": 12.8606652, "lon": 77.7827104, "tags": {"name": "Jay Mataji Packaging", "shop": "yes", "wheelchair": "yes"}}, {"type": "node", "id": 12231740222, "lat": 12.8606379, "lon": 77.7814504, "tags": {"name": "Glam Beauty Salon", "shop": "hairdresser", "wheelchair": "no"}}, {"type": "node", "id": 12231740223, "lat": 12.8605493, "lon": 77.7809524, "tags": {"brand": "Bata", "brand:wikidata": "Q688082", "name": "Bata", "shop": "shoes", "wheelchair": "limited"}}, {"type": "node", "id": 12231740226, "lat": 12.8605222, "lon": 77.7801556, "tags": {"name": "Ambika", "shop": "furniture", "wheelchair": "no"}}, {"type": "node", "id": 12231740227, "lat": 12.8605197, "lon": 77.7800609, "tags": {"name": "Pigeon", "shop": "kitchen", "wheelchair": "limited"}}, {"type": "node", "id": 12231740229, "lat": 12.8605002, "lon": 77.7793982, "tags": {"brand": "Kohler", "brand:wikidata": "Q6426036", "name": "Kohler", "shop": "bathroom_furnishing", "wheelchair": "no"}}, {"type": "node", "id": 12231740231, "lat": 12.8605888, "lon": 77.7786918, "tags": {"name": "Chandan Helmet shop", "shop": "yes"}}, {"type": "node", "id": 12247778720, "lat": 12.7335981, "lon": 77.8328489, "tags": {"addr:floor": "G", "check_date": "2025-01-27", "level": "0", "name": "Cycle World", "service:bicycle:pump": "yes", "service:bicycle:repair": "yes", "service:bicycle:retail": "yes", "shop": "bicycle", "source": "survey"}}, {"type": "node", "id": 12247876743, "lat": 12.7769521, "lon": 77.7758783, "tags": {"addr:floor": "1", "check_date": "2024-10-13", "level": "1", "name": "Cycle World", "service:bicycle:pump": "yes", "service:bicycle:repair": "yes", "service:bicycle:retail": "yes", "shop": "bicycle"}}, {"type": "node", "id": 12248633340, "lat": 12.6861035, "lon": 77.8810009, "tags": {"shop": "convenience"}}, {"type": "node", "id": 12270691038, "lat": 12.7120651, "lon": 77.8914363, "tags": {"brand": "Honda", "brand:wikidata": "Q9584", "check_date": "2024-10-20", "name": "Grand Honda", "shop": "car"}}, {"type": "node", "id": 12270691040, "lat": 12.7483911, "lon": 77.8074483, "tags": {"brand": "Reliance Digital", "brand:wikidata": "Q7311012", "check_date": "2024-10-20", "name": "Reliance Digital", "payment:cash": "yes", "payment:credit_cards": "yes", "payment:debit_cards": "yes", "shop": "electronics"}}, {"type": "node", "id": 12270691041, "lat": 12.7469023, "lon": 77.809528, "tags": {"brand": "DMart", "brand:wikidata": "Q5203271", "check_date": "2024-10-20", "name": "DMart", "payment:cash": "yes", "payment:credit_cards": "yes", "payment:debit_cards": "yes", "shop": "supermarket"}}, {"type": "node", "id": 12270691045, "lat": 12.7261893, "lon": 77.8510425, "tags": {"brand": "TVS", "brand:wikidata": "Q3300084", "check_date": "2024-10-20", "name": "VS TVS", "shop": "motorcycle"}}, {"type": "node", "id": 12270691050, "lat": 12.7299783, "lon": 77.8403988, "tags": {"brand": "Suzuki", "brand:wikidata": "Q181642", "check_date": "2024-10-20", "name": "Durga Bhavani Suzuki", "shop": "motorcycle"}}, {"type": "node", "id": 12270691058, "lat": 12.7261669, "lon": 77.8517583, "tags": {"brand": "Hyundai", "brand:wikidata": "Q55931", "check_date": "2024-10-20", "name": "Himavasini Hyundai", "shop": "car"}}, {"type": "node", "id": 12270710428, "lat": 12.6706321, "lon": 77.9807199, "tags": {"brand": "DMart", "brand:wikidata": "Q5203271", "check_date": "2024-10-20", "name": "DMart", "payment:cash": "yes", "payment:credit_cards": "yes", "payment:debit_cards": "yes", "shop": "supermarket"}}, {"type": "node", "id": 12270710432, "lat": 12.6639716, "lon": 78.0056964, "tags": {"brand": "TVS", "brand:wikidata": "Q3300084", "check_date": "2024-10-20", "name": "Sree Velan TVS", "shop": "motorcycle"}}, {"type": "node", "id": 12273622210, "lat": 12.8609409, "lon": 77.7781388}, {"type": "node", "id": 12273622211, "lat": 12.8609016, "lon": 77.7784942}, {"type": "node", "id": 12273622212, "lat": 12.8609475, "lon": 77.7780733}, {"type": "node", "id": 12273622213, "lat": 12.8609533, "lon": 77.7780155}, {"type": "node", "id": 12273622214, "lat": 12.8615842, "lon": 77.7780824}, {"type": "node", "id": 12273622215, "lat": 12.8614889, "lon": 77.7786446}, {"type": "node", "id": 12273622216, "lat": 12.860892, "lon": 77.7786011}, {"type": "node", "id": 12273622217, "lat": 12.8614693, "lon": 77.7786431}, {"type": "node", "id": 12273622224, "lat": 12.8610723, "lon": 77.7786151}, {"type": "node", "id": 12381315393, "lat": 12.5534822, "lon": 77.9974025, "tags": {"brand": "Ration Shop", "brand:wikidata": "Q60901", "check_date": "2024-11-28", "name": "Ration Shop", "operator": "Public Distribution System", "operator:type": "public", "operator:wikidata": "Q60901", "shop": "convenience"}}, {"type": "node", "id": 12450767321, "lat": 12.5313174, "lon": 77.7901119, "tags": {"brand": "OLA Electric", "check_date": "2024-12-25", "name": "OLA Electric Store - Electric Scooter Showroom in Denkanikottai", "shop": "motorcycle"}}, {"type": "node", "id": 12511801627, "lat": 12.5265057, "lon": 78.0289799, "tags": {"brand": "Ration Shop", "brand:wikidata": "Q60901", "check_date": "2025-01-18", "name": "R.Kootur Ration Shop", "operator": "Public Distribution System", "operator:type": "public", "operator:wikidata": "Q60901", "shop": "convenience"}}, {"type": "node", "id": 12536338711, "lat": 12.7999051, "lon": 77.7138301, "tags": {"brand": "Shell", "brand:wikidata": "Q110716465", "check_date": "2025-01-27", "name": "Shell", "payment:cash": "yes", "payment:credit_cards": "yes", "payment:debit_cards": "yes", "shop": "convenience", "source": "survey"}}, {"type": "node", "id": 12555497134, "lat": 12.874475, "lon": 77.76161}, {"type": "node", "id": 12555497135, "lat": 12.8744828, "lon": 77.7614893}, {"type": "node", "id": 12555497136, "lat": 12.8746925, "lon": 77.7614697}, {"type": "node", "id": 12555497137, "lat": 12.8747289, "lon": 77.7614373}, {"type": "node", "id": 12555497138, "lat": 12.8748164, "lon": 77.7613872}, {"type": "node", "id": 12555497139, "lat": 12.8748664, "lon": 77.7613714}, {"type": "node", "id": 12555497140, "lat": 12.8746606, "lon": 77.7615067}, {"type": "node", "id": 12555497141, "lat": 12.8747691, "lon": 77.7614102}, {"type": "node", "id": 12555497142, "lat": 12.8749182, "lon": 77.7613632}, {"type": "node", "id": 12555497143, "lat": 12.8749273, "lon": 77.7612519}, {"type": "node", "id": 12555497144, "lat": 12.8743429, "lon": 77.7613337}, {"type": "node", "id": 12555497145, "lat": 12.8743442, "lon": 77.7615952}, {"type": "node", "id": 12564723002, "lat": 12.7093089, "lon": 77.8983611, "tags": {"brand": "MG", "brand:wikidata": "Q1881443", "check_date": "2025-02-07", "name": "MG", "shop": "car", "source": "survey"}}, {"type": "node", "id": 12564723003, "lat": 12.7168851, "lon": 77.8772608, "tags": {"brand": "Renault", "brand:wikidata": "Q6686", "check_date": "2025-02-07", "name": "Renault", "shop": "car", "source": "survey"}}, {"type": "node", "id": 12609556176, "lat": 12.8614606, "lon": 77.7870908, "tags": {"check_date": "2025-02-22", "name": "Solemates", "shop": "shoes"}}, {"type": "node", "id": 12609556177, "lat": 12.861471, "lon": 77.7869435, "tags": {"check_date": "2025-02-22", "name": "Durga Jewelers", "shop": "jewelry"}}, {"type": "node", "id": 12609556181, "lat": 12.8613065, "lon": 77.7765232, "tags": {"check_date": "2025-08-27", "name": "Advaith Hundai", "shop": "car", "wheelchair": "yes"}}, {"type": "node", "id": 12612593371, "lat": 12.8602625, "lon": 77.7922643, "tags": {"check_date": "2025-02-22", "name": "Farmo'frnd", "shop": "greengrocer"}}, {"type": "node", "id": 12693130238, "lat": 12.788621, "lon": 77.7370827, "tags": {"brand": "Shell", "brand:wikidata": "Q110716465", "check_date": "2025-03-11", "name": "Shell", "shop": "convenience"}}, {"type": "node", "id": 12706314911, "lat": 12.8068887, "lon": 77.6982821, "tags": {"check_date": "2025-03-28", "hairdresser": "barber", "shop": "hairdresser"}}, {"type": "node", "id": 12706314913, "lat": 12.80699, "lon": 77.6982012, "tags": {"check_date": "2025-03-28", "shop": "optician"}}, {"type": "node", "id": 12706314914, "lat": 12.8055601, "lon": 77.6991413, "tags": {"check_date": "2025-03-28", "name": "Sangeetha", "shop": "electronics"}}, {"type": "node", "id": 12739862392, "lat": 12.8609446, "lon": 77.7781025}, {"type": "node", "id": 12739871306, "lat": 12.8608946, "lon": 77.7785667}, {"type": "node", "id": 12740975404, "lat": 12.8624808, "lon": 77.7714309, "tags": {"check_date": "2025-04-09", "name": "Spin Cycles", "shop": "laundry"}}, {"type": "node", "id": 12748189925, "lat": 12.8607038, "lon": 77.7763751}, {"type": "node", "id": 12748189927, "lat": 12.860865, "lon": 77.7763164}, {"type": "node", "id": 12748189930, "lat": 12.8608449, "lon": 77.7764077}, {"type": "node", "id": 12748189932, "lat": 12.8607239, "lon": 77.7762837}, {"type": "node", "id": 12748386416, "lat": 12.8604517, "lon": 77.7771173, "tags": {"check_date": "2025-08-27", "name": "Trends", "shop": "clothes"}}, {"type": "node", "id": 12748386417, "lat": 12.8604459, "lon": 77.7772009, "tags": {"check_date": "2025-08-27", "name": "Jockey", "shop": "clothes"}}, {"type": "node", "id": 12749214608, "lat": 12.8612484, "lon": 77.7772568}, {"type": "node", "id": 12749292290, "lat": 12.8610486, "lon": 77.782939, "tags": {"check_date": "2025-04-12", "name": "CH Bike Point", "shop": "motorcycle_repair"}}, {"type": "node", "id": 12749292291, "lat": 12.8610676, "lon": 77.7831549, "tags": {"check_date": "2025-04-12", "name": "Zoya Seat Covers", "shop": "motorcycle_parts"}}, {"type": "node", "id": 12752161252, "lat": 12.8750937, "lon": 77.7661731, "tags": {"brand": "Puma", "brand:wikidata": "Q157064", "check_date": "2025-04-12", "name": "Puma", "shop": "clothes", "wheelchair": "limited"}}, {"type": "node", "id": 12752608034, "lat": 12.8328602, "lon": 77.8731733, "tags": {"name": "Mayura Bakery", "shop": "bakery"}}, {"type": "node", "id": 12753742727, "lat": 12.8234507, "lon": 77.8632347}, {"type": "node", "id": 12753742728, "lat": 12.8234295, "lon": 77.8633711}, {"type": "node", "id": 12753742729, "lat": 12.8236037, "lon": 77.8634013}, {"type": "node", "id": 12753742730, "lat": 12.8236284, "lon": 77.8632576}, {"type": "node", "id": 12754710663, "lat": 12.7886415, "lon": 77.8550071, "tags": {"shop": "hairdresser"}}, {"type": "node", "id": 12754710664, "lat": 12.7886213, "lon": 77.855049, "tags": {"shop": "tailor"}}, {"type": "node", "id": 12756471392, "lat": 12.7857618, "lon": 77.8574297}, {"type": "node", "id": 12756471395, "lat": 12.7857857, "lon": 77.8573682}, {"type": "node", "id": 12756471396, "lat": 12.7858102, "lon": 77.8573764}, {"type": "node", "id": 12756471397, "lat": 12.7857886, "lon": 77.8574364}, {"type": "node", "id": 12756548202, "lat": 12.7861162, "lon": 77.8567366}, {"type": "node", "id": 12756548203, "lat": 12.7861149, "lon": 77.856832}, {"type": "node", "id": 12756548204, "lat": 12.786008, "lon": 77.856823}, {"type": "node", "id": 12756548205, "lat": 12.7860168, "lon": 77.8567327}, {"type": "node", "id": 12757211330, "lat": 12.7878113, "lon": 77.855822, "tags": {"shop": "kiosk"}}, {"type": "node", "id": 12839699522, "lat": 12.8617386, "lon": 77.787446, "tags": {"check_date": "2025-05-15", "name": "Kushal Silk And Showroom", "shop": "clothes"}}, {"type": "node", "id": 12839699523, "lat": 12.8615476, "lon": 77.7857178, "tags": {"check_date": "2025-05-15", "name": "Orange Bake", "shop": "bakery"}}, {"type": "node", "id": 12839699526, "lat": 12.8614227, "lon": 77.7752987, "tags": {"check_date": "2025-05-15", "shop": "garden_centre", "wheelchair": "yes"}}, {"type": "node", "id": 12839699528, "lat": 12.8623995, "lon": 77.7721038, "tags": {"check_date": "2025-05-15", "name": "Palace Bakery", "shop": "bakery"}}, {"type": "node", "id": 12839728351, "lat": 12.8751078, "lon": 77.76657, "tags": {"brand": "Kanti Sweets", "brand:wikidata": "Q124374180", "check_date": "2025-05-15", "name": "Kanti Sweets", "shop": "confectionery", "wheelchair": "limited"}}, {"type": "node", "id": 12839728352, "lat": 12.8751156, "lon": 77.7664891, "tags": {"brand": "Lenskart", "brand:wikidata": "Q17068753", "check_date": "2025-05-15", "name": "Lenskart", "shop": "optician", "wheelchair": "limited"}}, {"type": "node", "id": 12839728353, "lat": 12.87516, "lon": 77.7664858, "tags": {"check_date": "2025-05-15", "name": "You Spark", "shop": "hairdresser"}}, {"type": "node", "id": 12839728354, "lat": 12.8751259, "lon": 77.7663439, "tags": {"check_date": "2025-05-15", "name": "Sufyan", "shop": "nuts"}}, {"type": "node", "id": 12839738027, "lat": 12.8761382, "lon": 77.765215, "tags": {"check_date": "2025-05-15", "shop": "car_repair"}}, {"type": "node", "id": 12839738028, "lat": 12.8750577, "lon": 77.7667131, "tags": {"check_date": "2025-05-15", "name": "True Cakes", "shop": "pastry", "wheelchair": "limited"}}, {"type": "node", "id": 12839749630, "lat": 12.8747418, "lon": 77.7662909, "tags": {"check_date": "2025-05-15", "name": "Well Furnishings", "shop": "furniture"}}, {"type": "node", "id": 12839764747, "lat": 12.8751176, "lon": 77.7662977, "tags": {"check_date": "2025-05-15", "name": "Proudome", "shop": "electronics", "wheelchair": "limited"}}, {"type": "node", "id": 12977371124, "lat": 12.8072718, "lon": 77.6988778, "tags": {"check_date": "2025-07-04", "name": "Kallada Tours & Travels", "shop": "travel_agency"}}, {"type": "node", "id": 12977371125, "lat": 12.8147317, "lon": 77.6932616, "tags": {"brand": "Tata", "brand:wikidata": "Q188514", "check_date": "2025-07-04", "name": "Tata", "shop": "car"}}, {"type": "node", "id": 12977371127, "lat": 12.8196188, "lon": 77.6891705, "tags": {"brand": "Hyundai", "brand:wikidata": "Q55931", "check_date": "2025-07-04", "name": "Pavan Hyundai", "shop": "car"}}, {"type": "node", "id": 12977371128, "lat": 12.827566, "lon": 77.6826438, "tags": {"check_date": "2025-07-04", "name": "Sri Vinayaka Wines", "shop": "alcohol"}}, {"type": "node", "id": 12977386644, "lat": 12.7359897, "lon": 77.8279726, "tags": {"check_date": "2025-07-04", "name": "Jewel One", "shop": "jewelry"}}, {"type": "node", "id": 12977386645, "lat": 12.7356609, "lon": 77.8293835, "tags": {"check_date": "2025-07-04", "name": "AVR Swarna Mahal", "shop": "jewelry"}}, {"type": "node", "id": 12977386647, "lat": 12.7291847, "lon": 77.8428564, "tags": {"brand": "Hero", "brand:wikidata": "Q1613763", "check_date": "2025-07-04", "name": "Hero", "shop": "motorcycle"}}, {"type": "node", "id": 12977422502, "lat": 12.7194936, "lon": 77.8716832, "tags": {"check_date": "2025-07-04", "name": "True Value", "second_hand": "only", "shop": "car"}}, {"type": "node", "id": 12977426778, "lat": 12.7121122, "lon": 77.8921974, "tags": {"check_date": "2025-07-04", "shop": "car_repair"}}, {"type": "node", "id": 13059749459, "lat": 12.717435, "lon": 77.8746104, "tags": {"brand": "Kia", "brand:wikidata": "Q35349", "check_date": "2025-08-09", "name": "Kia", "shop": "car"}}, {"type": "node", "id": 13059749465, "lat": 12.7264754, "lon": 77.8496916, "tags": {"brand": "KTM", "brand:wikidata": "Q215657", "check_date": "2025-08-09", "name": "KTM", "shop": "motorcycle"}}, {"type": "node", "id": 13059749466, "lat": 12.7270611, "lon": 77.8474545, "tags": {"brand": "Bajaj", "brand:wikidata": "Q10910065", "check_date": "2025-08-09", "name": "Bajaj", "shop": "motorcycle"}}, {"type": "node", "id": 13097016988, "lat": 12.7646101, "lon": 77.7921412, "tags": {"check_date": "2025-08-26", "name": "M.R. Tyres", "shop": "tyres"}}, {"type": "node", "id": 13097016991, "lat": 12.7525834, "lon": 77.8039567, "tags": {"check_date": "2025-08-26", "name": "Southern Flora", "shop": "florist"}}, {"type": "node", "id": 13097018816, "lat": 12.7371394, "lon": 77.8244233, "tags": {"air_conditioning": "yes", "brand": "Malabar Gold and Diamonds", "brand:wikidata": "Q60748883", "check_date": "2025-08-26", "name": "Malabar Gold and Diamonds", "payment:cash": "yes", "payment:credit_cards": "yes", "payment:debit_cards": "yes", "shop": "jewelry"}}, {"type": "node", "id": 13142919903, "lat": 12.6934736, "lon": 78.0634195, "tags": {"name": "Sanctity Ferme", "shop": "garden_centre"}}, {"type": "node", "id": 13188231115, "lat": 12.8608353, "lon": 77.7325879, "tags": {"check_date": "2025-10-02", "name": "S V Mart", "shop": "supermarket"}}, {"type": "node", "id": 13188231116, "lat": 12.8609845, "lon": 77.7326389, "tags": {"check_date": "2025-10-02", "name": "Bake Paradise", "shop": "bakery"}}, {"type": "node", "id": 13188236357, "lat": 12.8233778, "lon": 77.7195058, "tags": {"check_date": "2025-10-02", "name": "R B Stores", "shop": "supermarket"}}, {"type": "node", "id": 13242475656, "lat": 12.8598296, "lon": 77.7930797, "tags": {"brand": "Kanti Sweets", "brand:wikidata": "Q124374180", "check_date": "2025-10-19", "name": "Kanti Sweets", "shop": "confectionery"}}, {"type": "way", "id": 235446659, "nodes": [2435043649, 2435043650, 9979581805, 2435043651, 2435043649], "tags": {"brand": "DMart", "brand:wikidata": "Q5203271", "building": "retail", "check_date": "2025-05-31", "name": "DMart", "payment:cash": "yes", "payment:credit_cards": "yes", "payment:debit_cards": "yes", "shop": "supermarket", "source": "survey", "wheelchair": "yes"}}, {"type": "way", "id": 692118414, "nodes": [6496692949, 6496692950, 6496692951, 12749214608, 6496692952, 6496692949], "tags": {"building": "retail", "building:levels": "1", "check_date": "2025-08-27", "name": "Festo", "roof:levels": "0", "roof:shape": "flat", "shop": "supermarket", "wheelchair": "yes"}}, {"type": "way", "id": 751014790, "nodes": [7021356919, 7021356920, 7021356921, 9818979257, 9818979258, 7021356919], "tags": {"building": "yes", "indoor_seating": "no", "outdoor_seating": "no", "shop": "bakery", "takeaway": "only"}}, {"type": "way", "id": 1069820639, "nodes": [9818979259, 9818979260, 9818979261, 9818979262, 9818979259], "tags": {"addr:street": "Sarjapura Road", "building": "retail", "building:levels": "1", "building:material": "concrete", "building:material:concrete": "panels", "name": "IBO Wholesale", "roof:levels": "1", "roof:shape": "flat", "shop": "wholesale", "wheelchair": "yes"}}, {"type": "way", "id": 1069820646, "nodes": [9818979327, 9818979328, 9818979329, 9818979330, 9818979327], "tags": {"building": "yes", "name": "Pratham Motors", "operator": "Maruti Suzuki", "shop": "car_repair", "wheelchair": "limited"}}, {"type": "way", "id": 1085061921, "nodes": [9942353724, 9942353723, 9942353722, 9942353721, 9942353720, 9942353719, 9942353718, 9942353717, 9942353724], "tags": {"amenity": "marketplace", "shop": "farm"}}, {"type": "way", "id": 1118865775, "nodes": [10232765006, 10232765007, 10232765008, 10232765009, 10232765006], "tags": {"addr:city": "Andapura", "addr:district": "Bengaluru", "addr:postcode": "560099", "addr:street": "Hilalige Road", "building": "yes", "name": "MBT Hypermart", "name:ta": "MBT \u0bb9\u0bc8\u0baa\u0bcd\u0baa\u0bb0\u0bcd\u0bae\u0bbe\u0bb0\u0bcd\u0b9f\u0bcd", "phone": "+916366683696", "shop": "supermarket"}}, {"type": "way", "id": 1198861031, "nodes": [11121183852, 11121183853, 11121183854, 11121183855, 11121183852], "tags": {"building": "yes", "shop": "yes"}}, {"type": "way", "id": 1356571064, "nodes": [12555497145, 12555497144, 12555497143, 12555497142, 12555497139, 12555497138, 12555497141, 12555497137, 12555497136, 12555497140, 12555497135, 12555497134, 12555497145], "tags": {"building": "retail", "name": "Confident Square Mall", "shop": "mall"}}, {"type": "way", "id": 1375952028, "nodes": [12273622214, 12273622213, 12273622212, 12739862392, 12273622210, 12273622211, 12739871306, 12273622216, 12273622224, 12273622217, 12273622215, 12273622214], "tags": {"brand": "DMart", "check_date": "2025-08-27", "name": "DMart", "name:kn": "\u0ca1\u0cbf \u0cae\u0cbe\u0cb0\u0ccd\u0c9f\u0ccd", "shop": "supermarket", "wheelchair": "yes"}}, {"type": "way", "id": 1376772481, "nodes": [12748189927, 12748189932, 12748189925, 12748189930, 12748189927], "tags": {"building": "yes", "check_date": "2025-02-22", "shop": "garden_centre"}}, {"type": "way", "id": 1377382981, "nodes": [12753742727, 12753742728, 12753742729, 12753742730, 12753742727], "tags": {"brand": "TVS", "brand:wikidata": "Q3300084", "building": "yes", "name": "Prime TVS", "payment:cash": "yes", "payment:debit_cards": "yes", "payment:upi": "yes", "shop": "motorcycle"}}, {"type": "way", "id": 1377686518, "nodes": [12756471395, 12756471396, 12756471397, 12756471392, 12756471395], "tags": {"building": "yes", "shop": "convenience"}}, {"type": "way", "id": 1377686520, "nodes": [12756548202, 12756548203, 12756548204, 12756548205, 12756548202], "tags": {"building": "yes", "shop": "convenience"}}]}