{"version": 0.6, "generator": "Overpass API 0.7.62.8 e802775f", "osm3s": {"timestamp_osm_base": "2025-11-29T17:20:02Z", "copyright": "The data included in this document is from www.openstreetmap.org. The data is made available under ODbL."}, "elements": [{"type": "node", "id": 4510129140, "lat": 19.1808196, "lon": 83.4142618, "tags": {"amenity": "bank", "atm": "yes", "brand:wikidata": "Q2003387", "brand:wikipedia": "en:Corporation Bank", "name": "Corporation Bank", "name:en": "Corporation Bank", "website": "https://corpbank.com/"}}, {"type": "node", "id": 8113848439, "lat": 18.7697393, "lon": 83.42181, "tags": {"amenity": "bank", "brand": "Andhra Bank", "brand:wikidata": "Q2003476", "brand:wikipedia": "en:Andhra Bank", "name": "Andhra Bank"}}, {"type": "node", "id": 8113921531, "lat": 18.774219, "lon": 83.4241453, "tags": {"amenity": "bank", "brand": "Punjab National Bank", "brand:wikidata": "Q2743499", "brand:wikipedia": "en:Punjab National Bank", "name": "Punjab National Bank"}}, {"type": "node", "id": 8120828205, "lat": 18.7779414, "lon": 83.4257689, "tags": {"amenity": "bank", "name": "Vishaka Co-operative bank"}}, {"type": "node", "id": 8120831018, "lat": 18.7773063, "lon": 83.4253898, "tags": {"amenity": "bank", "brand": "Central Bank of India", "brand:wikidata": "Q2007090", "brand:wikipedia": "en:Central Bank of India", "name": "Central Bank of India"}}]}