{"version": 0.6, "generator": "Overpass API 0.7.62.8 e802775f", "osm3s": {"timestamp_osm_base": "2025-11-29T17:01:35Z", "copyright": "The data included in this document is from www.openstreetmap.org. The data is made available under ODbL."}, "elements": [{"type": "node", "id": 3546920847, "lat": 27.8249082, "lon": 95.2259427, "tags": {"addr:city": "Jonai", "addr:postcode": "787060", "addr:street": "Gandhi Road", "amenity": "bank", "atm": "yes", "brand:wikidata": "Q1340361", "brand:wikipedia": "en:State Bank of India", "drive_through": "no", "name": "State Bank of India", "operator": "State Bank of India", "short_name": "SBI"}}, {"type": "node", "id": 3547012051, "lat": 27.7452409, "lon": 95.0783656, "tags": {"addr:city": "Laimekuri", "addr:postcode": "787060", "addr:street": "NH515", "amenity": "bank", "atm": "yes", "brand:wikidata": "Q2018840", "brand:wikipedia": "en:Allahabad Bank", "name": "Allahabad Bank", "name:en": "Allahabad Bank", "name:kn": "\u0c85\u0cb2\u0ccd\u0cb2\u0cb9\u0cbe\u0cac\u0cbe\u0ca6\u0ccd \u0cac\u0ccd\u0caf\u0cbe\u0c82\u0c95\u0ccd", "website": "https://www.allahabadbank.in"}}, {"type": "node", "id": 3777889057, "lat": 27.4888737, "lon": 95.3637167, "tags": {"addr:postcode": "786125", "addr:street": "A.T. Road", "amenity": "bank", "brand": "State Bank of India", "brand:wikidata": "Q1340361", "brand:wikipedia": "en:State Bank of India", "name": "State Bank of India", "short_name": "SBI", "website": "https://www.sbi.co.in"}}, {"type": "node", "id": 3779454317, "lat": 27.4908512, "lon": 95.3638102, "tags": {"addr:city": "Tinsukia", "addr:postcode": "786125", "amenity": "bank", "brand": "Axis Bank", "brand:wikidata": "Q2003549", "brand:wikipedia": "en:Axis Bank", "name": "Axis Bank", "name:en": "Axis Bank", "website": "https://www.axisbank.com"}}, {"type": "node", "id": 3780952285, "lat": 27.4889687, "lon": 95.3644262, "tags": {"amenity": "bank", "brand": "HDFC Bank", "brand:wikidata": "Q631047", "brand:wikipedia": "en:HDFC Bank", "name": "HDFC Bank", "short_name": "HDFC", "website": "https://www.hdfcbank.com"}}, {"type": "node", "id": 13195608468, "lat": 27.4917786, "lon": 95.3508702, "tags": {"amenity": "bank", "check_date": "2025-10-05", "name": "Apex Bank"}}]}