{"version": 0.6, "generator": "Overpass API 0.7.62.8 e802775f", "osm3s": {"timestamp_osm_base": "2025-11-29T17:17:56Z", "copyright": "The data included in this document is from www.openstreetmap.org. The data is made available under ODbL."}, "elements": [{"type": "node", "id": 2469559583, "lat": 12.6728865, "lon": 75.6101123}, {"type": "node", "id": 2469559584, "lat": 12.6730854, "lon": 75.610933}, {"type": "node", "id": 2469559585, "lat": 12.6736428, "lon": 75.610131}, {"type": "node", "id": 2469559586, "lat": 12.6738679, "lon": 75.6109893}, {"type": "node", "id": 2977938660, "lat": 12.594729, "lon": 75.4415498, "tags": {"addr:housename": "GUPS Doddathota", "addr:postcode": "574248", "addr:street": "SH-85 Doddathota", "amenity": "school", "name": "GUPS Doddathota", "source": "http://www.schooleducation.kar.nic.in/SchoolSearch/SchSearchDisplay.asp"}}, {"type": "way", "id": 239145751, "nodes": [2469559583, 2469559584, 2469559586, 2469559585, 2469559583], "tags": {"amenity": "school", "name": "Kumaraswamy School", "name:kn": "\u0c95\u0cc1\u0cae\u0cbe\u0cb0\u0cb8\u0ccd\u0cb5\u0cbe\u0cae\u0cbf \u0cb6\u0cbe\u0cb2\u0cc6"}}]}