{"version": 0.6, "generator": "Overpass API 0.7.62.8 e802775f", "osm3s": {"timestamp_osm_base": "2025-11-29T17:14:56Z", "copyright": "The data included in this document is from www.openstreetmap.org. The data is made available under ODbL."}, "elements": [{"type": "node", "id": 4294147620, "lat": 13.611138, "lon": 77.513142, "tags": {"amenity": "school", "name": "Acharya High School", "name:kn": "\u0c86\u0c9a\u0cbe\u0cb0\u0ccd\u0caf \u0caa\u0ccd\u0cb0\u0ccc\u0ca1\u0cb6\u0cbe\u0cb2\u0cc6"}}, {"type": "node", "id": 4320645889, "lat": 13.5750732, "lon": 77.4661016, "tags": {"amenity": "school", "name": "Kachemachenalli School"}}, {"type": "node", "id": 5933597530, "lat": 13.6099591, "lon": 77.5076157}, {"type": "node", "id": 5933597531, "lat": 13.6100579, "lon": 77.5076279}, {"type": "node", "id": 5933597532, "lat": 13.6100204, "lon": 77.5078413}, {"type": "node", "id": 5933597533, "lat": 13.6099216, "lon": 77.5078128}, {"type": "node", "id": 8917315486, "lat": 13.6487905, "lon": 77.5615047, "tags": {"amenity": "school"}}, {"type": "node", "id": 9570255490, "lat": 13.5783255, "lon": 77.4456847, "tags": {"amenity": "school", "name": "Sarakari Hiriya Prarthamika Shale"}}, {"type": "way", "id": 628509574, "nodes": [5933597530, 5933597531, 5933597532, 5933597533, 5933597530], "tags": {"amenity": "school", "name": "St. John's School", "name:kn": "\u0cb8\u0cc7\u0c82\u0c9f\u0ccd \u0c9c\u0ccb\u0cb8\u0cc6\u0cab\u0ccd \u0cb6\u0cbe\u0cb2\u0cc6"}}]}