{"version": 0.6, "generator": "Overpass API 0.7.62.8 e802775f", "osm3s": {"timestamp_osm_base": "2025-11-29T17:04:44Z", "copyright": "The data included in this document is from www.openstreetmap.org. The data is made available under ODbL."}, "elements": [{"type": "node", "id": 9213384852, "lat": 27.4801072, "lon": 94.9042612, "tags": {"amenity": "bank", "atm": "yes", "name": "Bank Of India"}}, {"type": "node", "id": 9214228436, "lat": 27.4829458, "lon": 94.9037235, "tags": {"amenity": "bank", "atm": "yes", "name": "ICC Bank"}}, {"type": "node", "id": 9214231564, "lat": 27.4810949, "lon": 94.906704, "tags": {"amenity": "bank", "atm": "yes", "name": "Yes Bank"}}, {"type": "node", "id": 9214231565, "lat": 27.4810091, "lon": 94.9067997, "tags": {"amenity": "bank", "atm": "yes", "name": "Vijaya Bank"}}, {"type": "node", "id": 9587489212, "lat": 27.5877859, "lon": 94.7257653, "tags": {"amenity": "bank", "atm": "yes", "name": "IDBI Bank"}}, {"type": "node", "id": 9596976560, "lat": 27.5927159, "lon": 94.7236813, "tags": {"amenity": "bank", "atm": "yes", "name": "Punjab National Bank"}}]}