{"version": 0.6, "generator": "Overpass API 0.7.62.8 e802775f", "osm3s": {"timestamp_osm_base": "2025-11-29T17:28:15Z", "copyright": "The data included in this document is from www.openstreetmap.org. The data is made available under ODbL."}, "elements": [{"type": "node", "id": 4364446699, "lat": 17.3435987, "lon": 82.5076444}, {"type": "node", "id": 4364446700, "lat": 17.3433282, "lon": 82.5088398}, {"type": "node", "id": 4364446701, "lat": 17.3403284, "lon": 82.5098381}, {"type": "node", "id": 4364446702, "lat": 17.3398931, "lon": 82.5088029}, {"type": "node", "id": 4885223275, "lat": 17.0406545, "lon": 82.1996689, "tags": {"addr:city": "UNDURU", "addr:postcode": "533005", "amenity": "bank", "brand": "Canara Bank", "brand:pa": "\u0a15\u0a47\u0a28\u0a30\u0a3e \u0a2c\u0a48\u0a02\u0a15", "brand:ur": "\u06a9\u06cc\u0646\u0631\u0627 \u0628\u06cc\u0646\u06a9", "brand:wikidata": "Q2003777", "brand:wikipedia": "en:Canara Bank", "brand:wikipedia:pa": "\u0a15\u0a47\u0a28\u0a30\u0a3e \u0a2c\u0a48\u0a02\u0a15", "name": "Canara Bank", "name:pa": "\u0a15\u0a47\u0a28\u0a30\u0a3e \u0a2c\u0a48\u0a02\u0a15", "name:ur": "\u06a9\u06cc\u0646\u0631\u0627 \u0628\u06cc\u0646\u06a9", "website": "https://www.canarabank.com/"}}, {"type": "node", "id": 4885279300, "lat": 17.0419606, "lon": 82.1980283, "tags": {"addr:city": "UNDURU", "addr:postcode": "533005", "amenity": "bank", "brand:wikidata": "Q2003387", "brand:wikipedia": "en:Corporation Bank", "name": "Corporation Bank", "name:en": "Corporation Bank", "website": "https://corpbank.com/"}}, {"type": "node", "id": 5039500562, "lat": 17.3554593, "lon": 82.5352066, "tags": {"addr:city": "TUNI", "addr:postcode": "533401", "addr:street": "TUNI TOWN ROAD,TUNI,ANDHRA PRADESH", "amenity": "bank", "name": "LIC OFFICE", "website": "WWW.LICINDIA.IN"}}, {"type": "node", "id": 5040214773, "lat": 17.3580259, "lon": 82.5405041, "tags": {"amenity": "bank", "atm": "yes", "name": "ANDHRA BANK ATM", "operator": "ANDHRA BANK"}}, {"type": "node", "id": 5074029594, "lat": 17.3577103, "lon": 82.5472319}, {"type": "node", "id": 5074029595, "lat": 17.3577077, "lon": 82.5473419}, {"type": "node", "id": 5074029596, "lat": 17.3575106, "lon": 82.5473231}, {"type": "node", "id": 5074029597, "lat": 17.3575183, "lon": 82.5472185}, {"type": "node", "id": 5147953598, "lat": 17.145133, "lon": 82.1619423, "tags": {"addr:city": "Divili", "addr:postcode": "533433", "amenity": "bank", "name": "Syndicate Bank"}}, {"type": "node", "id": 6158057214, "lat": 17.3624546, "lon": 82.5556159, "tags": {"amenity": "bank", "atm": "yes", "brand": "State Bank of India", "brand:wikidata": "Q1340361", "brand:wikipedia": "en:State Bank of India", "drive_through": "no", "name": "State Bank of India", "wikidata": "Q65957045"}}, {"type": "node", "id": 12257200871, "lat": 17.4305323, "lon": 82.524249}, {"type": "node", "id": 12257200872, "lat": 17.4304691, "lon": 82.5243731}, {"type": "node", "id": 12257200873, "lat": 17.4303087, "lon": 82.5242986}, {"type": "node", "id": 12257200874, "lat": 17.4303639, "lon": 82.5241635}, {"type": "node", "id": 12317841488, "lat": 17.3519131, "lon": 82.5090134, "tags": {"amenity": "bank"}}, {"type": "node", "id": 12809607188, "lat": 17.0495889, "lon": 82.1682252, "tags": {"addr:city": "Samalkot", "addr:district": "Kakinada", "addr:postcode": "533440", "addr:street": "Mattam Center", "amenity": "bank", "atm": "yes", "branch": "Samalkot", "brand": "Union Bank of India", "brand:wikidata": "Q2004078", "currency:INR": "yes", "drive_through": "no", "name": "Union Bank of India", "operator": "Union Bank of India", "ref:ifsc": "UBIN0805025", "website": "https://www.unionbankofindia.co.in/en/home"}}, {"type": "way", "id": 438774985, "nodes": [4364446699, 4364446700, 4364446701, 4364446702, 4364446699], "tags": {"amenity": "bank", "building": "yes", "name": "private land"}}, {"type": "way", "id": 520629202, "nodes": [5074029594, 5074029595, 5074029596, 5074029597, 5074029594], "tags": {"addr:postcode": "533401", "addr:street": "MAIN ROAD", "amenity": "bank", "atm": "yes", "name": "Andhra Bank", "operator": "Bank"}}, {"type": "way", "id": 1324577384, "nodes": [12257200871, 12257200872, 12257200873, 12257200874, 12257200871], "tags": {"amenity": "bank", "brand": "Union Bank of India", "brand:wikidata": "Q2004078", "building": "yes", "name": "Union Bank of India"}}]}