{"version": 0.6, "generator": "Overpass API 0.7.62.8 e802775f", "osm3s": {"timestamp_osm_base": "2025-11-29T17:56:44Z", "copyright": "The data included in this document is from www.openstreetmap.org. The data is made available under ODbL."}, "elements": [{"type": "node", "id": 413369368, "lat": 12.9556119, "lon": 77.7205897, "tags": {"name": "New Frosties", "shop": "butcher"}}, {"type": "node", "id": 443646020, "lat": 13.0259551, "lon": 77.6409139}, {"type": "node", "id": 443646021, "lat": 13.0261344, "lon": 77.6409243}, {"type": "node", "id": 443646023, "lat": 13.0261251, "lon": 77.6410951}, {"type": "node", "id": 443646024, "lat": 13.0259458, "lon": 77.6410846}, {"type": "node", "id": 486969025, "lat": 12.9701849, "lon": 77.6438014, "tags": {"addr:street": "12th Main Road", "name": "Mothercare", "shop": "motherhood"}}, {"type": "node", "id": 513394998, "lat": 12.9528644, "lon": 77.6994421, "tags": {"addr:city": "Marathahalli, Bangalore", "addr:street": "Outer Ring Road", "name": "Danube Home", "shop": "furniture"}}, {"type": "node", "id": 514177984, "lat": 12.9657504, "lon": 77.7181318}, {"type": "node", "id": 514177987, "lat": 12.9661585, "lon": 77.7180245}, {"type": "node", "id": 514177997, "lat": 12.9665185, "lon": 77.7177652}, {"type": "node", "id": 514178009, "lat": 12.9658243, "lon": 77.7177487}, {"type": "node", "id": 518616440, "lat": 12.9610755, "lon": 77.71672, "tags": {"addr:street": "ITPL Main Road", "beauty": "hair;spa", "brand": "Naturals", "brand:wikidata": "Q125728261", "name": "Naturals", "shop": "beauty"}}, {"type": "node", "id": 518616443, "lat": 12.9601296, "lon": 77.7160629, "tags": {"addr:street": "ITPL Main Road", "fixme": "Place no longer exists", "name": "Reliance Fresh", "name:kn": "\u0cb0\u0cbf\u0cb2\u0cbe\u0caf\u0ca8\u0ccd\u0cb8\u0ccd \u0cab\u0ccd\u0cb0\u0cc6\u0cb6\u0ccd", "shop": "convenience"}}, {"type": "node", "id": 518616448, "lat": 12.9598856, "lon": 77.7160093, "tags": {"addr:street": "ITPL Main Road", "brand": "Bata", "brand:wikidata": "Q688082", "name": "Bata", "name:kn": "\u0cac\u0cbe\u0c9f\u0cbe", "shop": "shoes"}}, {"type": "node", "id": 595305917, "lat": 13.0224257, "lon": 77.6508337, "tags": {"addr:street": "Horamavu Agara Main Road", "brand": "More", "brand:wikidata": "Q6910891", "name": "More", "shop": "supermarket"}}, {"type": "node", "id": 747667387, "lat": 12.9017761, "lon": 77.7068848}, {"type": "node", "id": 747667388, "lat": 12.9014135, "lon": 77.7076645}, {"type": "node", "id": 747667389, "lat": 12.9007066, "lon": 77.7075444}, {"type": "node", "id": 747667390, "lat": 12.9007192, "lon": 77.7069519}, {"type": "node", "id": 954308720, "lat": 12.9856478, "lon": 77.7183726, "tags": {"shop": "convenience"}}, {"type": "node", "id": 963291957, "lat": 12.9911799, "lon": 77.7176639, "tags": {"addr:postcode": "560048", "addr:street": "Seetharampalya Road", "name": "Krishna Bakery", "name:en": "Sri Krishna Daily Shop", "name:hi": "\u0936\u094d\u0930\u0940 \u0915\u0943\u0937\u094d\u0923\u093e \u0921\u0948\u0932\u0940 \u0937\u094b\u092a\u094d\u092a", "opening_hours": "Mo-Su 07:00-21:00", "shop": "bakery"}}, {"type": "node", "id": 964496319, "lat": 12.9920471, "lon": 77.7178948, "tags": {"addr:postcode": "560048", "addr:street": "Basava Nagar Main Road", "name": "Saipriya Bakery", "shop": "bakery"}}, {"type": "node", "id": 973472348, "lat": 12.9897446, "lon": 77.717972, "tags": {"addr:postcode": "560048", "name": "New Shanthi Bakery", "shop": "bakery"}}, {"type": "node", "id": 982611080, "lat": 12.9785539, "lon": 77.7097925}, {"type": "node", "id": 984085030, "lat": 12.9670037, "lon": 77.7169213, "tags": {"addr:street": "ITPL Main Road", "brand": "Tata", "brand:wikidata": "Q188514", "name": "TATA Motors", "service": "dealer;repair;parts;tyres", "shop": "car"}}, {"type": "node", "id": 986744078, "lat": 12.972735, "lon": 77.678774, "tags": {"addr:street": "GM Palya Main Road", "name": "Heritage Fresh", "shop": "convenience"}}, {"type": "node", "id": 988724809, "lat": 12.9918744, "lon": 77.7204067, "tags": {"addr:street": "ITPL Main Road", "name": "Furniture Palace", "shop": "furniture"}}, {"type": "node", "id": 989770965, "lat": 12.9652978, "lon": 77.7486636, "tags": {"check_date": "2025-05-24", "name": "Looking Good Furniture", "shop": "furniture"}}, {"type": "node", "id": 991443317, "lat": 12.9918202, "lon": 77.7158094, "tags": {"name": "Puncture Shop", "service": "repair;tyres", "shop": "car_repair"}}, {"type": "node", "id": 1001586416, "lat": 12.9643853, "lon": 77.7135826, "tags": {"address": "AECS Layout Main Rd, Sri Nivasa Reddy Layout, AECS Layout, Marathahalli, Bengaluru, Karnataka 560037", "name": "Ragam Supermarket", "opening_hours": "Mo-Su 08:30-22:30", "phone": "08028475211", "shop": "supermarket"}}, {"type": "node", "id": 1003719471, "lat": 12.9910857, "lon": 77.7212174, "tags": {"addr:street": "ITPL Main Road (Near Hotel Zuri)", "check_date": "2025-04-03", "name": "Inscape Designer Furniture", "shop": "furniture"}}, {"type": "node", "id": 1024500714, "lat": 12.9647425, "lon": 77.701796, "tags": {"addr:city": "Marathhalli, Bangalore", "addr:housenumber": "95/3", "addr:postcode": "560037", "addr:street": "Outer Ring Road", "email": "nayeemahmed@yahoo.com", "name": "Auto Sound", "phone": "+9-80-65838277", "service": "parts", "shop": "car"}}, {"type": "node", "id": 1040471278, "lat": 12.9928423, "lon": 77.7063603}, {"type": "node", "id": 1058729963, "lat": 12.9655927, "lon": 77.7018319, "tags": {"addr:city": "Doddanekundi, Bangalore", "addr:street": "Outer Ring Road", "check_date": "2024-10-20", "name": "Smart Point", "payment:cash": "yes", "payment:credit_cards": "yes", "payment:debit_cards": "yes", "shop": "supermarket"}}, {"type": "node", "id": 1076567658, "lat": 12.9851864, "lon": 77.6736268, "tags": {"addr:street": "Kaggadasspura Main Road", "name": "New City Super Market", "shop": "supermarket"}}, {"type": "node", "id": 1078161782, "lat": 12.9856566, "lon": 77.6730826, "tags": {"addr:street": "Kaggadasspura Main Road", "name": "Smart Cars", "shop": "car_repair"}}, {"type": "node", "id": 1078209943, "lat": 12.985926, "lon": 77.6688553, "tags": {"addr:street": "Kaggadasspura Main Road", "brand": "Reliance Fresh", "brand:wikidata": "Q7311014", "name": "Reliance Fresh", "name:kn": "\u0cb0\u0cbf\u0cb2\u0cbe\u0caf\u0ca8\u0ccd\u0cb8\u0ccd \u0cab\u0ccd\u0cb0\u0cc6\u0cb6\u0ccd", "shop": "supermarket"}}, {"type": "node", "id": 1078209946, "lat": 12.9859601, "lon": 77.6689329, "tags": {"addr:street": "Kaggadasspura Main Road", "brand": "Nilgiri's", "brand:wikidata": "Q17079567", "name": "Nilgiri's", "name:kn": "\u0ca8\u0cc0\u0cb2\u0ccd\u0c97\u0cbf\u0cb0\u0cc0\u0cb8\u0ccd", "shop": "supermarket"}}, {"type": "node", "id": 1078235338, "lat": 12.9851708, "lon": 77.6716822, "tags": {"addr:street": "Kaggadasspura Main Road", "name": "Cosmos", "shop": "convenience"}}, {"type": "node", "id": 1085578886, "lat": 12.9643051, "lon": 77.7147136, "tags": {"addr:full": "593, A E C S Layout, Kundalahalli, Banglore - 560066", "branch": "For You", "brand": "More", "brand:wikidata": "Q6910891", "name": "More", "phone": "(91)-80-41229818", "shop": "supermarket"}}, {"type": "node", "id": 1091242451, "lat": 12.9921909, "lon": 77.713452, "tags": {"brand": "TVS", "brand:wikidata": "Q3300084", "name": "TVS", "shop": "motorcycle"}}, {"type": "node", "id": 1093355132, "lat": 12.9799414, "lon": 77.7271148, "tags": {"name": "The Raymond Shop", "shop": "clothes"}}, {"type": "node", "id": 1094054658, "lat": 12.9914521, "lon": 77.7205954, "tags": {"addr:street": "Whitefield Road", "brand": "Bajaj", "brand:wikidata": "Q10910065", "name": "Bajaj Motorcycle Showroom", "shop": "motorcycle"}}, {"type": "node", "id": 1103158088, "lat": 13.0376809, "lon": 77.759175, "tags": {"name": "Safal Daily Fresh", "shop": "convenience"}}, {"type": "node", "id": 1132393266, "lat": 12.9916251, "lon": 77.7208125, "tags": {"name": "Red Apple Unisex Saloon", "shop": "hairdresser"}}, {"type": "node", "id": 1147232586, "lat": 12.9595349, "lon": 77.7481547, "tags": {"addr:floor": "G", "addr:street": "Forum Value Mall", "brand": "Adidas", "brand:wikidata": "Q3895", "brand:wikipedia": "en:Adidas", "check_date": "2023-06-30", "level": "0", "name": "Adidas", "payment:mastercard": "yes", "payment:visa": "yes", "shop": "sports", "source": "survey"}}, {"type": "node", "id": 1147232591, "lat": 12.9595457, "lon": 77.7476967, "tags": {"addr:floor": "1", "addr:street": "Forum Value Mall", "brand": "Metro", "brand:wikidata": "Q16938284", "check_date": "2023-06-30", "level": "1", "name": "Metro", "payment:mastercard": "yes", "payment:visa": "yes", "shop": "shoes", "source": "survey", "wheelchair": "yes"}}, {"type": "node", "id": 1147232593, "lat": 12.9600082, "lon": 77.7489516}, {"type": "node", "id": 1147232594, "lat": 12.9593998, "lon": 77.7482732, "tags": {"addr:street": "Forum Value Mall", "name": "Sisley Outlet Clothes", "shop": "clothes"}}, {"type": "node", "id": 1147232596, "lat": 12.9594702, "lon": 77.7476973, "tags": {"addr:street": "Forum Value Mall", "brand": "Reebok", "brand:wikidata": "Q466183", "name": "Reebok", "shop": "clothes"}}, {"type": "node", "id": 1147232605, "lat": 12.9594754, "lon": 77.7478958, "tags": {"addr:street": "Forum Value Mall", "check_date": "2025-06-25", "clothes": "women;men;children", "name": "Pantaloon", "payment:mastercard": "yes", "payment:visa": "yes", "shop": "clothes", "source": "survey", "wheelchair": "yes"}}, {"type": "node", "id": 1147232606, "lat": 12.9599378, "lon": 77.7478941, "tags": {"addr:street": "Forum Value Mall", "name": "Lee", "shop": "clothes"}}, {"type": "node", "id": 1147232612, "lat": 12.9592912, "lon": 77.7467358}, {"type": "node", "id": 1147232614, "lat": 12.9599834, "lon": 77.7480636, "tags": {"addr:street": "Forum Value Mall", "brand": "Sony Centre", "brand:wikidata": "Q3437496", "name": "Sony Centre", "shop": "electronics"}}, {"type": "node", "id": 1147232618, "lat": 12.9600244, "lon": 77.7481807}, {"type": "node", "id": 1147232621, "lat": 12.9599543, "lon": 77.7482882, "tags": {"addr:floor": "G", "addr:street": "Forum Value Mall", "check_date": "2023-06-30", "level": "0", "name": "Crossword", "payment:mastercard": "yes", "payment:visa": "yes", "second_hand": "no", "shop": "books", "source": "survey", "toilets": "no", "wheelchair": "yes"}}, {"type": "node", "id": 1147232622, "lat": 12.9592322, "lon": 77.7489568}, {"type": "node", "id": 1147232633, "lat": 12.9596189, "lon": 77.7480604, "tags": {"addr:street": "Forum Value Mall", "name": "Eye Sense", "shop": "jewelry"}}, {"type": "node", "id": 1147232639, "lat": 12.9595457, "lon": 77.747547, "tags": {"addr:street": "Forum Value Mall", "name": "Loot Mart", "shop": "clothes"}}, {"type": "node", "id": 1147232642, "lat": 12.9595311, "lon": 77.7480711, "tags": {"addr:street": "Forum Value Mall", "name": "Liberty Silks", "shop": "clothes"}}, {"type": "node", "id": 1147232643, "lat": 12.9599473, "lon": 77.7476376, "tags": {"addr:street": "Forum Value Mall", "name": "Diya", "shop": "jewelry"}}, {"type": "node", "id": 1147232646, "lat": 12.9595384, "lon": 77.7482657, "tags": {"addr:street": "Forum Value Mall", "name": "Espirit", "shop": "clothes"}}, {"type": "node", "id": 1147232653, "lat": 12.9594016, "lon": 77.7484054, "tags": {"addr:street": "Forum Value Mall", "brand": "Blackberrys", "brand:wikidata": "Q4922570", "name": "Blackberrys", "shop": "clothes"}}, {"type": "node", "id": 1147232654, "lat": 12.9595311, "lon": 77.7473898, "tags": {"addr:street": "Forum Value Mall", "name": "Affinity Salon", "shop": "hairdresser", "wheelchair": "yes"}}, {"type": "node", "id": 1147232664, "lat": 12.9595384, "lon": 77.7485203, "tags": {"addr:street": "Forum Value Mall", "name": "The Time Factory", "shop": "clothes"}}, {"type": "node", "id": 1147232669, "lat": 12.9599543, "lon": 77.7484903, "tags": {"addr:street": "Forum Value Mall", "name": "Sportxs", "shop": "gift"}}, {"type": "node", "id": 1147232681, "lat": 12.959465, "lon": 77.7474184, "tags": {"addr:street": "Forum Value Mall", "brand": "Calvin Klein", "brand:wikidata": "Q1068628", "name": "Calvin Klein", "name:kn": "\u0c95\u0cbe\u0cb2\u0ccd\u0cb5\u0cbf\u0ca8\u0ccd \u0c95\u0ccd\u0cb2\u0cc8\u0ca8\u0ccd", "shop": "clothes"}}, {"type": "node", "id": 1147232686, "lat": 12.9599907, "lon": 77.7477941, "tags": {"addr:street": "Forum Value Mall", "name": "Access 2 Future", "shop": "hifi"}}, {"type": "node", "id": 1147232687, "lat": 12.9594676, "lon": 77.7475497, "tags": {"addr:street": "Forum Value Mall", "brand": "Nike Factory Store", "brand:wikidata": "Q483915", "name": "Nike Factory Store", "shop": "clothes", "wheelchair": "yes"}}, {"type": "node", "id": 1147232688, "lat": 12.9595384, "lon": 77.7478764, "tags": {"addr:floor": "1", "addr:street": "Forum Value Mall", "brand": "Bata", "brand:wikidata": "Q688082", "check_date": "2023-06-30", "level": "1", "name": "Bata", "payment:mastercard": "yes", "payment:visa": "yes", "shoes": "children;women;men", "shop": "shoes", "source": "survey", "wheelchair": "yes"}}, {"type": "node", "id": 1147277937, "lat": 12.9594578, "lon": 77.747309, "tags": {"addr:street": "Forum Value Mall", "brand": "Pepe Jeans", "brand:wikidata": "Q426992", "name": "Pepe Jeans", "shop": "clothes", "wheelchair": "yes"}}, {"type": "node", "id": 1147277938, "lat": 12.9594131, "lon": 77.7483032, "tags": {"addr:floor": "G", "addr:street": "Forum Value Mall", "brand": "Puma", "brand:wikidata": "Q157064", "check_date": "2023-06-30", "level": "0", "name": "Puma", "payment:mastercard": "yes", "payment:visa": "yes", "shop": "clothes", "source": "survey"}}, {"type": "node", "id": 1147277940, "lat": 12.9599518, "lon": 77.7483908, "tags": {"addr:street": "Forum Value Mall", "name": "The Book Shelf", "shop": "books"}}, {"type": "node", "id": 1147277942, "lat": 12.9594081, "lon": 77.7483956, "tags": {"addr:street": "Forum Value Mall", "name": "Jute Cottage", "shop": "clothes"}}, {"type": "node", "id": 1147277944, "lat": 12.9593994, "lon": 77.748519, "tags": {"addr:street": "Forum Value Mall", "name": "Mega Mart", "shop": "clothes"}}, {"type": "node", "id": 1147277947, "lat": 12.9595419, "lon": 77.748401, "tags": {"addr:city": "Whitefield, Bangalore", "addr:housename": "Forum Value Mall", "addr:housenumber": "62", "addr:postcode": "560066", "name": "Rattrap", "phone": "+91-80-41521236", "shop": "clothes"}}, {"type": "node", "id": 1147277964, "lat": 12.9597243, "lon": 77.7474596, "tags": {"addr:street": "Forum Value Mall", "name": "Favourite Shop", "shop": "clothes", "wheelchair": "yes"}}, {"type": "node", "id": 1147281300, "lat": 12.9597193, "lon": 77.7477444, "tags": {"addr:street": "Forum Value Mall", "name": "Sanskruti Silks", "shop": "clothes"}}, {"type": "node", "id": 1147281301, "lat": 12.9594807, "lon": 77.7477912, "tags": {"addr:street": "Forum Value Mall", "name": "Rare", "shop": "clothes"}}, {"type": "node", "id": 1147281303, "lat": 12.9597218, "lon": 77.7478598, "tags": {"addr:floor": "1", "addr:street": "Forum Value Mall", "brand": "Peter England", "brand:wikidata": "Q19573665", "check_date": "2023-06-30", "clothes": "men", "level": "1", "name": "Peter England", "payment:mastercard": "yes", "payment:visa": "yes", "shop": "clothes", "source": "survey", "wheelchair": "yes"}}, {"type": "node", "id": 1147281304, "lat": 12.9596342, "lon": 77.7485167, "tags": {"addr:street": "Forum Value Mall", "name": "Vivah", "shop": "clothes"}}, {"type": "node", "id": 1147281305, "lat": 12.9597218, "lon": 77.7475981, "tags": {"addr:street": "Forum Value Mall", "name": "Neeru\u2019S Fashion", "shop": "clothes"}}, {"type": "node", "id": 1147281306, "lat": 12.9596244, "lon": 77.7484878, "tags": {"addr:street": "Forum Value Mall", "name": "Stanza", "shop": "clothes"}}, {"type": "node", "id": 1147281307, "lat": 12.9595344, "lon": 77.7479804, "tags": {"addr:street": "Forum Value Mall", "name": "Soles", "shop": "shoes"}}, {"type": "node", "id": 1147282670, "lat": 12.9599805, "lon": 77.7483366, "tags": {"addr:street": "Forum Value Mall", "brand": "Archies", "brand:wikidata": "Q4786843", "name": "Archies", "shop": "gift"}}, {"type": "node", "id": 1147294837, "lat": 12.9597243, "lon": 77.747947, "tags": {"addr:street": "Forum Value Mall", "name": "Bulchee", "shop": "clothes"}}, {"type": "node", "id": 1147294839, "lat": 12.9599793, "lon": 77.7481599, "tags": {"addr:street": "Forum Value Mall", "name": "WHIZZ", "shop": "hifi"}}, {"type": "node", "id": 1147294842, "lat": 12.9595225, "lon": 77.7472977, "tags": {"addr:street": "Forum Value Mall", "brand": "Levi's", "brand:wikidata": "Q127962", "clothes": "denim;men;women", "name": "Levi's", "shop": "clothes", "wheelchair": "yes"}}, {"type": "node", "id": 1147294844, "lat": 12.9599793, "lon": 77.7482446, "tags": {"addr:street": "Forum Value Mall", "name": "ONKYO", "shop": "hifi"}}, {"type": "node", "id": 1147294847, "lat": 12.9594565, "lon": 77.7482378, "tags": {"addr:street": "Forum Value Mall", "brand": "Tommy Hilfiger", "brand:wikidata": "Q634881", "name": "Tommy Hilfiger", "shop": "clothes"}}, {"type": "node", "id": 1147294852, "lat": 12.9597318, "lon": 77.7480573, "tags": {"addr:street": "Forum Value Mall", "name": "Zaari", "shop": "clothes"}}, {"type": "node", "id": 1147294855, "lat": 12.9594153, "lon": 77.7483382, "tags": {"addr:street": "Forum Value Mall", "brand": "United Colors of Benetton", "brand:wikidata": "Q817139", "name": "United Colors of Benetton", "shop": "clothes", "short_name": "Benetton"}}, {"type": "node", "id": 1147294863, "lat": 12.959938, "lon": 77.7483391, "tags": {"addr:street": "Forum Value Mall", "name": "Maheen", "shop": "gift"}}, {"type": "node", "id": 1147294866, "lat": 12.9598218, "lon": 77.7478418, "tags": {"addr:floor": "1", "addr:street": "Forum Value Mall", "check_date": "2023-06-30", "level": "1", "name": "Soulmate", "payment:mastercard": "yes", "payment:visa": "yes", "shop": "alcohol", "smoking": "no", "source": "survey"}}, {"type": "node", "id": 1147294867, "lat": 12.9597243, "lon": 77.7473237, "tags": {"addr:street": "Forum Value Mall", "brand": "Rockport", "brand:wikidata": "Q4048384", "name": "Rockport", "shop": "shoes", "wheelchair": "yes"}}, {"type": "node", "id": 1147294870, "lat": 12.9597343, "lon": 77.7481599, "tags": {"addr:street": "Forum Value Mall", "brand": "Van Heusen", "brand:wikidata": "Q67551865", "check_date": "2023-06-30", "clothes": "men", "name": "Van Heusen", "name:kn": "\u0cb5\u0ccd\u0caf\u0cbe\u0ca8\u0ccd \u0cb9\u0cc1\u0cb8\u0cc7\u0ca8\u0ccd", "shop": "clothes", "wheelchair": "yes"}}, {"type": "node", "id": 1147294877, "lat": 12.9597243, "lon": 77.748301, "tags": {"addr:floor": "1", "addr:street": "Forum Value Mall", "check_date": "2023-06-30", "level": "1", "name": "Alen Solly", "payment:mastercard": "yes", "payment:visa": "yes", "shop": "clothes", "source": "survey", "wheelchair": "yes"}}, {"type": "node", "id": 1150839601, "lat": 12.9569453, "lon": 77.6992375, "tags": {"addr:street": "Varthur Road", "brand": "Puma", "brand:wikidata": "Q157064", "name": "Puma", "name:kn": "\u0caa\u0cc2\u0cae", "shop": "clothes"}}, {"type": "node", "id": 1150839607, "lat": 12.956906, "lon": 77.698972, "tags": {"addr:street": "Varthur Road", "name": "Happy Mart", "shop": "convenience"}}, {"type": "node", "id": 1150839622, "lat": 12.9569514, "lon": 77.6992246, "tags": {"addr:street": "Varthur Road", "brand": "Reebok", "brand:wikidata": "Q466183", "name": "Reebok", "shop": "clothes"}}, {"type": "node", "id": 1150839626, "lat": 12.9568693, "lon": 77.6987024, "tags": {"addr:street": "Varthur Road", "name": "Lilliput", "shop": "clothes"}}, {"type": "node", "id": 1162930055, "lat": 12.9788493, "lon": 77.7102099}, {"type": "node", "id": 1166275817, "lat": 12.9897305, "lon": 77.7023418, "tags": {"shop": "convenience"}}, {"type": "node", "id": 1166727555, "lat": 12.9789845, "lon": 77.6953187, "tags": {"check_date": "2024-11-09", "check_date:opening_hours": "2024-11-09", "indoor_seating": "no", "internet_access": "no", "name": "Preethi Condiments", "opening_hours:signed": "no", "outdoor_seating": "no", "payment:cash": "yes", "payment:credit_cards": "no", "payment:debit_cards": "no", "payment:upi": "yes", "shop": "bakery", "takeaway": "only", "wheelchair": "limited"}}, {"type": "node", "id": 1169430891, "lat": 12.9118577, "lon": 77.682346, "tags": {"name": "car accesories", "shop": "car_parts"}}, {"type": "node", "id": 1185751513, "lat": 12.9736907, "lon": 77.6412647, "tags": {"addr:street": "100 Feet Road(S K Karim Khan Road)", "brand": "METRO", "brand:wikidata": "Q13610282", "brand:wikipedia": "en:Metro Cash & Carry", "name": "Metro", "shop": "wholesale", "wheelchair": "no"}}, {"type": "node", "id": 1185751531, "lat": 12.9737476, "lon": 77.6412627, "tags": {"name": "Woodland", "shop": "shoes"}}, {"type": "node", "id": 1260719442, "lat": 12.9531128, "lon": 77.6998042, "tags": {"name": "Hitech Communication", "operator": "Nokia", "shop": "mobile_phone"}}, {"type": "node", "id": 1266405523, "lat": 13.033577, "lon": 77.7334349, "tags": {"brand": "Toyota", "brand:wikidata": "Q53268", "name": "Ravindu Toyota", "shop": "car"}}, {"type": "node", "id": 1268904265, "lat": 12.9918953, "lon": 77.7143082, "tags": {"name": "Furniture Quotient", "shop": "furniture"}}, {"type": "node", "id": 1275552778, "lat": 12.949666, "lon": 77.6991298, "tags": {"addr:city": "Marathahalli, Bangalore", "addr:street": "Outer Ring Road", "check_date": "2023-09-19", "name": "Damro", "shop": "furniture"}}, {"type": "node", "id": 1279116236, "lat": 13.022202, "lon": 77.6507704, "tags": {"addr:street": "Horamavu Agara Main Road", "name": "City Pearl", "shop": "supermarket"}}, {"type": "node", "id": 1280318946, "lat": 13.0228757, "lon": 77.6509402, "tags": {"addr:street": "Horamavu Agara Main Road", "name": "7 Days", "shop": "supermarket"}}, {"type": "node", "id": 1284061298, "lat": 12.990819, "lon": 77.7176114, "tags": {"name": "Pooja Electricals", "shop": "hardware"}}, {"type": "node", "id": 1317197138, "lat": 12.9745701, "lon": 77.6548127, "tags": {"brand": "HOPCOMS", "brand:wikidata": "Q22908959", "name": "HOPCOMS", "name:kn": "\u0cb9\u0cbe\u0caa\u0ccd \u0c95\u0cbe\u0cae\u0ccd\u0cb8\u0ccd", "shop": "greengrocer"}}, {"type": "node", "id": 1328593756, "lat": 12.9734041, "lon": 77.653684, "tags": {"name": "Ladies Beauty Parlor", "shop": "hairdresser"}}, {"type": "node", "id": 1328593757, "lat": 12.9719195, "lon": 77.6549929, "tags": {"shop": "hairdresser"}}, {"type": "node", "id": 1328593758, "lat": 12.972092, "lon": 77.6526058, "tags": {"addr:street": "Thippasandra Main Road", "name": "Ann's View Bakery", "shop": "bakery"}}, {"type": "node", "id": 1328593759, "lat": 12.9719404, "lon": 77.6549125, "tags": {"shop": "clothes"}}, {"type": "node", "id": 1328593760, "lat": 12.9720843, "lon": 77.6534265, "tags": {"name": "Meenakshi Electricals", "shop": "doityourself"}}, {"type": "node", "id": 1328593761, "lat": 12.9720397, "lon": 77.6527345, "tags": {"shop": "butcher"}}, {"type": "node", "id": 1328610606, "lat": 12.9747197, "lon": 77.6550567, "tags": {"shop": "convenience"}}, {"type": "node", "id": 1328610696, "lat": 12.9790909, "lon": 77.6467497, "tags": {"addr:street": "80 Feet Road(Sir C.V. Raman Hospital Road)", "name": "Sapna Book House", "shop": "books"}}, {"type": "node", "id": 1339408107, "lat": 12.9711922, "lon": 77.6504715, "tags": {"name": "Saleem Enfield Bullet Repair Shop", "shop": "motorcycle"}}, {"type": "node", "id": 1339408157, "lat": 12.9700656, "lon": 77.6506941, "tags": {"shop": "florist"}}, {"type": "node", "id": 1339408176, "lat": 12.9700604, "lon": 77.6506324, "tags": {"brand": "HOPCOMS", "brand:wikidata": "Q22908959", "name": "HOPCOMS", "name:kn": "\u0cb9\u0cbe\u0caa\u0ccd \u0c95\u0cbe\u0cae\u0ccd\u0cb8\u0ccd", "shop": "greengrocer"}}, {"type": "node", "id": 1339408198, "lat": 12.9690672, "lon": 77.6480361, "tags": {"name": "Torque Car Accesories", "shop": "car_repair"}}, {"type": "node", "id": 1339413315, "lat": 12.9733041, "lon": 77.6511018, "tags": {"brand": "Reliance Fresh", "brand:wikidata": "Q7311014", "brand:wikipedia": "en:Reliance Fresh", "check_date": "2024-11-23", "name": "Reliance Fresh", "name:kn": "\u0cb0\u0cbf\u0cb2\u0cbe\u0caf\u0ca8\u0ccd\u0cb8\u0ccd \u0cab\u0ccd\u0cb0\u0cc6\u0cb6\u0ccd", "shop": "supermarket"}}, {"type": "node", "id": 1339413321, "lat": 12.9734191, "lon": 77.6513379, "tags": {"name": "Metal Works Shop", "shop": "doityourself"}}, {"type": "node", "id": 1365631749, "lat": 12.9662098, "lon": 77.7185147}, {"type": "node", "id": 1365631798, "lat": 12.9659794, "lon": 77.7187062}, {"type": "node", "id": 1365631831, "lat": 12.9662089, "lon": 77.7187153}, {"type": "node", "id": 1365631837, "lat": 12.9659815, "lon": 77.7185482}, {"type": "node", "id": 1366802646, "lat": 12.9656357, "lon": 77.7184777, "tags": {"service": "repair", "shop": "motorcycle"}}, {"type": "node", "id": 1367938093, "lat": 12.989885, "lon": 77.7129176}, {"type": "node", "id": 1367938106, "lat": 12.9901594, "lon": 77.7112229}, {"type": "node", "id": 1367938125, "lat": 12.9902476, "lon": 77.7135286}, {"type": "node", "id": 1367938143, "lat": 12.9907376, "lon": 77.7113713}, {"type": "node", "id": 1368933540, "lat": 12.9698963, "lon": 77.7501646, "tags": {"addr:postcode": "560066", "addr:street": "Whitefield Main Road", "check_date": "2025-07-08", "indoor_seating": "no", "name": "Mayura Bakery & Sweets", "outdoor_seating": "no", "shop": "bakery", "takeaway": "only"}}, {"type": "node", "id": 1368933552, "lat": 12.9701704, "lon": 77.7498263, "tags": {"addr:postcode": "560066", "addr:street": "Whitefield Main Road", "check_date": "2025-08-19", "name": "Brother's Bakery", "shop": "bakery"}}, {"type": "node", "id": 1371859171, "lat": 12.9647649, "lon": 77.7173064, "tags": {"name": "N Stores", "shop": "supermarket"}}, {"type": "node", "id": 1377780648, "lat": 12.9790603, "lon": 77.7101467}, {"type": "node", "id": 1377780673, "lat": 12.9788904, "lon": 77.7095965}, {"type": "node", "id": 1377780710, "lat": 12.9786786, "lon": 77.7102648}, {"type": "node", "id": 1383260324, "lat": 12.9774245, "lon": 77.7108855}, {"type": "node", "id": 1383260325, "lat": 12.9779843, "lon": 77.7115827}, {"type": "node", "id": 1383260326, "lat": 12.9780816, "lon": 77.7106346}, {"type": "node", "id": 1383260330, "lat": 12.9776386, "lon": 77.7117482}, {"type": "node", "id": 1384847703, "lat": 12.9867287, "lon": 77.7358802}, {"type": "node", "id": 1384847741, "lat": 12.9872421, "lon": 77.7369507}, {"type": "node", "id": 1384847745, "lat": 12.9872597, "lon": 77.7358895}, {"type": "node", "id": 1384847834, "lat": 12.986711, "lon": 77.7369414}, {"type": "node", "id": 1420105733, "lat": 12.9705482, "lon": 77.6410087, "tags": {"addr:street": "100 Feet Road", "brand": "Crom\u0101", "brand:wikidata": "Q5187683", "name": "Crom\u0101", "name:kn": "\u0c95\u0ccd\u0cb0\u0ccb\u0cae", "shop": "electronics"}}, {"type": "node", "id": 1434221653, "lat": 12.9719429, "lon": 77.7487073, "tags": {"addr:postcode": "560066", "addr:street": "Inner Circle", "brand": "HOPCOMS", "brand:wikidata": "Q22908959", "name": "HOPCOMS", "name:kn": "\u0cb9\u0cbe\u0caa\u0ccd \u0c95\u0cbe\u0cae\u0ccd\u0cb8\u0ccd", "shop": "greengrocer", "website": "http://hopcoms.com/"}}, {"type": "node", "id": 1435078367, "lat": 12.9792031, "lon": 77.7513013, "tags": {"addr:city": "Bangalore", "addr:postcode": "560066", "addr:street": "Whitefield Main Road", "check_date": "2025-07-24", "cuisine": "coffee_shop", "level": "0", "name": "Karthik Sweets and Chats", "phone": "+91-80-41641300", "shop": "confectionery"}}, {"type": "node", "id": 1436188891, "lat": 12.9956683, "lon": 77.6571952, "tags": {"addr:city": "Bangalore", "addr:postcode": "560038", "addr:street": "4th Main Road", "name": "Metro Stores", "opening_hours": "Mo-Su 06:00-22:00", "payment:cash": "yes", "payment:paytm": "yes", "payment:upi": "yes", "shop": "general"}}, {"type": "node", "id": 1436191049, "lat": 12.9973771, "lon": 77.6571884, "tags": {"shop": "hairdresser"}}, {"type": "node", "id": 1437206311, "lat": 12.970882, "lon": 77.7502165}, {"type": "node", "id": 1437206312, "lat": 12.9707523, "lon": 77.7504471}, {"type": "node", "id": 1437206324, "lat": 12.9707822, "lon": 77.7502036}, {"type": "node", "id": 1437206325, "lat": 12.9708521, "lon": 77.7504599}, {"type": "node", "id": 1462947571, "lat": 12.9260569, "lon": 77.6753253, "tags": {"addr:housename": "SoulSpace Spirit", "addr:postcode": "560103", "addr:street": "Sarjapur Outer Ring Road, Bellandur, Bangalore", "level": "0", "name": "Smart Bazaar", "shop": "supermarket"}}, {"type": "node", "id": 1462953962, "lat": 12.9260094, "lon": 77.6752616, "tags": {"addr:floor": "G", "addr:housename": "Soulspace Spirit", "addr:postcode": "560103", "addr:street": "Bellandur, Bangalore", "check_date": "2024-01-28", "designation": "Madhuloka", "level": "0", "name": "Madhuloka", "name:kn": "\u0cae\u0ca7\u0cc1\u0cb2\u0ccb\u0c95", "payment:cash": "yes", "payment:credit_cards": "yes", "payment:debit_cards": "yes", "shop": "alcohol", "source": "survey"}}, {"type": "node", "id": 1464786131, "lat": 12.9567592, "lon": 77.708841, "tags": {"name": "Village Hypermart", "shop": "supermarket"}}, {"type": "node", "id": 1465206235, "lat": 12.9565185, "lon": 77.6979303, "tags": {"name": "Citizen Bakery", "shop": "bakery"}}, {"type": "node", "id": 1465217391, "lat": 12.9548561, "lon": 77.6981235, "tags": {"addr:housename": "little flower bakery", "addr:street": "Tuasi theater rd, 3rd cross, Marathalli east", "name": "Little Flower Bakery", "shop": "bakery"}}, {"type": "node", "id": 1465574767, "lat": 12.9717678, "lon": 77.6811933, "tags": {"addr:street": "Ramesh nagar road", "brand": "Bata", "brand:wikidata": "Q688082", "name": "Bata", "shop": "shoes"}}, {"type": "node", "id": 1468007800, "lat": 12.959097, "lon": 77.6566086}, {"type": "node", "id": 1468007801, "lat": 12.958227, "lon": 77.6565442}, {"type": "node", "id": 1468007806, "lat": 12.9582478, "lon": 77.65647}, {"type": "node", "id": 1468007807, "lat": 12.9590629, "lon": 77.6571286}, {"type": "node", "id": 1469637252, "lat": 13.0156682, "lon": 77.6673107, "tags": {"name": "Brinda's Beauty Parlour", "shop": "hairdresser"}}, {"type": "node", "id": 1470828800, "lat": 12.9794139, "lon": 77.7412406}, {"type": "node", "id": 1474220550, "lat": 12.9783144, "lon": 77.6444829, "tags": {"addr:street": "Chinmaya Mission Hospital Road", "name": "Flying machine", "shop": "clothes"}}, {"type": "node", "id": 1474254691, "lat": 12.9707243, "lon": 77.6414981, "tags": {"addr:street": "100 Feet Road", "name": "Shrushti Jewelry", "payment:credit_cards": "yes", "payment:debit_cards": "yes", "shop": "jewelry"}}, {"type": "node", "id": 1474254705, "lat": 12.9713714, "lon": 77.6409298, "tags": {"addr:street": "100 Feet Road", "brand": "Van Heusen", "brand:wikidata": "Q67551865", "check_date": "2024-02-18", "clothes": "men", "name": "Van Heusen", "name:kn": "\u0cb5\u0ccd\u0caf\u0cbe\u0ca8\u0ccd \u0cb9\u0cc1\u0cb8\u0cc7\u0ca8\u0ccd", "shop": "clothes"}}, {"type": "node", "id": 1474254709, "lat": 12.9709774, "lon": 77.6410458, "tags": {"addr:street": "100 Feet Road( S K Karim Khan Road)", "name": "Erwan Thai SPA", "shop": "beauty"}}, {"type": "node", "id": 1474258857, "lat": 12.9773859, "lon": 77.6411324, "tags": {"addr:street": "100 Feet Road(S K Karim Khan Road)", "check_date": "2025-06-16", "name": "Karachi Bakery", "payment:cash": "yes", "payment:credit_cards": "yes", "payment:debit_cards": "yes", "shop": "bakery", "source": "survey"}}, {"type": "node", "id": 1477494236, "lat": 12.9935838, "lon": 77.6639522, "tags": {"addr:city": "Bangalore", "addr:floor": "0", "addr:housename": "Gopalan Grand Mall", "addr:postcode": "560016", "addr:street": "Swamy Vivekananda Road (Old Madras Road)", "addr:suburb": "Nagarvarapalya", "air_conditioning": "yes", "brand": "More", "brand:wikidata": "Q6910891", "check_date": "2024-04-03", "level": "0", "name": "More", "operator": "More", "organic": "yes", "payment:cash": "yes", "payment:credit_cards": "yes", "payment:debit_cards": "yes", "shop": "supermarket", "source": "survey", "stroller": "yes"}}, {"type": "node", "id": 1506418133, "lat": 12.9529636, "lon": 77.7004169, "tags": {"name": "Girias Electronics", "payment:credit_cards": "yes", "payment:debit_cards": "yes", "shop": "hifi", "wheelchair": "no"}}, {"type": "node", "id": 1515236931, "lat": 12.9929961, "lon": 77.662492}, {"type": "node", "id": 1515236936, "lat": 12.9929222, "lon": 77.6623123}, {"type": "node", "id": 1530734605, "lat": 13.0423775, "lon": 77.7607737, "tags": {"brand": "Maruti Suzuki", "brand:wikidata": "Q963718", "name": "Car Service Station", "shop": "car_repair"}}, {"type": "node", "id": 1541338044, "lat": 13.0044439, "lon": 77.6554748, "tags": {"shop": "car_repair"}}, {"type": "node", "id": 1543465898, "lat": 12.9551246, "lon": 77.7130164}, {"type": "node", "id": 1543465899, "lat": 12.9551252, "lon": 77.7131548}, {"type": "node", "id": 1543465903, "lat": 12.9548907, "lon": 77.7130175}, {"type": "node", "id": 1543465904, "lat": 12.9548913, "lon": 77.7131559}, {"type": "node", "id": 1568853497, "lat": 12.9947521, "lon": 77.6934752}, {"type": "node", "id": 1579616024, "lat": 12.9699483, "lon": 77.7497487, "tags": {"check_date": "2025-05-24", "name": "Chef Baker's", "shop": "bakery"}}, {"type": "node", "id": 1579616037, "lat": 12.9696091, "lon": 77.7500882, "tags": {"addr:postcode": "560066", "check_date": "2025-07-08", "is_in": "Whitefield, Bangalore, Karnataka, India", "level": "0", "name": "Mayura Bakery and Sweets", "shop": "bakery"}}, {"type": "node", "id": 1585471058, "lat": 12.9697265, "lon": 77.7503942, "tags": {"addr:postcode": "560066", "is_in": "Whitefield, Bangalore, Karnataka, India", "name": "S V Sushma Hair Dressers", "shop": "hairdresser"}}, {"type": "node", "id": 1590229359, "lat": 12.9697192, "lon": 77.7502278, "tags": {"addr:postcode": "560066", "addr:street": "Immadihalli Road", "is_in": "Whitefield, Bangalore, Karnataka, India", "name": "Whitefield Fish and Chicken Centre", "shop": "butcher"}}, {"type": "node", "id": 1604575882, "lat": 12.9872062, "lon": 77.7368076, "tags": {"addr:housename": "Park Square Mall", "addr:postcode": "560066", "brand": "Zudio", "brand:wikidata": "Q123375926", "check_date": "2025-05-21", "clothes": "women;men;children", "name": "Zudio", "payment:mastercard": "yes", "payment:upi": "yes", "payment:visa": "yes", "shop": "clothes", "source": "survey"}}, {"type": "node", "id": 1604585786, "lat": 12.9567881, "lon": 77.7315656}, {"type": "node", "id": 1604585797, "lat": 12.9567863, "lon": 77.7314758}, {"type": "node", "id": 1604585815, "lat": 12.9566073, "lon": 77.7314794}, {"type": "node", "id": 1604585856, "lat": 12.956609, "lon": 77.7315692}, {"type": "node", "id": 1605954154, "lat": 12.9801045, "lon": 77.7515323}, {"type": "node", "id": 1605954175, "lat": 12.9801513, "lon": 77.7512822}, {"type": "node", "id": 1605954213, "lat": 12.9799673, "lon": 77.7515053}, {"type": "node", "id": 1605954217, "lat": 12.9800141, "lon": 77.7512552}, {"type": "node", "id": 1607458589, "lat": 12.9929957, "lon": 77.6618949, "tags": {"addr:city": "Bangalore", "addr:floor": "G", "addr:housename": "Gopalan Signature Mall", "addr:postcode": "560016", "addr:street": "Swamy Vivekananda Road", "air_conditioning": "yes", "brand": "Lifestyle", "brand:wikidata": "Q6545496", "check_date": "2025-11-16", "level": "0", "name": "Lifestyle", "payment:cash": "yes", "payment:credit_cards": "yes", "payment:debit_cards": "yes", "shop": "clothes"}}, {"type": "node", "id": 1631443163, "lat": 12.9867176, "lon": 77.736544}, {"type": "node", "id": 1634008627, "lat": 13.0546058, "lon": 77.7631915}, {"type": "node", "id": 1634008633, "lat": 13.056046, "lon": 77.7632341}, {"type": "node", "id": 1634804305, "lat": 12.9963136, "lon": 77.6962137}, {"type": "node", "id": 1634804308, "lat": 12.9977399, "lon": 77.6963297}, {"type": "node", "id": 1634804309, "lat": 12.9977101, "lon": 77.6960707}, {"type": "node", "id": 1634804319, "lat": 12.9969447, "lon": 77.6964511}, {"type": "node", "id": 1634804347, "lat": 12.9973244, "lon": 77.6965503}, {"type": "node", "id": 1634804374, "lat": 12.9968954, "lon": 77.6964438}, {"type": "node", "id": 1634804430, "lat": 12.9960542, "lon": 77.696187}, {"type": "node", "id": 1634804438, "lat": 12.9972762, "lon": 77.6965368}, {"type": "node", "id": 1634804450, "lat": 12.997379, "lon": 77.6965414}, {"type": "node", "id": 1634804517, "lat": 12.9976053, "lon": 77.6964719}, {"type": "node", "id": 1634804521, "lat": 12.9967056, "lon": 77.6963666}, {"type": "node", "id": 1634804525, "lat": 12.9982007, "lon": 77.6958537}, {"type": "node", "id": 1634804529, "lat": 12.9974301, "lon": 77.6965403}, {"type": "node", "id": 1634804536, "lat": 12.9977249, "lon": 77.6961561}, {"type": "node", "id": 1634804540, "lat": 12.9958023, "lon": 77.6964689}, {"type": "node", "id": 1634804541, "lat": 12.995787, "lon": 77.6964679}, {"type": "node", "id": 1634804543, "lat": 12.9976745, "lon": 77.6964275, "tags": {"entrance": "yes"}}, {"type": "node", "id": 1634804566, "lat": 12.9964463, "lon": 77.6962462}, {"type": "node", "id": 1634804568, "lat": 12.9975664, "lon": 77.6964973}, {"type": "node", "id": 1634804569, "lat": 12.9975245, "lon": 77.6965173}, {"type": "node", "id": 1634804576, "lat": 12.9977149, "lon": 77.69626}, {"type": "node", "id": 1634804585, "lat": 12.997695, "lon": 77.6960301}, {"type": "node", "id": 1634804613, "lat": 12.9965778, "lon": 77.696297}, {"type": "node", "id": 1634804615, "lat": 12.9976987, "lon": 77.6963096}, {"type": "node", "id": 1634804628, "lat": 12.9967997, "lon": 77.6964156}, {"type": "node", "id": 1634804631, "lat": 12.9971512, "lon": 77.6964766}, {"type": "node", "id": 1660031371, "lat": 12.996313, "lon": 77.70122, "tags": {"name": "Mahindra Service", "shop": "car_repair"}}, {"type": "node", "id": 1669908084, "lat": 12.9218121, "lon": 77.6761569, "tags": {"name": "Sinan Provision Store", "shop": "convenience"}}, {"type": "node", "id": 1669909077, "lat": 12.9223745, "lon": 77.6756791, "tags": {"name": "Raj Motors", "shop": "car_repair"}}, {"type": "node", "id": 1675527565, "lat": 12.9762388, "lon": 77.6738244, "tags": {"addr:postcode": "560075", "addr:street": "Mallesh Palaya 5th Main", "name": "Super Market", "shop": "convenience"}}, {"type": "node", "id": 1675529723, "lat": 12.974059, "lon": 77.673001, "tags": {"addr:housename": "Rajagopal Complex", "addr:housenumber": "145", "addr:postcode": "560075", "addr:street": "5th Main Road, Malleshpalya", "name": "More Store", "phone": "+91-80-64535780", "shop": "convenience"}}, {"type": "node", "id": 1683088877, "lat": 12.9559175, "lon": 77.7296068, "tags": {"check_date": "2025-04-14", "name": "Barrels", "shop": "alcohol"}}, {"type": "node", "id": 1691967445, "lat": 12.9283121, "lon": 77.6719892, "tags": {"name": "K. M. Bakery", "shop": "bakery", "source": "survey"}}, {"type": "node", "id": 1691975653, "lat": 12.9273683, "lon": 77.6710665, "tags": {"name": "Happy Land Supermarket", "shop": "convenience", "source": "survey"}}, {"type": "node", "id": 1693117431, "lat": 12.922285, "lon": 77.6774154, "tags": {"name": "Exide Battery Inverter shop", "shop": "convenience"}}, {"type": "node", "id": 1694231655, "lat": 12.9282333, "lon": 77.6800505}, {"type": "node", "id": 1694231662, "lat": 12.9282202, "lon": 77.680013}, {"type": "node", "id": 1694231671, "lat": 12.928764, "lon": 77.6796589}, {"type": "node", "id": 1694231723, "lat": 12.9287692, "lon": 77.6800613}, {"type": "node", "id": 1694231785, "lat": 12.9288241, "lon": 77.6797287}, {"type": "node", "id": 1694231790, "lat": 12.9288006, "lon": 77.6796992}, {"type": "node", "id": 1694231897, "lat": 12.9280424, "lon": 77.6799808}, {"type": "node", "id": 1694231937, "lat": 12.9280895, "lon": 77.6797018}, {"type": "node", "id": 1694231949, "lat": 12.9280215, "lon": 77.6797448}, {"type": "node", "id": 1694231987, "lat": 12.9279902, "lon": 77.6797984}, {"type": "node", "id": 1694231989, "lat": 12.9284163, "lon": 77.6800613}, {"type": "node", "id": 1694232016, "lat": 12.9281993, "lon": 77.679667}, {"type": "node", "id": 1694232061, "lat": 12.9281052, "lon": 77.6800183}, {"type": "node", "id": 1694232078, "lat": 12.9288136, "lon": 77.6800371}, {"type": "node", "id": 1694232125, "lat": 12.9288293, "lon": 77.6799915}, {"type": "node", "id": 1694232184, "lat": 12.927998, "lon": 77.6799298}, {"type": "node", "id": 1694232202, "lat": 12.9279849, "lon": 77.6798628}, {"type": "node", "id": 1706585779, "lat": 13.0043801, "lon": 77.7123768}, {"type": "node", "id": 1706585780, "lat": 13.0042559, "lon": 77.7125037}, {"type": "node", "id": 1706585781, "lat": 13.0043958, "lon": 77.7124841}, {"type": "node", "id": 1706585782, "lat": 13.0042506, "lon": 77.712391}, {"type": "node", "id": 1706627940, "lat": 13.0042416, "lon": 77.7133987}, {"type": "node", "id": 1706627941, "lat": 13.0045735, "lon": 77.7134014}, {"type": "node", "id": 1706627942, "lat": 13.0045836, "lon": 77.7136952}, {"type": "node", "id": 1706627943, "lat": 13.0042129, "lon": 77.7136803}, {"type": "node", "id": 1717904864, "lat": 12.9914612, "lon": 77.6909164, "tags": {"addr:postcode": "560048", "addr:street": "Maheshwari Nagar, Mahadevapura", "name": "Happy Land Store", "shop": "convenience"}}, {"type": "node", "id": 1719481877, "lat": 12.9999545, "lon": 77.6910262}, {"type": "node", "id": 1719524393, "lat": 12.9914105, "lon": 77.6910821, "tags": {"name": "Raghavendra Bakery", "shop": "bakery"}}, {"type": "node", "id": 1719526890, "lat": 12.9926782, "lon": 77.6910662, "tags": {"name": "Hindiwala Provision Store", "shop": "convenience"}}, {"type": "node", "id": 1719526893, "lat": 12.9926025, "lon": 77.6913531, "tags": {"name": "Anjeneya Provision Store", "shop": "convenience"}}, {"type": "node", "id": 1719527370, "lat": 12.9939459, "lon": 77.6932252, "tags": {"name": "Reni Provision Store", "shop": "convenience"}}, {"type": "node", "id": 1719528233, "lat": 12.989333, "lon": 77.6892958, "tags": {"laundry_service": "yes", "name": "White Collar Laundry", "self_service": "no", "shop": "laundry"}}, {"type": "node", "id": 1719533074, "lat": 12.9913846, "lon": 77.6911465, "tags": {"name": "Touch and Glow Hairdresser", "shop": "hairdresser"}}, {"type": "node", "id": 1719548828, "lat": 12.9916899, "lon": 77.6893706, "tags": {"name": "Small Vegetable Shop", "shop": "greengrocer"}}, {"type": "node", "id": 1719549419, "lat": 12.9918415, "lon": 77.6888153, "tags": {"name": "Ayyappan Provision Store", "shop": "convenience"}}, {"type": "node", "id": 1719552441, "lat": 12.9785542, "lon": 77.6967137, "tags": {"brand": "Bosch", "check_date": "2024-09-20", "name": "Mudra Bosch Car Service", "opening_hours": "Mo-Sa 09:00-19:00", "shop": "car_repair", "wheelchair": "limited"}}, {"type": "node", "id": 1719556774, "lat": 12.9892466, "lon": 77.6894861, "tags": {"name": "Hindustan Garage", "shop": "car_repair"}}, {"type": "node", "id": 1719557720, "lat": 12.9881698, "lon": 77.6897409, "tags": {"check_date": "2024-03-06", "name": "Castrol Bikez Zone", "shop": "motorcycle"}}, {"type": "node", "id": 1719558693, "lat": 12.991706, "lon": 77.6893145, "tags": {"name": "Bike Repair Shop", "shop": "motorcycle"}}, {"type": "node", "id": 1719559161, "lat": 12.9914959, "lon": 77.6880796, "tags": {"name": "Bike Repair Shop", "shop": "motorcycle"}}, {"type": "node", "id": 1724460266, "lat": 13.0121881, "lon": 77.6673811, "tags": {"name": "Koutons Cloth Shop", "shop": "supermarket"}}, {"type": "node", "id": 1725094663, "lat": 13.0249273, "lon": 77.6592607, "tags": {"brand": "Nilgiri's", "brand:wikidata": "Q17079567", "name": "Nilgiri's", "name:kn": "\u0ca8\u0cc0\u0cb2\u0ccd\u0c97\u0cbf\u0cb0\u0cc0\u0cb8\u0ccd", "opening_hours": "Mo-Su 08:30-20:00", "shop": "supermarket"}}, {"type": "node", "id": 1725094667, "lat": 13.0123108, "lon": 77.6672269, "tags": {"addr:housenumber": "Sy. No. 46/1, ANR Complex", "addr:street": "Ramamurthy Nagar Main Road", "brand": "DMart", "brand:wikidata": "Q5203271", "name": "DMart", "opening_hours": "Mo-Su 10:00-22:00", "shop": "supermarket", "website": "https://dmartindia.com"}}, {"type": "node", "id": 1725279699, "lat": 13.0214412, "lon": 77.6780929, "tags": {"shop": "supermarket"}}, {"type": "node", "id": 1725279714, "lat": 13.0128806, "lon": 77.647719}, {"type": "node", "id": 1725279716, "lat": 13.0129134, "lon": 77.647457}, {"type": "node", "id": 1725279717, "lat": 13.0130589, "lon": 77.6477426}, {"type": "node", "id": 1725279718, "lat": 13.0130917, "lon": 77.6474805}, {"type": "node", "id": 1725279755, "lat": 13.0167814, "lon": 77.6588807}, {"type": "node", "id": 1725279768, "lat": 13.0172475, "lon": 77.6590128}, {"type": "node", "id": 1742647037, "lat": 13.0183846, "lon": 77.647491, "tags": {"name": "Home Needs", "shop": "convenience"}}, {"type": "node", "id": 1743937872, "lat": 13.0127328, "lon": 77.6481357, "tags": {"brand": "More", "brand:wikidata": "Q6910891", "name": "More", "shop": "supermarket"}}, {"type": "node", "id": 1752650060, "lat": 12.9559362, "lon": 77.6975091, "tags": {"shop": "kiosk"}}, {"type": "node", "id": 1752651317, "lat": 12.9560469, "lon": 77.6979205, "tags": {"shop": "greengrocer"}}, {"type": "node", "id": 1758059734, "lat": 12.963489, "lon": 77.6488234}, {"type": "node", "id": 1758059753, "lat": 12.9635351, "lon": 77.6486993}, {"type": "node", "id": 1758059754, "lat": 12.9638349, "lon": 77.6490136}, {"type": "node", "id": 1758059755, "lat": 12.9639082, "lon": 77.6488453}, {"type": "node", "id": 1758230687, "lat": 12.968071, "lon": 77.650435, "tags": {"male": "yes", "name": "Select Hair Dressers", "shop": "hairdresser"}}, {"type": "node", "id": 1758230692, "lat": 12.9679728, "lon": 77.6517588, "tags": {"name": "Top in Town", "shop": "supermarket"}}, {"type": "node", "id": 1760015498, "lat": 12.9673986, "lon": 77.6502082, "tags": {"name": "Fresh and Green", "shop": "greengrocer"}}, {"type": "node", "id": 1760015500, "lat": 12.9662704, "lon": 77.6497422, "tags": {"addr:housenumber": "579", "addr:street": "6th Cross", "name": "Z Shoppe", "phone": "+91 80 252171841", "shop": "supermarket"}}, {"type": "node", "id": 1760015504, "lat": 12.9661486, "lon": 77.6497036, "tags": {"shop": "kitchen"}}, {"type": "node", "id": 1760015509, "lat": 12.9663491, "lon": 77.6497843, "tags": {"shop": "tailor"}}, {"type": "node", "id": 1760015512, "lat": 12.9663974, "lon": 77.649817, "tags": {"shop": "hardware"}}, {"type": "node", "id": 1760015514, "lat": 12.9668422, "lon": 77.6499995, "tags": {"shop": "butcher"}}, {"type": "node", "id": 1761862415, "lat": 13.015385, "lon": 77.666733, "tags": {"name": "Smart Supermart", "shop": "supermarket"}}, {"type": "node", "id": 1761868084, "lat": 13.0114049, "lon": 77.6730608, "tags": {"name": "Heritage Fresh", "shop": "supermarket"}}, {"type": "node", "id": 1763379673, "lat": 12.9632938, "lon": 77.6460906, "tags": {"name": "Manipal Motors", "shop": "car_repair"}}, {"type": "node", "id": 1776312874, "lat": 12.9736082, "lon": 77.6743886, "tags": {"addr:city": "Bengaluru", "addr:housename": "Burma Supermarket", "addr:housenumber": "116", "addr:postcode": "560075", "addr:street": "Malleshpalya Main Road", "alt_name": "Burma Super Market", "name": "Burma Supernarket", "payment:credit_cards": "yes", "payment:debit_cards": "yes", "phone": "+91-80-25340194", "shop": "supermarket", "wheelchair": "limited"}}, {"type": "node", "id": 1794124377, "lat": 13.0121997, "lon": 77.6659808, "tags": {"name": "Megamart", "operator": "Clothers", "shop": "supermarket"}}, {"type": "node", "id": 1837245438, "lat": 12.9559516, "lon": 77.7115294, "tags": {"name": "Car Care", "shop": "car_parts"}}, {"type": "node", "id": 1839947521, "lat": 12.9600754, "lon": 77.7472422}, {"type": "node", "id": 1870996161, "lat": 12.9721506, "lon": 77.6799287, "tags": {"name": "Fair Choice Supermarket", "shop": "supermarket"}}, {"type": "node", "id": 1871515435, "lat": 12.9927551, "lon": 77.6619082}, {"type": "node", "id": 1871515436, "lat": 12.993155, "lon": 77.6617741}, {"type": "node", "id": 1871515443, "lat": 12.9924571, "lon": 77.6611572}, {"type": "node", "id": 1871515445, "lat": 12.9934294, "lon": 77.6623883}, {"type": "node", "id": 1871515446, "lat": 12.992465, "lon": 77.6612028}, {"type": "node", "id": 1871515456, "lat": 12.9926924, "lon": 77.6615085}, {"type": "node", "id": 1871515464, "lat": 12.9931333, "lon": 77.6625215}, {"type": "node", "id": 1871515466, "lat": 12.9930269, "lon": 77.6615273}, {"type": "node", "id": 1871515470, "lat": 12.9926061, "lon": 77.6615407}, {"type": "node", "id": 1871515482, "lat": 12.9931889, "lon": 77.6617526}, {"type": "node", "id": 1871515485, "lat": 12.9924964, "lon": 77.6605483}, {"type": "node", "id": 1871515502, "lat": 12.9931236, "lon": 77.6624956}, {"type": "node", "id": 1871515504, "lat": 12.992844, "lon": 77.6618653}, {"type": "node", "id": 1871515507, "lat": 12.9925931, "lon": 77.6605}, {"type": "node", "id": 1871515509, "lat": 12.9930766, "lon": 77.6615005}, {"type": "node", "id": 1925211671, "lat": 12.9937278, "lon": 77.6638041}, {"type": "node", "id": 1925211698, "lat": 12.9935961, "lon": 77.6641062}, {"type": "node", "id": 1925211721, "lat": 12.9937782, "lon": 77.6640699}, {"type": "node", "id": 1925211742, "lat": 12.9931057, "lon": 77.6639279}, {"type": "node", "id": 1925211745, "lat": 12.9936113, "lon": 77.6641869}, {"type": "node", "id": 1925211763, "lat": 12.9931712, "lon": 77.6642745}, {"type": "node", "id": 1942812601, "lat": 12.9686891, "lon": 77.7480338, "tags": {"name": "Aaina Womens' Salon", "shop": "hairdresser"}}, {"type": "node", "id": 1946084096, "lat": 12.9837179, "lon": 77.7441495}, {"type": "node", "id": 1946084099, "lat": 12.9837778, "lon": 77.7439114}, {"type": "node", "id": 1946084100, "lat": 12.9839402, "lon": 77.7439545}, {"type": "node", "id": 1946084102, "lat": 12.9838803, "lon": 77.7441925}, {"type": "node", "id": 1960798984, "lat": 12.9953019, "lon": 77.6977548, "tags": {"name": "Sprint Yamaha", "shop": "motorcycle"}}, {"type": "node", "id": 1966447494, "lat": 13.0003091, "lon": 77.6826655}, {"type": "node", "id": 1995259932, "lat": 12.9677857, "lon": 77.7170834}, {"type": "node", "id": 1995259933, "lat": 12.9686592, "lon": 77.7173564}, {"type": "node", "id": 1995259934, "lat": 12.9686775, "lon": 77.7171824}, {"type": "node", "id": 1995259935, "lat": 12.9677673, "lon": 77.7172576}, {"type": "node", "id": 2007669138, "lat": 13.0002812, "lon": 77.6816692}, {"type": "node", "id": 2007669139, "lat": 12.9998761, "lon": 77.681786}, {"type": "node", "id": 2007669140, "lat": 13.0001449, "lon": 77.6816472}, {"type": "node", "id": 2007669142, "lat": 12.9991172, "lon": 77.6822414}, {"type": "node", "id": 2007669143, "lat": 13.0002666, "lon": 77.6821716}, {"type": "node", "id": 2007688356, "lat": 12.9946632, "lon": 77.6930406}, {"type": "node", "id": 2007688357, "lat": 12.9947286, "lon": 77.693046}, {"type": "node", "id": 2007688359, "lat": 12.9942609, "lon": 77.6928127}, {"type": "node", "id": 2007688362, "lat": 12.9950821, "lon": 77.6935157}, {"type": "node", "id": 2007688363, "lat": 12.9945508, "lon": 77.6933893}, {"type": "node", "id": 2007688365, "lat": 12.9947834, "lon": 77.6930138}, {"type": "node", "id": 2007688366, "lat": 12.9944064, "lon": 77.6928628}, {"type": "node", "id": 2007688367, "lat": 12.9947678, "lon": 77.6930406}, {"type": "node", "id": 2007688369, "lat": 12.9944091, "lon": 77.6929165}, {"type": "node", "id": 2007688373, "lat": 12.9948633, "lon": 77.6934278}, {"type": "node", "id": 2007688374, "lat": 12.9959569, "lon": 77.6939016}, {"type": "node", "id": 2007688376, "lat": 12.9941511, "lon": 77.6931828}, {"type": "node", "id": 2007688377, "lat": 12.9961216, "lon": 77.6934376}, {"type": "node", "id": 2007688379, "lat": 12.9951779, "lon": 77.6932646}, {"type": "node", "id": 2007688380, "lat": 12.9949591, "lon": 77.6931767}, {"type": "node", "id": 2105029468, "lat": 12.9571022, "lon": 77.7022467, "tags": {"name": "Chemmannur Jewelry", "shop": "jewelry"}}, {"type": "node", "id": 2105029721, "lat": 12.9598906, "lon": 77.7015509}, {"type": "node", "id": 2195873986, "lat": 12.961125, "lon": 77.7410111, "tags": {"shop": "supermarket", "wheelchair": "yes"}}, {"type": "node", "id": 2231314566, "lat": 12.9699081, "lon": 77.7497687, "tags": {"check_date": "2025-08-19", "name": "Sangeetha Mobiles", "name:kn": "\u0cb8\u0c82\u0c97\u0cc0\u0ca4", "shop": "mobile_phone"}}, {"type": "node", "id": 2275425134, "lat": 12.9882381, "lon": 77.6887697}, {"type": "node", "id": 2275425137, "lat": 12.9882741, "lon": 77.6885887}, {"type": "node", "id": 2275425138, "lat": 12.9885305, "lon": 77.6888308}, {"type": "node", "id": 2275425140, "lat": 12.9885664, "lon": 77.6886499}, {"type": "node", "id": 2275452331, "lat": 12.99921, "lon": 77.6824655}, {"type": "node", "id": 2281106640, "lat": 12.9776753, "lon": 77.6935634}, {"type": "node", "id": 2281106641, "lat": 12.9776806, "lon": 77.6932727}, {"type": "node", "id": 2281106650, "lat": 12.9778973, "lon": 77.6932782}, {"type": "node", "id": 2281106651, "lat": 12.9779306, "lon": 77.6936248}, {"type": "node", "id": 2287630923, "lat": 12.9951985, "lon": 77.6848568}, {"type": "node", "id": 2287630929, "lat": 12.9953264, "lon": 77.6850971}, {"type": "node", "id": 2287630930, "lat": 12.9953588, "lon": 77.6854058}, {"type": "node", "id": 2287630934, "lat": 12.9954237, "lon": 77.6847182}, {"type": "node", "id": 2287630936, "lat": 12.9955119, "lon": 77.6850768}, {"type": "node", "id": 2287630937, "lat": 12.9955173, "lon": 77.6851119}, {"type": "node", "id": 2287630938, "lat": 12.9955552, "lon": 77.6853855}, {"type": "node", "id": 2287630939, "lat": 12.995602, "lon": 77.6850084}, {"type": "node", "id": 2287631087, "lat": 12.9993668, "lon": 77.6907826}, {"type": "node", "id": 2287631089, "lat": 12.9994101, "lon": 77.6906232}, {"type": "node", "id": 2287631090, "lat": 12.9994483, "lon": 77.6873558}, {"type": "node", "id": 2287631093, "lat": 12.9994963, "lon": 77.6873878}, {"type": "node", "id": 2287631094, "lat": 12.9995009, "lon": 77.6872728}, {"type": "node", "id": 2287631096, "lat": 12.9995489, "lon": 77.6873048}, {"type": "node", "id": 2287631097, "lat": 12.9995563, "lon": 77.6900061}, {"type": "node", "id": 2287631105, "lat": 12.9999019, "lon": 77.6821941}, {"type": "node", "id": 2287631109, "lat": 12.9999546, "lon": 77.6859231}, {"type": "node", "id": 2287631111, "lat": 12.9999851, "lon": 77.685638}, {"type": "node", "id": 2287631112, "lat": 13.0000021, "lon": 77.6901917}, {"type": "node", "id": 2287631118, "lat": 13.000106, "lon": 77.6859402}, {"type": "node", "id": 2287631120, "lat": 13.0001365, "lon": 77.6856551}, {"type": "node", "id": 2290010462, "lat": 12.9934653, "lon": 77.7173493, "tags": {"name": "City Super Bazaar", "shop": "department_store"}}, {"type": "node", "id": 2309203423, "lat": 12.9779398, "lon": 77.6443888, "tags": {"name": "Decor Destination", "shop": "furniture"}}, {"type": "node", "id": 2310741973, "lat": 12.9714432, "lon": 77.6476938, "tags": {"addr:city": "Bangalore", "addr:housenumber": "59/1", "addr:street": "1st Cross Road", "name": "DVK Biking", "note": "Motorbike rental only.", "opening_hours": "09:00-19:00", "shop": "motorcycle"}}, {"type": "node", "id": 2319910802, "lat": 12.9527992, "lon": 77.7003542, "tags": {"name": "Acer Mall", "shop": "electronics"}}, {"type": "node", "id": 2319910832, "lat": 12.9621049, "lon": 77.7014185, "tags": {"check_date": "2025-04-09", "name": "Just Bake", "shop": "bakery"}}, {"type": "node", "id": 2319910855, "lat": 12.9611673, "lon": 77.7012927, "tags": {"name": "Reliance Mobile Store", "shop": "mobile_phone", "wheelchair": "no"}}, {"type": "node", "id": 2319910871, "lat": 12.9616519, "lon": 77.7019055, "tags": {"name": "iDeal Drapes N Decor", "shop": "furniture"}}, {"type": "node", "id": 2319910878, "lat": 12.948562, "lon": 77.6997032}, {"type": "node", "id": 2319910880, "lat": 12.9485986, "lon": 77.6995711}, {"type": "node", "id": 2319910881, "lat": 12.9487636, "lon": 77.6997619}, {"type": "node", "id": 2319910882, "lat": 12.9488207, "lon": 77.6997706}, {"type": "node", "id": 2319910884, "lat": 12.9488001, "lon": 77.6996298}, {"type": "node", "id": 2319910885, "lat": 12.9488706, "lon": 77.699598}, {"type": "node", "id": 2319910886, "lat": 12.9488938, "lon": 77.6997929}, {"type": "node", "id": 2319910895, "lat": 12.9489437, "lon": 77.6996203}, {"type": "node", "id": 2319910924, "lat": 12.9497877, "lon": 77.6999787}, {"type": "node", "id": 2319910926, "lat": 12.9498274, "lon": 77.6997624}, {"type": "node", "id": 2319910927, "lat": 12.9500644, "lon": 77.7000321}, {"type": "node", "id": 2319910928, "lat": 12.9501041, "lon": 77.6998159}, {"type": "node", "id": 2319910929, "lat": 12.9501809, "lon": 77.7000183}, {"type": "node", "id": 2319910930, "lat": 12.9502247, "lon": 77.699819}, {"type": "node", "id": 2319910931, "lat": 12.9502872, "lon": 77.7000429}, {"type": "node", "id": 2319910933, "lat": 12.9503055, "lon": 77.7000475}, {"type": "node", "id": 2319910934, "lat": 12.9503309, "lon": 77.6998436}, {"type": "node", "id": 2319910936, "lat": 12.9503541, "lon": 77.6998454}, {"type": "node", "id": 2319910937, "lat": 12.9503804, "lon": 77.7000665}, {"type": "node", "id": 2319910941, "lat": 12.9504291, "lon": 77.6998644}, {"type": "node", "id": 2319910989, "lat": 12.9530336, "lon": 77.7004859}, {"type": "node", "id": 2319910991, "lat": 12.9530516, "lon": 77.7003793}, {"type": "node", "id": 2319910993, "lat": 12.9531841, "lon": 77.7005126}, {"type": "node", "id": 2319910994, "lat": 12.9532021, "lon": 77.700406}, {"type": "node", "id": 2319910999, "lat": 12.9565837, "lon": 77.7018526}, {"type": "node", "id": 2319911000, "lat": 12.9565816, "lon": 77.7017543}, {"type": "node", "id": 2319911002, "lat": 12.9566952, "lon": 77.7017517}, {"type": "node", "id": 2319911003, "lat": 12.9566974, "lon": 77.70185}, {"type": "node", "id": 2319911042, "lat": 12.9597323, "lon": 77.7016747}, {"type": "node", "id": 2319911044, "lat": 12.9597522, "lon": 77.7015307}, {"type": "node", "id": 2319911045, "lat": 12.9598707, "lon": 77.7016949}, {"type": "node", "id": 2319911048, "lat": 12.9598943, "lon": 77.7016933}, {"type": "node", "id": 2319911049, "lat": 12.9599092, "lon": 77.701569}, {"type": "node", "id": 2319911051, "lat": 12.9600054, "lon": 77.7017074}, {"type": "node", "id": 2319911052, "lat": 12.9600204, "lon": 77.7015831}, {"type": "node", "id": 2319911109, "lat": 12.9621075, "lon": 77.7020658}, {"type": "node", "id": 2319911112, "lat": 12.9621349, "lon": 77.7018853}, {"type": "node", "id": 2319911115, "lat": 12.9622371, "lon": 77.7020864}, {"type": "node", "id": 2319911117, "lat": 12.9622644, "lon": 77.701906}, {"type": "node", "id": 2343560266, "lat": 12.9124334, "lon": 77.6812577, "tags": {"name": "Foodworld", "shop": "department_store"}}, {"type": "node", "id": 2411957604, "lat": 12.9991801, "lon": 77.6826708}, {"type": "node", "id": 2411957607, "lat": 12.9991662, "lon": 77.682918}, {"type": "node", "id": 2411957612, "lat": 12.9998279, "lon": 77.6824956}, {"type": "node", "id": 2411957614, "lat": 12.999472, "lon": 77.6829395}, {"type": "node", "id": 2411957616, "lat": 12.9993425, "lon": 77.6825339}, {"type": "node", "id": 2411957620, "lat": 12.9993413, "lon": 77.6825774}, {"type": "node", "id": 2411957627, "lat": 13.0003083, "lon": 77.6829128}, {"type": "node", "id": 2411957629, "lat": 12.9992354, "lon": 77.6826627}, {"type": "node", "id": 2411957634, "lat": 12.9992499, "lon": 77.6825774}, {"type": "node", "id": 2480865069, "lat": 12.9930746, "lon": 77.6617576, "tags": {"addr:city": "Bangalore", "addr:floor": "G", "addr:housename": "Gopalan Signature Mall", "addr:housenumber": "6", "addr:postcode": "560016", "addr:street": "Swamy Vivekananda Road", "air_conditioning": "yes", "check_date": "2025-11-16", "level": "0", "name": "Imagine Store", "opening_hours": "Mo-Su 10:30-21:30", "payment:credit_cards": "yes", "payment:debit_cards": "yes", "phone": "+91 80 67142201", "shop": "electronics", "website": "https://imaginestore.org/", "wheelchair": "yes"}}, {"type": "node", "id": 2481030017, "lat": 12.9929234, "lon": 77.6614361, "tags": {"addr:city": "Bangalore", "addr:floor": "G", "addr:housename": "Gopalan Signature Mall", "addr:postcode": "560016", "addr:street": "Swamy Vivekananda Road", "check_date": "2025-11-16", "level": "0", "name": "Wildcrafts", "payment:cash": "yes", "payment:credit_cards": "yes", "payment:debit_cards": "yes", "shop": "bag", "website": "https://www.wildcraft.in/"}}, {"type": "node", "id": 2481030018, "lat": 12.9928929, "lon": 77.6613161, "tags": {"addr:city": "Bangalore", "addr:housename": "Gopalan Signature Mall", "addr:postcode": "560016", "addr:street": "Swamy Vivekananda Road", "shop": "watches"}}, {"type": "node", "id": 2481972745, "lat": 12.9941566, "lon": 77.6637825, "tags": {"addr:city": "Bangalore", "addr:postcode": "560016", "addr:street": "Swamy Vivekananda Road (Old Madras Road)", "brand": "Bata", "brand:wikidata": "Q688082", "name": "Bata", "name:kn": "\u0cac\u0cbe\u0c9f\u0cbe", "shop": "shoes"}}, {"type": "node", "id": 2546856143, "lat": 12.9943562, "lon": 77.7005789}, {"type": "node", "id": 2559685786, "lat": 12.9551259, "lon": 77.7288886}, {"type": "node", "id": 2559685789, "lat": 12.9558806, "lon": 77.7284757}, {"type": "node", "id": 2559685797, "lat": 12.9551864, "lon": 77.7284436}, {"type": "node", "id": 2559685798, "lat": 12.9559205, "lon": 77.728953}, {"type": "node", "id": 2576980814, "lat": 13.020964, "lon": 77.765359, "tags": {"shop": "laundry"}}, {"type": "node", "id": 2576992116, "lat": 13.0232165, "lon": 77.7706022, "tags": {"name": "Casio", "shop": "supermarket"}}, {"type": "node", "id": 2576992248, "lat": 13.0156184, "lon": 77.7621341, "tags": {"name": "A-One", "shop": "supermarket"}}, {"type": "node", "id": 2576992372, "lat": 13.0156759, "lon": 77.7622897, "tags": {"name": "Chef Bakers", "shop": "bakery"}}, {"type": "node", "id": 2578488013, "lat": 12.9595562, "lon": 77.7466475}, {"type": "node", "id": 2578488016, "lat": 12.9598429, "lon": 77.7460488}, {"type": "node", "id": 2578488041, "lat": 12.9566336, "lon": 77.7442523, "tags": {"check_date": "2025-07-12", "name": "Tyre Empire", "shop": "car_repair"}}, {"type": "node", "id": 2578488054, "lat": 12.9601945, "lon": 77.746226}, {"type": "node", "id": 2578488061, "lat": 12.9599079, "lon": 77.7468248}, {"type": "node", "id": 2586282573, "lat": 13.0205405, "lon": 77.7649482, "tags": {"name": "Namdhari's Fresh", "opening_hours": "Mo-Su 06:00-21:30", "shop": "supermarket"}}, {"type": "node", "id": 2614430552, "lat": 12.9663501, "lon": 77.7179203}, {"type": "node", "id": 2614430553, "lat": 12.9659058, "lon": 77.7181173}, {"type": "node", "id": 2614430554, "lat": 12.9660359, "lon": 77.718075}, {"type": "node", "id": 2623077569, "lat": 12.9228223, "lon": 77.6730622, "tags": {"name": "G-Mart now VILLAGE", "opening_hours": "Mo-Th,Sa 08:00-21:30", "shop": "supermarket"}}, {"type": "node", "id": 2623251201, "lat": 12.9597697, "lon": 77.7476631, "tags": {"name": "Krspy Kreme Doughnuts", "shop": "bakery", "wheelchair": "yes"}}, {"type": "node", "id": 2624213813, "lat": 13.0214757, "lon": 77.6575717, "tags": {"name": "HomeBuzz", "shop": "supermarket"}}, {"type": "node", "id": 2625682492, "lat": 13.0187144, "lon": 77.6570813}, {"type": "node", "id": 2625682495, "lat": 13.0188429, "lon": 77.6571561}, {"type": "node", "id": 2625682497, "lat": 13.0187375, "lon": 77.6573468}, {"type": "node", "id": 2625682499, "lat": 13.018609, "lon": 77.6572721}, {"type": "node", "id": 2625715090, "lat": 13.0191488, "lon": 77.6562873, "tags": {"name": "Bhagath Motors - Hero", "shop": "motorcycle"}}, {"type": "node", "id": 2631448303, "lat": 12.9696972, "lon": 77.7489967, "tags": {"name": "Best Little Hair House", "shop": "hairdresser"}}, {"type": "node", "id": 2696373225, "lat": 12.9583725, "lon": 77.66084, "tags": {"addr:city": "Bangalore", "addr:postcode": "560017", "name": "Family Mall", "phone": "+919886849999", "shop": "supermarket", "wheelchair": "no"}}, {"type": "node", "id": 2841271801, "lat": 12.956521, "lon": 77.709481, "tags": {"addr:city": "Marathhalli", "addr:street": "Varthur Road", "check_date": "2024-04-22", "name": "Sweet Chariot", "shop": "bakery", "wheelchair": "no"}}, {"type": "node", "id": 2987147480, "lat": 12.9964249, "lon": 77.7649169, "tags": {"name": "P K Store", "shop": "supermarket"}}, {"type": "node", "id": 3004219875, "lat": 13.0276893, "lon": 77.6616598, "tags": {"name": "Food Mart", "operator": "Food Mart", "shop": "supermarket"}}, {"type": "node", "id": 3023136405, "lat": 12.9654449, "lon": 77.6492, "tags": {"name": "Paris Bakery", "shop": "bakery"}}, {"type": "node", "id": 3047997926, "lat": 12.9683557, "lon": 77.6512329, "tags": {"addr:city": "Bangalore", "addr:postcode": "560075", "addr:street": "7th Cross 10th main", "amenity": "cafe", "brand": "Sweet Chariot", "cuisine": "cake", "delivery": "yes", "name": "Sweet Chariot", "shop": "pastry", "smoking": "no", "takeaway": "yes"}}, {"type": "node", "id": 3080231329, "lat": 12.9129239, "lon": 77.6804146, "tags": {"addr:housename": "Shivganga Complex", "addr:housenumber": "65/1C", "addr:postcode": "560035", "addr:street": "Sarjapur Road", "designation": "Salon for Ladies", "name": "Lakme Salon", "shop": "hairdresser", "source": "Survey", "website": "https://lakmeindia.com/lakme-salon"}}, {"type": "node", "id": 3118034347, "lat": 12.9586331, "lon": 77.7464693, "tags": {"addr:city": "Whitefield, Bangalore", "addr:postcode": "560066", "addr:street": "Whitefield Main Road", "name": "Bodycraft", "shop": "beauty", "wheelchair": "no"}}, {"type": "node", "id": 3118034348, "lat": 12.9583012, "lon": 77.7466303, "tags": {"addr:city": "Whitefield, Bangalore", "addr:postcode": "560066", "addr:street": "off Whitefield Main Road", "name": "Mangala Bakery", "shop": "bakery"}}, {"type": "node", "id": 3174395519, "lat": 12.97193, "lon": 77.68042, "tags": {"name": "Vinayaka Bharat Gas", "operator": "Bharat Gas", "shop": "kitchen"}}, {"type": "node", "id": 3199513534, "lat": 12.9130879, "lon": 77.6793061, "tags": {"brand": "Sweet Chariot", "delivery": "yes", "name": "Sweet Chariot", "shop": "pastry", "source": "GPS", "takeaway": "yes"}}, {"type": "node", "id": 3199513535, "lat": 12.9132176, "lon": 77.6790163, "tags": {"name": "Totoodo", "note": "Mobile phone repairs", "shop": "mobile_phone_repair", "source": "GPS"}}, {"type": "node", "id": 3199513536, "lat": 12.9132343, "lon": 77.6789845, "tags": {"name": "Univercell", "shop": "mobile_phone"}}, {"type": "node", "id": 3202584504, "lat": 12.9781291, "lon": 77.6755345, "tags": {"name": "Yousuf Fish Stall", "shop": "seafood"}}, {"type": "node", "id": 3202584686, "lat": 12.9780265, "lon": 77.6754957, "tags": {"addr:city": "Bangalore", "addr:postcode": "560093", "addr:street": "19th Cross, Kaggadasapura", "name": "Fresh Reach", "opening_hours": "07:00-22:00", "shop": "supermarket"}}, {"type": "node", "id": 3217667994, "lat": 12.9127433, "lon": 77.6798026, "tags": {"level": "0", "name": "Pai International", "shop": "electronics", "source": "survey"}}, {"type": "node", "id": 3217667996, "lat": 12.9124842, "lon": 77.6804597, "tags": {"name": "Sangeetha", "name:kn": "\u0cb8\u0c82\u0c97\u0cc0\u0ca4", "shop": "mobile_phone", "source": "survey"}}, {"type": "node", "id": 3220549889, "lat": 12.9117097, "lon": 77.6817923, "tags": {"name": "Health & Glow", "shop": "cosmetics"}}, {"type": "node", "id": 3226844854, "lat": 12.9657689, "lon": 77.718506, "tags": {"name": "Mom & Me", "shop": "baby_goods", "source": "survey"}}, {"type": "node", "id": 3236447734, "lat": 12.9571171, "lon": 77.702098, "tags": {"name": "Gili Diamond", "shop": "jewelry"}}, {"type": "node", "id": 3245633759, "lat": 12.924063, "lon": 77.6716755, "tags": {"name": "Evok", "shop": "department_store"}}, {"type": "node", "id": 3254676847, "lat": 12.996875, "lon": 77.6950139}, {"type": "node", "id": 3254676848, "lat": 12.995813, "lon": 77.6956186}, {"type": "node", "id": 3254676849, "lat": 12.9966568, "lon": 77.6949606}, {"type": "node", "id": 3261284861, "lat": 12.9556751, "lon": 77.7124115, "tags": {"brand": "Westside", "brand:wikidata": "Q123376384", "level": "2", "name": "Westside", "shop": "clothes"}}, {"type": "node", "id": 3298073311, "lat": 12.9591825, "lon": 77.6549606, "tags": {"fair_trade": "yes", "name": "Khadi Katir", "shop": "variety_store"}}, {"type": "node", "id": 3298073312, "lat": 12.9587059, "lon": 77.6554904, "tags": {"shop": "hardware"}}, {"type": "node", "id": 3298916254, "lat": 12.956878, "lon": 77.6569913, "tags": {"name": "Fresh Bakes", "shop": "bakery", "wheelchair": "no"}}, {"type": "node", "id": 3298916257, "lat": 12.9566493, "lon": 77.656194, "tags": {"name": "New Annadata Vegetables", "shop": "greengrocer"}}, {"type": "node", "id": 3300076795, "lat": 12.9551944, "lon": 77.653336, "tags": {"name": "Bake Point", "shop": "bakery"}}, {"type": "node", "id": 3300076797, "lat": 12.9559406, "lon": 77.6535335, "tags": {"name": "Easy Supermarket", "shop": "supermarket", "wheelchair": "no"}}, {"type": "node", "id": 3300077806, "lat": 12.9590295, "lon": 77.6543829, "tags": {"name": "Daily Bread", "shop": "bakery"}}, {"type": "node", "id": 3300077807, "lat": 12.958827, "lon": 77.6543248, "tags": {"brand": "More", "brand:wikidata": "Q6910891", "diet:halal": "yes", "level": "0", "name": "More", "name:kn": "\u0cae\u0ccb\u0cb0\u0ccd", "opening_hours": "Mo-Su 08:00-21:00", "operator": "More", "shop": "supermarket", "wheelchair": "limited"}}, {"type": "node", "id": 3304100395, "lat": 12.9598738, "lon": 77.6497781, "tags": {"name": "Rehabilitation Aids Workshop by Women with Disabilities - RAWWD", "shop": "medical_supply", "website": "https://www.ddpuk.org/rawwd.html"}}, {"type": "node", "id": 3340457189, "lat": 12.9533697, "lon": 77.6525624, "tags": {"name": "Top in Town", "shop": "supermarket", "wheelchair": "no"}}, {"type": "node", "id": 3349525358, "lat": 12.9636312, "lon": 77.7481543, "tags": {"brand": "Just Bake", "brand:wikidata": "Q124374121", "check_date": "2025-05-24", "delivery": "yes", "name": "Just Bake", "name:kn": "\u0c9c\u0cb8\u0ccd\u0c9f\u0ccd \u0cac\u0cc7\u0c95\u0ccd", "shop": "pastry", "takeaway": "yes"}}, {"type": "node", "id": 3370054596, "lat": 12.9782252, "lon": 77.644835, "tags": {"addr:street": "Chinmaya Mission Hospital Road", "brand": "Thomas Cook", "brand:wikidata": "Q2141800", "brand:wikipedia": "en:Thomas Cook Group", "name": "Thomas Cook", "name:kn": "\u0ca4\u0ccb\u0cae\u0cb8\u0ccd \u0c95\u0cc1\u0c95\u0ccd", "shop": "travel_agency"}}, {"type": "node", "id": 3370054597, "lat": 12.9782601, "lon": 77.6448569, "tags": {"name": "YLG Salon & Spa", "shop": "hairdresser"}}, {"type": "node", "id": 3370084882, "lat": 12.9783782, "lon": 77.6455915, "tags": {"addr:street": "Chinmaya Mission Hospital Road", "name": "Cake Genie", "shop": "confectionery"}}, {"type": "node", "id": 3370095850, "lat": 12.9773153, "lon": 77.6411712, "tags": {"addr:street": "100 Feet Road(S K Karim Khan Road)", "name": "River", "shop": "motorcycle", "wheelchair": "no"}}, {"type": "node", "id": 3370164256, "lat": 12.9736663, "lon": 77.642755, "tags": {"addr:street": "6th Main Road", "name": "Citizen", "payment:credit_cards": "yes", "payment:debit_cards": "yes", "shop": "watches"}}, {"type": "node", "id": 3370164260, "lat": 12.9737172, "lon": 77.6435692, "tags": {"amenity": "clinic", "healthcare": "clinic", "name": "Rajan's Speech & Hearing Center", "payment:credit_cards": "yes", "payment:debit_cards": "yes", "shop": "hearing_aids"}}, {"type": "node", "id": 3370164262, "lat": 12.9737944, "lon": 77.6435121, "tags": {"name": "Sakhin", "payment:credit_cards": "yes", "payment:debit_cards": "yes", "shop": "clothes"}}, {"type": "node", "id": 3370164263, "lat": 12.9738071, "lon": 77.6432342, "tags": {"addr:street": "6th Main Road", "name": "Shree Mithai", "shop": "confectionery"}}, {"type": "node", "id": 3370189993, "lat": 12.9739797, "lon": 77.6414178, "tags": {"addr:street": "6th Main Road", "name": "Cross Currents", "shop": "clothes"}}, {"type": "node", "id": 3370387995, "lat": 12.9736904, "lon": 77.6420995, "tags": {"name": "Monarch Ergonomics", "payment:credit_cards": "yes", "payment:debit_cards": "yes", "shop": "furniture"}}, {"type": "node", "id": 3426287293, "lat": 13.0572273, "lon": 77.6276673, "tags": {"addr:city": "Bangalore", "addr:housenumber": "Thanisandra", "addr:postcode": "560077", "addr:street": "Rachenahalli Main Road", "name": "Daily Fresh Bakery", "operator": "Daily Fresh Bakery", "shop": "bakery"}}, {"type": "node", "id": 3451646811, "lat": 12.9950608, "lon": 77.6633033, "tags": {"name": "Fair Price Shop", "shop": "yes"}}, {"type": "node", "id": 3451667183, "lat": 12.9895434, "lon": 77.6638556, "tags": {"name": "Modern Men's Saloon", "shop": "hairdresser"}}, {"type": "node", "id": 3451695090, "lat": 12.9903798, "lon": 77.6627418}, {"type": "node", "id": 3451695091, "lat": 12.9902721, "lon": 77.6628482}, {"type": "node", "id": 3451695092, "lat": 12.9904247, "lon": 77.6628482}, {"type": "node", "id": 3455993660, "lat": 12.9624841, "lon": 77.6815725}, {"type": "node", "id": 3455993661, "lat": 12.9625551, "lon": 77.6816053}, {"type": "node", "id": 3455993662, "lat": 12.9626751, "lon": 77.6813313}, {"type": "node", "id": 3455993663, "lat": 12.9626041, "lon": 77.6812985}, {"type": "node", "id": 3463462865, "lat": 12.9253521, "lon": 77.6746772, "tags": {"brand": "Vodafone", "brand:wikidata": "Q122141", "brand:wikipedia": "en:Vodafone", "name": "Vodafone", "shop": "mobile_phone"}}, {"type": "node", "id": 3463462867, "lat": 12.9254409, "lon": 77.6746531, "tags": {"name": "Sunrise Enterprises", "shop": "shoes"}}, {"type": "node", "id": 3477797061, "lat": 12.9247119, "lon": 77.6745255, "tags": {"name": "Oh Wow", "shop": "beauty"}}, {"type": "node", "id": 3477797062, "lat": 12.9244234, "lon": 77.6739836, "tags": {"name": "Philips Light Lounge", "shop": "electronics"}}, {"type": "node", "id": 3477797065, "lat": 12.9243384, "lon": 77.6737717, "tags": {"name": "Rosh Roy's", "shop": "beauty"}}, {"type": "node", "id": 3477797066, "lat": 12.9242307, "lon": 77.6719912, "tags": {"highway": "street_lamp", "name": "Idea Device;Street Lamp", "shop": "mobile_phone", "working": "no"}}, {"type": "node", "id": 3477797252, "lat": 12.9247146, "lon": 77.6744798, "tags": {"name": "Aishwarya Interiors", "shop": "interior_decoration"}}, {"type": "node", "id": 3477797686, "lat": 12.9246075, "lon": 77.674214, "tags": {"brand": "TVS", "brand:wikidata": "Q3300084", "name": "TVS service center", "shop": "motorcycle"}}, {"type": "node", "id": 3477797687, "lat": 12.9244534, "lon": 77.6739997, "tags": {"brand": "TVS", "brand:wikidata": "Q3300084", "name": "TVS Indian Motors Agencies", "shop": "motorcycle"}}, {"type": "node", "id": 3477797690, "lat": 12.9243332, "lon": 77.6737469, "tags": {"name": "Amba Bajaj", "name:kn": "\u0c85\u0c82\u0cac \u0cac\u0c9c\u0cbe\u0c9c\u0ccd", "shop": "motorcycle"}}, {"type": "node", "id": 3477878357, "lat": 12.9242503, "lon": 77.6720932, "tags": {"check_date": "2022-11-08", "name": "Ravindu Toyota", "shop": "car"}}, {"type": "node", "id": 3502671539, "lat": 12.9568631, "lon": 77.6995011}, {"type": "node", "id": 3502671540, "lat": 12.9568418, "lon": 77.6996076}, {"type": "node", "id": 3502671541, "lat": 12.9566012, "lon": 77.6995569}, {"type": "node", "id": 3502671542, "lat": 12.9566225, "lon": 77.6994504}, {"type": "node", "id": 3502710555, "lat": 12.9569147, "lon": 77.6992125}, {"type": "node", "id": 3502710556, "lat": 12.9568862, "lon": 77.6993239}, {"type": "node", "id": 3502710557, "lat": 12.9566427, "lon": 77.6992584}, {"type": "node", "id": 3502710558, "lat": 12.9566712, "lon": 77.6991469}, {"type": "node", "id": 3502711160, "lat": 12.9568028, "lon": 77.6988083}, {"type": "node", "id": 3502711161, "lat": 12.9567944, "lon": 77.6988975}, {"type": "node", "id": 3502711164, "lat": 12.9565468, "lon": 77.6988729}, {"type": "node", "id": 3502711165, "lat": 12.9565552, "lon": 77.6987837}, {"type": "node", "id": 3504298459, "lat": 12.9708205, "lon": 77.6414932}, {"type": "node", "id": 3504298460, "lat": 12.9708249, "lon": 77.6416425}, {"type": "node", "id": 3504298461, "lat": 12.9706907, "lon": 77.6416466}, {"type": "node", "id": 3504298462, "lat": 12.9706864, "lon": 77.6414973}, {"type": "node", "id": 3505672110, "lat": 12.9510308, "lon": 77.6999554}, {"type": "node", "id": 3505672111, "lat": 12.9508547, "lon": 77.6999291}, {"type": "node", "id": 3505672112, "lat": 12.9508274, "lon": 77.7001214}, {"type": "node", "id": 3505672115, "lat": 12.9510034, "lon": 77.7001477}, {"type": "node", "id": 3505712342, "lat": 12.9516219, "lon": 77.7020993}, {"type": "node", "id": 3505712343, "lat": 12.9513833, "lon": 77.702047}, {"type": "node", "id": 3505712344, "lat": 12.9513163, "lon": 77.7023686}, {"type": "node", "id": 3505712345, "lat": 12.9515549, "lon": 77.7024209}, {"type": "node", "id": 3506424470, "lat": 12.9659059, "lon": 77.6495491, "tags": {"shop": "kitchen"}}, {"type": "node", "id": 3525590207, "lat": 12.9995383, "lon": 77.6825266}, {"type": "node", "id": 3525724784, "lat": 12.938752, "lon": 77.6965123}, {"type": "node", "id": 3525726999, "lat": 12.9388231, "lon": 77.6965397}, {"type": "node", "id": 3525727005, "lat": 12.9388237, "lon": 77.6963165}, {"type": "node", "id": 3530136643, "lat": 12.9712082, "lon": 77.6893109}, {"type": "node", "id": 3530136664, "lat": 12.9713302, "lon": 77.689314}, {"type": "node", "id": 3530136665, "lat": 12.9713279, "lon": 77.6894177}, {"type": "node", "id": 3530494520, "lat": 12.9601689, "lon": 77.7017553}, {"type": "node", "id": 3530494525, "lat": 12.9601843, "lon": 77.7016156}, {"type": "node", "id": 3530494550, "lat": 12.9602462, "lon": 77.7017642}, {"type": "node", "id": 3530494566, "lat": 12.9602616, "lon": 77.7016245}, {"type": "node", "id": 3530533271, "lat": 12.9924794, "lon": 77.7005309}, {"type": "node", "id": 3530533290, "lat": 12.9926975, "lon": 77.6999633}, {"type": "node", "id": 3530533330, "lat": 12.9931261, "lon": 77.7007925}, {"type": "node", "id": 3530557441, "lat": 12.9573801, "lon": 77.70483}, {"type": "node", "id": 3530557442, "lat": 12.9573849, "lon": 77.7048619}, {"type": "node", "id": 3530557451, "lat": 12.957415, "lon": 77.7048245}, {"type": "node", "id": 3530557452, "lat": 12.9574198, "lon": 77.7048564}, {"type": "node", "id": 3532275639, "lat": 13.0177114, "lon": 77.7619422}, {"type": "node", "id": 3532275640, "lat": 13.0177195, "lon": 77.7617495}, {"type": "node", "id": 3532275643, "lat": 13.017807, "lon": 77.7619464}, {"type": "node", "id": 3532275644, "lat": 13.0178151, "lon": 77.7617537}, {"type": "node", "id": 3533025239, "lat": 12.9702981, "lon": 77.6545118}, {"type": "node", "id": 3533025241, "lat": 12.9703013, "lon": 77.6543469}, {"type": "node", "id": 3533025269, "lat": 12.9704065, "lon": 77.6545141}, {"type": "node", "id": 3533025271, "lat": 12.9704098, "lon": 77.6543491}, {"type": "node", "id": 3533078304, "lat": 12.9559189, "lon": 77.7197823}, {"type": "node", "id": 3533078305, "lat": 12.9559265, "lon": 77.7196433}, {"type": "node", "id": 3533078322, "lat": 12.9559633, "lon": 77.7197849}, {"type": "node", "id": 3533078323, "lat": 12.956139, "lon": 77.7196556}, {"type": "node", "id": 3533130219, "lat": 12.9840276, "lon": 77.7075554}, {"type": "node", "id": 3533130223, "lat": 12.9840513, "lon": 77.7078472}, {"type": "node", "id": 3533130292, "lat": 12.9842568, "lon": 77.7075357}, {"type": "node", "id": 3533130296, "lat": 12.9842961, "lon": 77.7080187}, {"type": "node", "id": 3534766327, "lat": 13.019711, "lon": 77.7096923}, {"type": "node", "id": 3534766343, "lat": 13.0197702, "lon": 77.7098173}, {"type": "node", "id": 3534766353, "lat": 13.0198615, "lon": 77.7096295}, {"type": "node", "id": 3534766365, "lat": 13.0199265, "lon": 77.7097397}, {"type": "node", "id": 3535355873, "lat": 12.9733751, "lon": 77.6802895}, {"type": "node", "id": 3535355891, "lat": 12.973404, "lon": 77.680199}, {"type": "node", "id": 3535355934, "lat": 12.9734468, "lon": 77.6803136}, {"type": "node", "id": 3535723434, "lat": 13.0103787, "lon": 77.6432612}, {"type": "node", "id": 3535723451, "lat": 13.0104621, "lon": 77.6432879}, {"type": "node", "id": 3535723458, "lat": 13.010494, "lon": 77.6431828}, {"type": "node", "id": 3541633264, "lat": 12.9498556, "lon": 77.6991666, "tags": {"brand": "Reliance Digital", "brand:wikidata": "Q7311012", "level": "0,1", "name": "Reliance Digital", "name:kn": "\u0cb0\u0cbf\u0cb2\u0cbe\u0caf\u0ca8\u0ccd\u0cb8\u0ccd \u0ca1\u0cbf\u0c9c\u0cbf\u0c9f\u0cb2\u0ccd", "shop": "electronics"}}, {"type": "node", "id": 3541784346, "lat": 12.9510313, "lon": 77.6993866, "tags": {"brand": "Bata", "brand:wikidata": "Q688082", "name": "Bata", "name:kn": "\u0cac\u0cbe\u0c9f\u0cbe", "shop": "shoes"}}, {"type": "node", "id": 3541784355, "lat": 12.9512457, "lon": 77.6994108, "tags": {"check_date": "2023-07-20", "level": "0", "name": "Wood You Furniture Gallery", "shop": "furniture", "source": "survey"}}, {"type": "node", "id": 3541798349, "lat": 12.9531017, "lon": 77.6998005, "tags": {"level": "1", "name": "Gilma", "shop": "Kitchen_stoves_and_hobs"}}, {"type": "node", "id": 3541804537, "lat": 12.9530628, "lon": 77.6997905, "tags": {"level": "1", "name": "FOSROC", "shop": "Construction_solutions"}}, {"type": "node", "id": 3541804538, "lat": 12.953056, "lon": 77.6997932, "tags": {"level": "1", "name": "New Vishwas", "shop": "hardware"}}, {"type": "node", "id": 3541804539, "lat": 12.9530285, "lon": 77.6997871, "tags": {"level": "1", "name": "Karnataka Home appliances", "shop": "electronics"}}, {"type": "node", "id": 3541805767, "lat": 12.9532301, "lon": 77.699786, "tags": {"level": "0", "name": "Chef Baker's", "shop": "bakery"}}, {"type": "node", "id": 3541837748, "lat": 12.9525362, "lon": 77.7002962, "tags": {"indoor_seating": "no", "outdoor_seating": "no", "shop": "bakery", "takeaway": "only"}}, {"type": "node", "id": 3541852017, "lat": 12.9522121, "lon": 77.7002358, "tags": {"level": "0,1", "name": "Godrej Interio", "shop": "furniture"}}, {"type": "node", "id": 3541856181, "lat": 12.9521977, "lon": 77.7002345, "tags": {"level": "0", "name": "Computer Store", "shop": "electronics"}}, {"type": "node", "id": 3541860633, "lat": 12.952118, "lon": 77.7002171, "tags": {"level": "0", "name": "Auto Pulse Bajaj", "phone": "080 4147 8287", "shop": "motorcycle"}}, {"type": "node", "id": 3541860634, "lat": 12.9521585, "lon": 77.7002251, "tags": {"level": "1", "name": "digiTechh", "shop": "electronics"}}, {"type": "node", "id": 3541860635, "lat": 12.9521141, "lon": 77.7002412, "tags": {"level": "2", "name": "Four Wall", "shop": "kitchen_stove_&_hob"}}, {"type": "node", "id": 3541884417, "lat": 12.95162, "lon": 77.7000655, "tags": {"brand": "LG", "brand:wikidata": "Q162345", "level": "0", "name": "LG", "shop": "electronics"}}, {"type": "node", "id": 3541884419, "lat": 12.9515691, "lon": 77.7000494, "tags": {"level": "2", "name": "v3 slim care", "shop": "beauty"}}, {"type": "node", "id": 3541965709, "lat": 12.951441, "lon": 77.700056, "tags": {"level": "0", "shop": "furniture"}}, {"type": "node", "id": 3541965710, "lat": 12.9512338, "lon": 77.7000138, "tags": {"name": "Furniture Home", "shop": "furniture"}}, {"type": "node", "id": 3541965711, "lat": 12.9510979, "lon": 77.7000272, "tags": {"level": "0;1", "name": "Unilet", "shop": "electronics"}}, {"type": "node", "id": 3541965712, "lat": 12.9510561, "lon": 77.7000084, "tags": {"level": "2", "name": "Slim Talk Studio", "shop": "beauty"}}, {"type": "node", "id": 3541965714, "lat": 12.9509672, "lon": 77.7000084, "tags": {"level": "0", "name": "Titan Helios", "shop": "watches", "website": "https://stores.titan.co.in/titan-world-watch-shop-marathahalli-bengaluru-186756/Home"}}, {"type": "node", "id": 3541965715, "lat": 12.9509228, "lon": 77.7000326, "tags": {"level": "2", "name": "Body Cover", "shop": "beauty"}}, {"type": "node", "id": 3541965716, "lat": 12.9507921, "lon": 77.6999065, "tags": {"level": "0", "name": "Coir", "shop": "mattresses"}}, {"type": "node", "id": 3541965720, "lat": 12.9488622, "lon": 77.6996002}, {"type": "node", "id": 3541965721, "lat": 12.9488138, "lon": 77.6997717}, {"type": "node", "id": 3541965722, "lat": 12.9487711, "lon": 77.699759}, {"type": "node", "id": 3541965723, "lat": 12.9488195, "lon": 77.6995876}, {"type": "node", "id": 3545987052, "lat": 12.9700078, "lon": 77.7357382}, {"type": "node", "id": 3545987053, "lat": 12.9698392, "lon": 77.7354586}, {"type": "node", "id": 3545987054, "lat": 12.9697661, "lon": 77.735629}, {"type": "node", "id": 3545987057, "lat": 12.9700809, "lon": 77.7355677}, {"type": "node", "id": 3549225498, "lat": 12.9303971, "lon": 77.6759912}, {"type": "node", "id": 3549225499, "lat": 12.9303993, "lon": 77.6760925}, {"type": "node", "id": 3549225507, "lat": 12.9305297, "lon": 77.6759882}, {"type": "node", "id": 3549225509, "lat": 12.9305319, "lon": 77.6760895}, {"type": "node", "id": 3567736691, "lat": 12.98743, "lon": 77.7104223}, {"type": "node", "id": 3567736692, "lat": 12.9874435, "lon": 77.710197}, {"type": "node", "id": 3567737198, "lat": 12.9878043, "lon": 77.7104458}, {"type": "node", "id": 3585649114, "lat": 12.9727109, "lon": 77.6784437}, {"type": "node", "id": 3585649116, "lat": 12.9727381, "lon": 77.678312}, {"type": "node", "id": 3585649120, "lat": 12.9728657, "lon": 77.6784774}, {"type": "node", "id": 3592522262, "lat": 13.0496118, "lon": 77.7607274}, {"type": "node", "id": 3592522263, "lat": 13.0496352, "lon": 77.760621}, {"type": "node", "id": 3592522264, "lat": 13.0497464, "lon": 77.7607586}, {"type": "node", "id": 3592522265, "lat": 13.0497698, "lon": 77.7606521}, {"type": "node", "id": 3600011163, "lat": 12.964659, "lon": 77.7153297}, {"type": "node", "id": 3600011164, "lat": 12.9646821, "lon": 77.7154476}, {"type": "node", "id": 3600011165, "lat": 12.9648441, "lon": 77.7152916}, {"type": "node", "id": 3600011166, "lat": 12.9648672, "lon": 77.7154095}, {"type": "node", "id": 3606926074, "lat": 12.9563135, "lon": 77.700711, "tags": {"check_date": "2025-06-25", "level": "0", "name": "RR Cycle Mart", "shop": "bicycle", "wheelchair": "no"}}, {"type": "node", "id": 3646921989, "lat": 12.9634063, "lon": 77.7083686, "tags": {"address": "270, 60 Feet Main Rd, AECS Layout - A Block, AECS Layout, Marathahalli, Bengaluru, Karnataka 560037", "name": "Ragam Mega Store", "opening_hours": "Mo-Su 08:30-22:30", "phone": "08028541140", "shop": "supermarket"}}, {"type": "node", "id": 3652343938, "lat": 12.9687014, "lon": 77.7495959, "tags": {"brand": "Bata", "brand:wikidata": "Q688082", "check_date": "2025-08-19", "level": "0", "name": "Bata", "name:kn": "\u0cac\u0cbe\u0c9f\u0cbe", "shop": "shoes"}}, {"type": "node", "id": 3722417685, "lat": 12.9756859, "lon": 77.6671061, "tags": {"addr:city": "Bangalore", "addr:postcode": "560075", "addr:street": "GM Palya Main Road", "name": "Kaveri Departmental Store", "opening_hours": "08:00-22:00", "operator": "Private", "shop": "supermarket"}}, {"type": "node", "id": 3725710383, "lat": 12.9729236, "lon": 77.6413215, "tags": {"addr:street": "100 Feet Road(S K Karim Khan Road)", "brand": "Jack & Jones", "brand:wikidata": "Q6077665", "brand:wikipedia": "en:Jack & Jones", "check_date": "2023-10-08", "name": "Jack & Jones", "shop": "clothes", "wheelchair": "limited"}}, {"type": "node", "id": 3725711440, "lat": 12.9718983, "lon": 77.6413609, "tags": {"addr:street": "100 Feet Road(S K Karim Khan Road)", "name": "Srishti", "payment:credit_cards": "yes", "payment:debit_cards": "yes", "shop": "jewelry"}}, {"type": "node", "id": 3725718663, "lat": 12.9709362, "lon": 77.6414142, "tags": {"addr:street": "100 Feet Road", "brand": "Forever New", "brand:wikidata": "Q119221929", "clothes": "women", "name": "Forever New", "name:kn": "\u0cab\u0cbe\u0cb0\u0cc6\u0cb5\u0cb0\u0ccd \u0ca8\u0ccd\u0caf\u0cc2", "shop": "clothes"}}, {"type": "node", "id": 3725719337, "lat": 12.9708954, "lon": 77.6409413, "tags": {"addr:street": "100 Feet Road", "name": "Cirrus", "shop": "yes"}}, {"type": "node", "id": 3725719338, "lat": 12.9708756, "lon": 77.641015, "tags": {"name": "Ellee Dress", "shop": "clothes"}}, {"type": "node", "id": 3725719343, "lat": 12.9709468, "lon": 77.6409377, "tags": {"addr:street": "100 Feet Road", "name": "Janki Corp Limited", "shop": "yes"}}, {"type": "node", "id": 3725719349, "lat": 12.9709509, "lon": 77.6410572, "tags": {"addr:street": "100 Feet Road", "name": "Suvasa", "shop": "furniture"}}, {"type": "node", "id": 3725719354, "lat": 12.9708605, "lon": 77.6410649, "tags": {"addr:street": "100 Feet Road", "name": "W", "shop": "clothes"}}, {"type": "node", "id": 3725721584, "lat": 12.9723325, "lon": 77.6414221, "tags": {"addr:street": "100 Feet Road", "name": "Cosmetic Studio", "payment:credit_cards": "yes", "payment:debit_cards": "yes", "shop": "beauty"}}, {"type": "node", "id": 3725721586, "lat": 12.9723783, "lon": 77.6414728, "tags": {"name": "Samsonite", "payment:credit_cards": "yes", "payment:debit_cards": "yes", "shop": "electronics", "wheelchair": "limited"}}, {"type": "node", "id": 3725872056, "lat": 12.972076, "lon": 77.6409726, "tags": {"addr:street": "100 Feet Road", "brand": "Allen Solly", "brand:wikidata": "Q110036995", "name": "Allen Solly", "name:kn": "\u0c85\u0cb2\u0cc6\u0ca8\u0ccd \u0cb8\u0cca\u0cb2\u0cbf", "shop": "clothes", "wheelchair": "no"}}, {"type": "node", "id": 3725872058, "lat": 12.9719867, "lon": 77.640917, "tags": {"addr:street": "100 Feet Road( S K Karim Khan Road)", "name": "New glamour spa", "shop": "beauty"}}, {"type": "node", "id": 3725872059, "lat": 12.9717347, "lon": 77.6410001, "tags": {"addr:street": "100 Feet Road", "brand": "Pantaloons", "brand:wikidata": "Q7131643", "name": "Pantaloons", "name:kn": "\u0caa\u0ccd\u0caf\u0cbe\u0c82\u0c9f\u0cb2\u0cc2\u0ca8\u0ccd\u0cb8\u0ccd", "payment:credit_cards": "yes", "payment:debit_cards": "yes", "shop": "clothes", "wheelchair": "limited"}}, {"type": "node", "id": 3725872060, "lat": 12.9720123, "lon": 77.6409807, "tags": {"addr:street": "100 Feet Road", "name": "Soma shop", "shop": "clothes"}}, {"type": "node", "id": 3725872061, "lat": 12.9719085, "lon": 77.6409824, "tags": {"addr:street": "100 Feet Road( S K Karim Khan Road)", "brand": "Van Heusen", "brand:wikidata": "Q67551865", "clothes": "men", "name": "Van Heusen", "name:kn": "\u0cb5\u0ccd\u0caf\u0cbe\u0ca8\u0ccd \u0cb9\u0cc1\u0cb8\u0cc7\u0ca8\u0ccd", "shop": "clothes", "wheelchair": "no"}}, {"type": "node", "id": 3725882444, "lat": 12.9712452, "lon": 77.6409708, "tags": {"brand": "Brooks Brothers", "brand:wikidata": "Q929722", "name": "Brooks Brothers", "shop": "clothes"}}, {"type": "node", "id": 3725882445, "lat": 12.9715662, "lon": 77.6410001, "tags": {"name": "Kaya skin bar", "shop": "beauty"}}, {"type": "node", "id": 3725882448, "lat": 12.9712187, "lon": 77.6409749, "tags": {"name": "Steve madden", "shop": "yes"}}, {"type": "node", "id": 3725882449, "lat": 12.9711882, "lon": 77.6409763, "tags": {"addr:street": "100 Feet Road", "name": "The Thai spa", "shop": "beauty"}}, {"type": "node", "id": 3725882450, "lat": 12.9715875, "lon": 77.6409974, "tags": {"shop": "clothes"}}, {"type": "node", "id": 3726036584, "lat": 12.970601, "lon": 77.6415567, "tags": {"name": "BiteMe Cupcakes", "name:kn": "\u0cac\u0cc8\u0c9f\u0ccd \u0cae\u0cbf \u0c95\u0caa\u0ccd\u0c95\u0cc7\u0c95\u0ccd\u0cb8\u0ccd", "payment:credit_cards": "yes", "payment:debit_cards": "yes", "shop": "bakery"}}, {"type": "node", "id": 3726036585, "lat": 12.9706239, "lon": 77.6416155, "tags": {"name": "GKB Opticals", "name:kn": "\u0c9c\u0cbf\u0c95\u0cc6\u0cac\u0cbf \u0c86\u0caa\u0ccd\u0c9f\u0cbf\u0c95\u0cb2\u0ccd\u0cb8\u0ccd", "shop": "optician"}}, {"type": "node", "id": 3726036587, "lat": 12.970529, "lon": 77.6414742, "tags": {"addr:street": "100 Feet Road(S K Karim Khan Road)", "branch": "Smart Plaza", "brand": "Samsung", "brand:wikidata": "Q20718", "name": "Samsung", "payment:credit_cards": "yes", "payment:debit_cards": "yes", "shop": "electronics"}}, {"type": "node", "id": 3726036590, "lat": 12.9706397, "lon": 77.6416816, "tags": {"craft": "tiler", "name": "The Stone Store", "shop": "yes"}}, {"type": "node", "id": 3761268951, "lat": 12.9571037, "lon": 77.7008753, "tags": {"check_date": "2023-08-05", "level": "0", "name": "New Jagat Associates", "shop": "mobile_phone", "source": "survey", "toilets": "no"}}, {"type": "node", "id": 3761286869, "lat": 12.956351, "lon": 77.7007162, "tags": {"check_date": "2023-08-06", "level": "1", "name": "Panicker's Travels & Real Estate", "shop": "travel_agency"}}, {"type": "node", "id": 3761299366, "lat": 12.9570945, "lon": 77.7009028, "tags": {"level": "0", "name": "Hot Spot", "shop": "mobile_phone"}}, {"type": "node", "id": 3761304078, "lat": 12.9571024, "lon": 77.7008445, "tags": {"brand": "Samsonite", "brand:wikidata": "Q1203426", "level": "0", "name": "Samsonite- American Tourister Factory Outlet", "shop": "bag"}}, {"type": "node", "id": 3761304085, "lat": 12.9571142, "lon": 77.7007048, "tags": {"level": "0", "name": "Anu Opticians", "shop": "optician"}}, {"type": "node", "id": 3761306339, "lat": 12.957105, "lon": 77.7008014, "tags": {"level": "0", "name": "The Phone Store", "shop": "mobile_phone"}}, {"type": "node", "id": 3761309507, "lat": 12.9565818, "lon": 77.7007699, "tags": {"check_date": "2023-08-06", "level": "0", "name": "I-Fab", "shop": "bag"}}, {"type": "node", "id": 3761309916, "lat": 12.9567092, "lon": 77.7008303, "tags": {"level": "1", "name": "Little Dreams", "shop": "gift", "wheelchair": "limited"}}, {"type": "node", "id": 3761357857, "lat": 12.9565641, "lon": 77.7007646, "tags": {"check_date": "2023-08-06", "level": "0", "name": "Veda Optical Gallery", "shop": "optician", "wheelchair": "no"}}, {"type": "node", "id": 3761373133, "lat": 12.9600613, "lon": 77.6451094, "tags": {"level": "0", "name": "Siri's Corner", "shop": "dairy"}}, {"type": "node", "id": 3761382502, "lat": 12.9600708, "lon": 77.6450117, "tags": {"addr:street": "Old Airport Road", "level": "0", "name": "Faber-Franke", "shop": "hardware"}}, {"type": "node", "id": 3761384035, "lat": 12.9600729, "lon": 77.644947, "tags": {"level": "0", "name": "Just Bake", "shop": "bakery"}}, {"type": "node", "id": 3761384036, "lat": 12.9600853, "lon": 77.6449886, "tags": {"level": "-1", "name": "Fenesta Windows", "shop": "hardware"}}, {"type": "node", "id": 3761386469, "lat": 12.9600702, "lon": 77.6448451, "tags": {"addr:street": "Old Airport Road", "level": "0", "name": "Reliance Mobile Store", "shop": "mobile_phone"}}, {"type": "node", "id": 3761415286, "lat": 12.9596795, "lon": 77.6566533, "tags": {"brand": "Maruti Suzuki", "brand:wikidata": "Q963718", "name": "Maruti Suzuki", "name:kn": "\u0cae\u0cbe\u0cb0\u0cc1\u0ca4\u0cbf \u0cb8\u0cc1\u0c9c\u0cc1\u0c95\u0cbf", "shop": "car"}}, {"type": "node", "id": 3761425968, "lat": 12.9594544, "lon": 77.6506494, "tags": {"level": "0", "name": "Go printers", "shop": "Printer"}}, {"type": "node", "id": 3761426230, "lat": 12.95947, "lon": 77.6505957, "tags": {"level": "1", "name": "Gangu Offset Printers", "shop": "Printer"}}, {"type": "node", "id": 3761461918, "lat": 12.958969, "lon": 77.6521143, "tags": {"brand": "Nilgiri's", "brand:wikidata": "Q17079567", "name": "Nilgiri's", "name:kn": "\u0ca8\u0cc0\u0cb2\u0ccd\u0c97\u0cbf\u0cb0\u0cc0\u0cb8\u0ccd", "shop": "supermarket"}}, {"type": "node", "id": 3761463627, "lat": 12.9592219, "lon": 77.6550272, "tags": {"level": "-1", "name": "Khadi Kutir", "shop": "clothes"}}, {"type": "node", "id": 3761477898, "lat": 12.9592193, "lon": 77.654608, "tags": {"brand": "Naturals", "brand:wikidata": "Q125728261", "name": "Naturals", "shop": "beauty"}}, {"type": "node", "id": 3761490983, "lat": 12.9588709, "lon": 77.6601223, "tags": {"level": "0", "name": "Sweet Chariots", "shop": "bakery"}}, {"type": "node", "id": 3778299724, "lat": 12.9298938, "lon": 77.6838388, "tags": {"brand": "Hyundai", "check_date": "2024-12-23", "name": "Adwaith Hyundai", "service:vehicle:car_repair": "yes", "service:vehicle:new_car_sales": "yes", "shop": "car"}}, {"type": "node", "id": 3778342761, "lat": 12.9298531, "lon": 77.6831469, "tags": {"name": "Delice", "shop": "bakery"}}, {"type": "node", "id": 3780939335, "lat": 12.961357, "lon": 77.6459596, "tags": {"name": "Karthik's delicious Parlour", "shop": "dairy"}}, {"type": "node", "id": 3780939336, "lat": 12.9613296, "lon": 77.6459542, "tags": {"clothes": "children", "name": "Tiny Bees", "shop": "clothes"}}, {"type": "node", "id": 3780945463, "lat": 12.9619969, "lon": 77.6459729, "tags": {"level": "0", "name": "TyreTec", "shop": "tyres"}}, {"type": "node", "id": 3781001372, "lat": 12.960637, "lon": 77.6458408, "tags": {"name": "India Motors", "shop": "car"}}, {"type": "node", "id": 3783578335, "lat": 12.956742, "lon": 77.7018997, "tags": {"name": "Nandi Hardware & Sanitaryware", "shop": "hardware", "wheelchair": "no"}}, {"type": "node", "id": 3783578336, "lat": 12.956742, "lon": 77.7019319, "tags": {"name": "Sun Times", "shop": "watches"}}, {"type": "node", "id": 3783586442, "lat": 12.9570986, "lon": 77.7017274, "tags": {"level": "0", "name": "Eye Life Opticians", "shop": "optician"}}, {"type": "node", "id": 3783592591, "lat": 12.9571142, "lon": 77.7016469, "tags": {"brand": "Liberty", "brand:wikidata": "Q6541947", "check_date": "2025-06-14", "level": "0", "name": "Liberty Exclusive Showroom", "shop": "shoes"}}, {"type": "node", "id": 3784885354, "lat": 12.9571174, "lon": 77.7005747, "tags": {"level": "0", "name": "SmartCafe", "shop": "mobile_phone"}}, {"type": "node", "id": 3784893363, "lat": 12.9571626, "lon": 77.7000533, "tags": {"check_date": "2024-12-29", "level": "0,1", "name": "Farico", "shop": "fabric"}}, {"type": "node", "id": 3785981721, "lat": 12.9571169, "lon": 77.700724, "tags": {"check_date": "2025-06-14", "level": "0", "name": "Sangeetha Mobiles", "name:kn": "\u0cb8\u0c82\u0c97\u0cc0\u0ca4", "payment:mastercard": "yes", "payment:visa": "yes", "shop": "mobile_phone"}}, {"type": "node", "id": 3785986687, "lat": 12.9571497, "lon": 77.7001515, "tags": {"check_date": "2024-12-29", "level": "0,1", "name": "The Raymonds Shop", "shop": "clothes"}}, {"type": "node", "id": 3786002759, "lat": 12.9571939, "lon": 77.7000016, "tags": {"level": "0,-1", "name": "Woodlands Factory Outlet", "shop": "shoes"}}, {"type": "node", "id": 3786002836, "lat": 12.9571939, "lon": 77.6999801, "tags": {"name": "BSA", "shop": "bicycle"}}, {"type": "node", "id": 3786002837, "lat": 12.9571782, "lon": 77.6998621, "tags": {"name": "Live In Jeans", "shop": "clothes"}}, {"type": "node", "id": 3787440182, "lat": 12.9962854, "lon": 77.6577102, "tags": {"addr:city": "Bangalore", "addr:postcode": "560038", "name": "Nandini Milk Parlor", "operator": "Nandini", "payment:cash": "yes", "payment:paytm": "yes", "payment:upi": "yes", "shop": "supermarket"}}, {"type": "node", "id": 3797601852, "lat": 12.9301816, "lon": 77.6842618, "tags": {"check_date": "2025-04-06", "name": "pnb Housing", "shop": "money_lender"}}, {"type": "node", "id": 3797612835, "lat": 12.9566572, "lon": 77.7013888, "tags": {"level": "0,1", "name": "Srinivasa Enterprises", "shop": "hardware", "wheelchair": "no"}}, {"type": "node", "id": 3803204973, "lat": 12.9571137, "lon": 77.701818, "tags": {"name": "Shoba", "shop": "supermarket"}}, {"type": "node", "id": 3803774587, "lat": 12.9571159, "lon": 77.7017731, "tags": {"level": "2", "name": "Lighting Palace", "shop": "lighting"}}, {"type": "node", "id": 3804506763, "lat": 12.959884, "lon": 77.649722, "tags": {"level": "0", "name": "Cheshire Homes Crafts", "shop": "craft"}}, {"type": "node", "id": 3804522072, "lat": 12.9590472, "lon": 77.6620821, "tags": {"level": "0,1,2", "name": "Regal India Tours & Travels Pvt Ltd.", "shop": "travel_agency"}}, {"type": "node", "id": 3805157268, "lat": 12.9577434, "lon": 77.7008842, "tags": {"level": "1", "name": "Probikes & Fitness", "shop": "bicycle"}}, {"type": "node", "id": 3805159716, "lat": 12.957795, "lon": 77.7009621, "tags": {"check_date": "2022-07-23", "level": "0", "name": "Khazana Jewellery", "shop": "jewelry"}}, {"type": "node", "id": 3805531457, "lat": 12.9571982, "lon": 77.69979, "tags": {"level": "0", "name": "VIP Outlet", "shop": "bag"}}, {"type": "node", "id": 3805531458, "lat": 12.9571877, "lon": 77.6997993, "tags": {"level": "1", "name": "Jawed Habib Hair & Beauty", "shop": "hairdresser"}}, {"type": "node", "id": 3805617087, "lat": 12.956735, "lon": 77.6982165, "tags": {"name": "Lotto", "shop": "shoes"}},