{"version": 0.6, "generator": "Overpass API 0.7.62.8 e802775f", "osm3s": {"timestamp_osm_base": "2025-11-29T17:11:55Z", "copyright": "The data included in this document is from www.openstreetmap.org. The data is made available under ODbL."}, "elements": [{"type": "node", "id": 3154880568, "lat": 15.1431642, "lon": 76.9420005, "tags": {"name": "MG Automobiles", "shop": "car"}}, {"type": "node", "id": 3155573953, "lat": 15.1506979, "lon": 76.8997749, "tags": {"name": "Point Blank Jeans and Shirts", "shop": "clothes"}}, {"type": "node", "id": 3155683318, "lat": 15.1429647, "lon": 76.9277369, "tags": {"name": "Bata Shoes", "name:kn": "\u0cac\u0cbe\u0c9f\u0cbe", "shop": "clothes"}}, {"type": "node", "id": 3155683532, "lat": 15.1420741, "lon": 76.9276886, "tags": {"name": "Bangalore Bakery", "shop": "bakery"}}, {"type": "node", "id": 3155683574, "lat": 15.1439746, "lon": 76.9264092, "tags": {"name": "Cotton World", "shop": "clothes"}}, {"type": "node", "id": 3155739932, "lat": 15.1424935, "lon": 76.9222379, "tags": {"name": "Mahadev Sweet Home", "shop": "department_store"}}, {"type": "node", "id": 4857534121, "lat": 15.1148011, "lon": 77.243375, "tags": {"shop": "cosmetics"}}, {"type": "node", "id": 8399952205, "lat": 15.1517254, "lon": 76.9026688, "tags": {"name": "Seven Hills Supermarket", "shop": "supermarket"}}, {"type": "node", "id": 9570483044, "lat": 15.1521298, "lon": 76.9038436, "tags": {"name": "Nexa", "shop": "car"}}]}