{"version": 0.6, "generator": "Overpass API 0.7.62.8 e802775f", "osm3s": {"timestamp_osm_base": "2025-11-29T17:14:00Z", "copyright": "The data included in this document is from www.openstreetmap.org. The data is made available under ODbL."}, "elements": [{"type": "node", "id": 12237515704, "lat": 15.4903037, "lon": 76.8834694, "tags": {"addr:city": "Bellary", "addr:district": "Bellary", "addr:housenumber": "111", "addr:postcode": "583121", "addr:street": "Devinagar camp", "name": "Medical shop", "opening_hours": "Mo-Su 10:00-22:00", "phone": "08396220045", "shop": "medical_supply"}}, {"type": "node", "id": 12250389149, "lat": 15.6237387, "lon": 76.8923216}, {"type": "node", "id": 12250389152, "lat": 15.6234766, "lon": 76.8922988}, {"type": "node", "id": 12250389156, "lat": 15.6234401, "lon": 76.8927505}, {"type": "node", "id": 12250389160, "lat": 15.6237021, "lon": 76.8927733}, {"type": "way", "id": 1323847820, "nodes": [12250389149, 12250389152, 12250389156, 12250389160, 12250389149], "tags": {"addr:city": "Bellary", "addr:district": "Bellary", "addr:housenumber": "SH 10", "addr:postcode": "583121", "addr:street": "Pathange Arcade", "building": "yes", "name": "More Supermarket", "opening_hours": "Mo-Su 08:00-22:00", "payment:cash": "yes", "payment:google_pay": "yes", "payment:phonepe": "yes", "phone": "081081 38000", "shop": "supermarket", "website": "https://moreretail.in/"}}]}