{"version": 0.6, "generator": "Overpass API 0.7.62.8 e802775f", "osm3s": {"timestamp_osm_base": "2025-11-29T17:01:35Z", "copyright": "The data included in this document is from www.openstreetmap.org. The data is made available under ODbL."}, "elements": [{"type": "node", "id": 1740039315, "lat": 28.0593349, "lon": 95.3324063, "tags": {"amenity": "bank"}}, {"type": "node", "id": 4662565057, "lat": 28.0632534, "lon": 95.3288745, "tags": {"amenity": "bank", "brand": "Axis Bank", "brand:wikidata": "Q2003549", "brand:wikipedia": "en:Axis Bank", "name": "Axis Bank", "name:en": "Axis Bank", "website": "https://www.axisbank.com"}}, {"type": "node", "id": 4662630618, "lat": 28.0581362, "lon": 95.3319966}, {"type": "node", "id": 4662630619, "lat": 28.0581362, "lon": 95.332179}, {"type": "node", "id": 4662630620, "lat": 28.0581504, "lon": 95.3323775}, {"type": "node", "id": 4662630621, "lat": 28.0581163, "lon": 95.3324457}, {"type": "node", "id": 4662630622, "lat": 28.0579517, "lon": 95.3324457}, {"type": "node", "id": 4662630623, "lat": 28.0579421, "lon": 95.3321736}, {"type": "node", "id": 4662630624, "lat": 28.0579563, "lon": 95.3319859}, {"type": "node", "id": 4662636797, "lat": 28.0578285, "lon": 95.3326779, "tags": {"amenity": "bank", "brand": "HDFC Bank", "brand:wikidata": "Q631047", "brand:wikipedia": "en:HDFC Bank", "name": "HDFC Bank", "short_name": "HDFC", "website": "https://www.hdfcbank.com"}}, {"type": "way", "id": 472039931, "nodes": [4662630618, 4662630619, 4662630620, 4662630621, 4662630622, 4662630623, 4662630624, 4662630618], "tags": {"amenity": "bank", "brand": "State Bank of India", "brand:wikidata": "Q1340361", "brand:wikipedia": "en:State Bank of India", "building": "yes", "name": "State Bank of India", "short_name": "SBI", "website": "https://www.sbi.co.in"}}]}