{"version": 0.6, "generator": "Overpass API 0.7.62.8 e802775f", "osm3s": {"timestamp_osm_base": "2025-11-29T17:07:44Z", "copyright": "The data included in this document is from www.openstreetmap.org. The data is made available under ODbL."}, "elements": [{"type": "node", "id": 2587675294, "lat": 16.82755, "lon": 76.8124, "tags": {"amenity": "school", "name": "Ambedkar Nagar School, Mudbool", "name:kn": "\u0c85\u0c82\u0cac\u0cc7\u0ca1\u0ccd\u0c95\u0cb0\u0ccd \u0ca8\u0c97\u0cb0 \u0cb6\u0cbe\u0cb2\u0cc6", "operator": "Government", "school_code": "29330710403", "taluk": "Shahapur"}}, {"type": "node", "id": 2632325858, "lat": 16.93057, "lon": 77.21624, "tags": {"amenity": "school", "name": "Government High School, Motanahalli", "name:kn": "\u0cb8\u0cb0\u0ccd\u0c95\u0cbe\u0cb0\u0cbf \u0caa\u0ccd\u0cb0\u0ccc\u0ca1\u0cb6\u0cbe\u0cb2\u0cc6 \u0cae\u0ccb\u0c9f\u0ca8\u0cb3\u0ccd", "operator": "Government", "taluk": "Yadgir"}}, {"type": "node", "id": 2632325862, "lat": 16.77551, "lon": 77.22873, "tags": {"amenity": "school", "name": "Government High School, Ramasamudra", "name:kn": "\u0cb8\u0cb0\u0ccd\u0c95\u0cbe\u0cb0\u0cbf \u0caa\u0ccd\u0cb0\u0ccc\u0ca1\u0cb6\u0cbe\u0cb2\u0cc6 \u0cb0\u0cbe\u0cae\u0cb8\u0cae\u0cc1\u0ca6\u0ccd\u0cb0", "operator": "Government", "taluk": "Yadgir"}}, {"type": "node", "id": 2632325894, "lat": 16.87195, "lon": 77.08229, "tags": {"amenity": "school", "name": "Government Lower Primary School Gulgundi Tanda", "name:kn": "\u0cb8\u0cb0\u0ccd\u0c95\u0cbe\u0cb0\u0cbf \u0c95\u0cbf\u0cb0\u0cbf\u0caf \u0caa\u0ccd\u0cb0\u0cbe\u0ca5\u0cae\u0cbf\u0c95 \u0cb6\u0cbe\u0cb2\u0cc6", "operator": "Government", "taluk": "Yadgir"}}, {"type": "node", "id": 2632325900, "lat": 16.83989, "lon": 77.11516, "tags": {"amenity": "school", "name": "Government Lower Primary School Jakanal Tanda", "name:kn": "\u0cb8\u0cb0\u0ccd\u0c95\u0cbe\u0cb0\u0cbf \u0c95\u0cbf\u0cb0\u0cbf\u0caf \u0caa\u0ccd\u0cb0\u0cbe\u0ca5\u0cae\u0cbf\u0c95 \u0cb6\u0cbe\u0cb2\u0cc6", "operator": "Government", "taluk": "Yadgir"}}, {"type": "node", "id": 2632325989, "lat": 16.80982, "lon": 77.13312, "tags": {"amenity": "school", "name": "Government Higher Primary School Chamanalli", "name:kn": "\u0cb8\u0cb0\u0ccd\u0c95\u0cbe\u0cb0\u0cbf \u0cb9\u0cbf\u0cb0\u0cbf\u0caf \u0caa\u0ccd\u0cb0\u0cbe\u0ca5\u0cae\u0cbf\u0c95 \u0cb6\u0cbe\u0cb2\u0cc6 \u0c9a\u0cbe\u0cae\u0ca8\u0cb9\u0cb3\u0ccd\u0cb3\u0cbf", "operator": "Government", "taluk": "Yadgir"}}, {"type": "node", "id": 2632325997, "lat": 16.92993, "lon": 77.24737, "tags": {"amenity": "school", "name": "Government Higher Primary School, Chintkunta", "name:kn": "\u0cb8\u0cb0\u0ccd\u0c95\u0cbe\u0cb0\u0cbf \u0cb9\u0cbf\u0cb0\u0cbf\u0caf \u0caa\u0ccd\u0cb0\u0cbe\u0ca5\u0cae\u0cbf\u0c95 \u0cb6\u0cbe\u0cb2\u0cc6 \u0c9a\u0cbf\u0c82\u0ca4\u0c95\u0cc1\u0c82\u0c9f\u0cbe", "operator": "Government", "taluk": "Yadgir"}}, {"type": "node", "id": 2632326005, "lat": 16.84596, "lon": 77.09431, "tags": {"amenity": "school", "name": "Higher Primary School", "name:kn": "\u0cb8\u0cb0\u0ccd\u0c95\u0cbe\u0cb0\u0cbf \u0cb9\u0cbf\u0cb0\u0cbf\u0caf \u0caa\u0ccd\u0cb0\u0cbe\u0ca5\u0cae\u0cbf\u0c95 \u0cb6\u0cbe\u0cb2\u0cc6 \u0c85\u0cb2\u0ccd\u0cb2\u0cbf\u0caa\u0cc1\u0cb0", "operator": "Government", "place": "Allipur", "taluk": "Yadgir"}}, {"type": "node", "id": 2632326018, "lat": 16.79521, "lon": 77.21172, "tags": {"amenity": "school", "name": "Government Higher Primary School Ashinala", "name:kn": "\u0cb8\u0cb0\u0ccd\u0c95\u0cbe\u0cb0\u0cbf \u0cb9\u0cbf\u0cb0\u0cbf\u0caf \u0caa\u0ccd\u0cb0\u0cbe\u0ca5\u0cae\u0cbf\u0c95 \u0cb6\u0cbe\u0cb2\u0cc6 \u0c86\u0cb6\u0ca8\u0cbe\u0cb3", "operator": "Government", "taluk": "Yadgir"}}, {"type": "node", "id": 2632326025, "lat": 16.90302, "lon": 77.13102, "tags": {"amenity": "school", "name": "Government Higher Primary School Bachawara", "name:kn": "\u0cb8\u0cb0\u0ccd\u0c95\u0cbe\u0cb0\u0cbf \u0cb9\u0cbf\u0cb0\u0cbf\u0caf \u0caa\u0ccd\u0cb0\u0cbe\u0ca5\u0cae\u0cbf\u0c95 \u0cb6\u0cbe\u0cb2\u0cc6", "operator": "Government", "taluk": "Yadgir"}}, {"type": "node", "id": 2632326039, "lat": 16.80202, "lon": 77.14214, "tags": {"addr:place": "Bandalli", "amenity": "school", "name": "Government Higher Primary School", "name:kn": "\u0cb8\u0cb0\u0ccd\u0c95\u0cbe\u0cb0\u0cbf \u0cb9\u0cbf\u0cb0\u0cbf\u0caf \u0caa\u0ccd\u0cb0\u0cbe\u0ca5\u0cae\u0cbf\u0c95 \u0cb6\u0cbe\u0cb2\u0cc6 \u0cac\u0c82\u0ca6\u0cb3\u0ccd\u0cb3\u0cbf", "operator": "Government"}}, {"type": "node", "id": 2632326045, "lat": 16.82295, "lon": 77.21377, "tags": {"amenity": "school", "name": "Government Higher Primary School Belagera", "name:kn": "\u0cb8\u0cb0\u0ccd\u0c95\u0cbe\u0cb0\u0cbf \u0cb9\u0cbf\u0cb0\u0cbf\u0caf \u0caa\u0ccd\u0cb0\u0cbe\u0ca5\u0cae\u0cbf\u0c95 \u0cb6\u0cbe\u0cb2\u0cc6 \u0cac\u0cc6\u0cb3\u0c97\u0cc7\u0cb0", "operator": "Government", "taluk": "Yadgir"}}, {"type": "node", "id": 2632326052, "lat": 16.77476, "lon": 77.14213, "tags": {"amenity": "school", "name": "Government Higher Primary School Boiwada Yadgir", "name:kn": "\u0cb8\u0cb0\u0ccd\u0c95\u0cbe\u0cb0\u0cbf \u0cb9\u0cbf\u0cb0\u0cbf\u0caf \u0caa\u0ccd\u0cb0\u0cbe\u0ca5\u0cae\u0cbf\u0c95 \u0cb6\u0cbe\u0cb2\u0cc6", "operator": "Government"}}, {"type": "node", "id": 2632326184, "lat": 16.8509064, "lon": 77.1570675, "tags": {"amenity": "school", "name": "Government Higher Primary School Hattikuni", "name:kn": "\u0cb8\u0cb0\u0ccd\u0c95\u0cbe\u0cb0\u0cbf \u0cb9\u0cbf\u0cb0\u0cbf\u0caf \u0caa\u0ccd\u0cb0\u0cbe\u0ca5\u0cae\u0cbf\u0c95 \u0cb6\u0cbe\u0cb2\u0cc6 \u0cb9\u0ca4\u0ccd\u0ca4\u0cbf\u0c95\u0cc1\u0ca3\u0cbf", "operator": "Government", "taluk": "Yadgir"}}, {"type": "node", "id": 2632326191, "lat": 16.81615, "lon": 77.18217, "tags": {"addr:place": "Honagera", "amenity": "school", "name": "Higher Primary School", "name:kn": "\u0cb8\u0cb0\u0ccd\u0c95\u0cbe\u0cb0\u0cbf \u0cb9\u0cbf\u0cb0\u0cbf\u0caf \u0caa\u0ccd\u0cb0\u0cbe\u0ca5\u0cae\u0cbf\u0c95 \u0cb6\u0cbe\u0cb2\u0cc6 \u0cb9\u0cca\u0ca8\u0c97\u0cc7\u0cb0\u0cbe", "operator": "Government", "taluk": "Yadgir"}}, {"type": "node", "id": 2632326192, "lat": 16.8430877, "lon": 77.1171931, "tags": {"amenity": "school", "name": "Government Higher Primary School Horuncha Tanda", "name:kn": "\u0cb8\u0cb0\u0ccd\u0c95\u0cbe\u0cb0\u0cbf \u0cb9\u0cbf\u0cb0\u0cbf\u0caf \u0caa\u0ccd\u0cb0\u0cbe\u0ca5\u0cae\u0cbf\u0c95 \u0cb6\u0cbe\u0cb2\u0cc6", "operator": "Government", "taluk": "Yadgir"}}, {"type": "node", "id": 2632326193, "lat": 16.83884, "lon": 77.13606, "tags": {"amenity": "school", "name": "Government Higher Primary School Horuncha", "name:kn": "\u0cb8\u0cb0\u0ccd\u0c95\u0cbe\u0cb0\u0cbf \u0cb9\u0cbf\u0cb0\u0cbf\u0caf \u0caa\u0ccd\u0cb0\u0cbe\u0ca5\u0cae\u0cbf\u0c95 \u0cb6\u0cbe\u0cb2\u0cc6 \u0cb9\u0cca\u0cb0\u0cc1\u0c82\u0c9a\u0cbe", "operator": "Government", "taluk": "Yadgir"}}, {"type": "node", "id": 2632326225, "lat": 16.8254, "lon": 77.08953, "tags": {"amenity": "school", "name": "Government Higher Primary School Kanchagarhalli", "name:kn": "\u0cb8\u0cb0\u0ccd\u0c95\u0cbe\u0cb0\u0cbf \u0cb9\u0cbf\u0cb0\u0cbf\u0caf \u0caa\u0ccd\u0cb0\u0cbe\u0ca5\u0cae\u0cbf\u0c95 \u0cb6\u0cbe\u0cb2\u0cc6 \u0c95\u0c82\u0c9a\u0c97\u0cbe\u0cb0\u0cb9\u0cb3\u0ccd\u0cb3\u0cbf", "operator": "Government", "taluk": "Yadgir"}}, {"type": "node", "id": 2632326231, "lat": 16.85278, "lon": 77.19816, "tags": {"amenity": "school", "name": "Government Higher Primary School Katagi Shahapur", "name:kn": "\u0cb8\u0cb0\u0ccd\u0c95\u0cbe\u0cb0\u0cbf \u0cb9\u0cbf\u0cb0\u0cbf\u0caf \u0caa\u0ccd\u0cb0\u0cbe\u0ca5\u0cae\u0cbf\u0c95 \u0cb6\u0cbe\u0cb2\u0cc6 \u0c95\u0c9f\u0c97\u0cbf \u0cb6\u0cb9\u0cbe\u0caa\u0cc1\u0cb0", "operator": "Government", "taluk": "Yadgir"}}, {"type": "node", "id": 2632326249, "lat": 16.89864, "lon": 77.23976, "tags": {"amenity": "school", "name": "Government Higher Primary School Kotagera", "name:kn": "\u0cb8\u0cb0\u0ccd\u0c95\u0cbe\u0cb0\u0cbf \u0cb9\u0cbf\u0cb0\u0cbf\u0caf \u0caa\u0ccd\u0cb0\u0cbe\u0ca5\u0cae\u0cbf\u0c95 \u0cb6\u0cbe\u0cb2\u0cc6 \u0c95\u0ccb\u0c9f\u0c97\u0cc7\u0cb0\u0cbe", "operator": "Government", "taluk": "Yadgir"}}, {"type": "node", "id": 2632326291, "lat": 16.9279, "lon": 77.21599, "tags": {"amenity": "school", "name": "Government Higher Primary School Motanhalli", "name:kn": "\u0cb8\u0cb0\u0ccd\u0c95\u0cbe\u0cb0\u0cbf \u0cb9\u0cbf\u0cb0\u0cbf\u0caf \u0caa\u0ccd\u0cb0\u0cbe\u0ca5\u0cae\u0cbf\u0c95 \u0cb6\u0cbe\u0cb2\u0cc6 \u0cae\u0ccb\u0c9f\u0ca8\u0cb3\u0ccd", "operator": "Government", "taluk": "Yadgir"}}, {"type": "node", "id": 2632326295, "lat": 16.78025, "lon": 77.1018, "tags": {"amenity": "school", "name": "Government Higher Primary School Mudnal", "name:kn": "\u0cb8\u0cb0\u0ccd\u0c95\u0cbe\u0cb0\u0cbf \u0cb9\u0cbf\u0cb0\u0cbf\u0caf \u0caa\u0ccd\u0cb0\u0cbe\u0ca5\u0cae\u0cbf\u0c95 \u0cb6\u0cbe\u0cb2\u0cc6 \u0cae\u0cc1\u0ca6\u0ccd\u0ca8\u0cbe\u0cb3", "operator": "Government"}}, {"type": "node", "id": 2632326297, "lat": 16.77843, "lon": 77.18318, "tags": {"amenity": "school", "name": "Government Higher Primary School Mundarga", "name:kn": "\u0cb8\u0cb0\u0ccd\u0c95\u0cbe\u0cb0\u0cbf \u0cb9\u0cbf\u0cb0\u0cbf\u0caf \u0caa\u0ccd\u0cb0\u0cbe\u0ca5\u0cae\u0cbf\u0c95 \u0cb6\u0cbe\u0cb2\u0cc6 \u0cae\u0cc1\u0c82\u0ca1\u0cb0\u0c97\u0cbf", "operator": "Government", "taluk": "Yadgir"}}, {"type": "node", "id": 2632326324, "lat": 16.88632, "lon": 77.26296, "tags": {"amenity": "school", "name": "Government Higher Primary School Ramapur (g)", "name:kn": "\u0cb8\u0cb0\u0ccd\u0c95\u0cbe\u0cb0\u0cbf \u0cb9\u0cbf\u0cb0\u0cbf\u0caf \u0caa\u0ccd\u0cb0\u0cbe\u0ca5\u0cae\u0cbf\u0c95 \u0cb6\u0cbe\u0cb2\u0cc6 \u0cb0\u0cbe\u0c82\u0caa\u0cc1\u0cb0", "operator": "Government", "taluk": "Yadgir"}}, {"type": "node", "id": 2632326325, "lat": 16.77147, "lon": 77.23464, "tags": {"amenity": "school", "name": "Government Higher Primary School Ramasamudra", "name:kn": "\u0cb8\u0cb0\u0ccd\u0c95\u0cbe\u0cb0\u0cbf \u0cb9\u0cbf\u0cb0\u0cbf\u0caf \u0caa\u0ccd\u0cb0\u0cbe\u0ca5\u0cae\u0cbf\u0c95 \u0cb6\u0cbe\u0cb2\u0cc6 \u0cb0\u0cbe\u0cae\u0cb8\u0cae\u0cc1\u0ca6\u0ccd\u0cb0", "operator": "Government", "taluk": "Yadgir"}}, {"type": "node", "id": 2910274658, "lat": 16.9413298, "lon": 77.212644}, {"type": "node", "id": 2910274659, "lat": 16.9421338, "lon": 77.2117234}, {"type": "node", "id": 2910274660, "lat": 16.9423482, "lon": 77.2133083}, {"type": "node", "id": 2910274661, "lat": 16.9434585, "lon": 77.2133083}, {"type": "node", "id": 2910274662, "lat": 16.9434892, "lon": 77.2119235}, {"type": "node", "id": 2910274663, "lat": 16.9438031, "lon": 77.2126199}, {"type": "node", "id": 2963946911, "lat": 16.8291063, "lon": 76.8097804}, {"type": "node", "id": 2963946912, "lat": 16.8291576, "lon": 76.8087612}, {"type": "node", "id": 2963946913, "lat": 16.8303335, "lon": 76.808788}, {"type": "node", "id": 2963946914, "lat": 16.8302616, "lon": 76.8096838}, {"type": "node", "id": 2963946915, "lat": 16.8291884, "lon": 76.8096141, "tags": {"amenity": "school", "name": "Kadkol Madivaleshwara Higher Primary School"}}, {"type": "node", "id": 2975320631, "lat": 16.7667429, "lon": 77.1321396}, {"type": "node", "id": 2975320632, "lat": 16.7661643, "lon": 77.1320792}, {"type": "node", "id": 2975321333, "lat": 16.7659527, "lon": 77.1321624}, {"type": "node", "id": 2975321334, "lat": 16.7661586, "lon": 77.1328081}, {"type": "node", "id": 2975321335, "lat": 16.7667682, "lon": 77.1327512}, {"type": "node", "id": 3103642448, "lat": 16.8460967, "lon": 77.0000404, "tags": {"addr:place": "Achola", "amenity": "school", "name": "Government Higher Primary School", "name:kn": "\u0cb8\u0cb0\u0ccd\u0c95\u0cbe\u0cb0\u0cbf \u0cb9\u0cbf\u0cb0\u0cbf\u0caf \u0caa\u0ccd\u0cb0\u0cbe\u0ca5\u0cae\u0cbf\u0c95 \u0cb6\u0cbe\u0cb2\u0cc6"}}, {"type": "node", "id": 3250179707, "lat": 16.7663505, "lon": 77.1320582}, {"type": "node", "id": 3557464567, "lat": 17.1231737, "lon": 76.9415179}, {"type": "node", "id": 3557464568, "lat": 17.1231955, "lon": 76.941695}, {"type": "node", "id": 3557464569, "lat": 17.1232172, "lon": 76.9419524}, {"type": "node", "id": 3557464570, "lat": 17.122843, "lon": 76.9420021}, {"type": "node", "id": 3557464571, "lat": 17.1228135, "lon": 76.9415327}, {"type": "node", "id": 3557465850, "lat": 17.1224124, "lon": 76.9405893}, {"type": "node", "id": 3557465851, "lat": 17.1215819, "lon": 76.9405759}, {"type": "node", "id": 3557465852, "lat": 17.121563, "lon": 76.9411641}, {"type": "node", "id": 3557465853, "lat": 17.121563, "lon": 76.9412647}, {"type": "node", "id": 3557465854, "lat": 17.1215588, "lon": 76.9413832}, {"type": "node", "id": 3557465855, "lat": 17.1215562, "lon": 76.941461}, {"type": "node", "id": 3557465856, "lat": 17.1222355, "lon": 76.941461}, {"type": "node", "id": 3557465857, "lat": 17.1222791, "lon": 76.9412625}, {"type": "node", "id": 3557470087, "lat": 17.1207113, "lon": 76.9420389}, {"type": "node", "id": 3557470088, "lat": 17.1207139, "lon": 76.9424842}, {"type": "node", "id": 3557470089, "lat": 17.1202294, "lon": 76.9426532}, {"type": "node", "id": 3557470090, "lat": 17.1202371, "lon": 76.9420577}, {"type": "node", "id": 3557474369, "lat": 17.1161663, "lon": 76.9398124}, {"type": "node", "id": 3557474370, "lat": 17.1159356, "lon": 76.9398285}, {"type": "node", "id": 3557474371, "lat": 17.1159304, "lon": 76.9398902}, {"type": "node", "id": 3557474372, "lat": 17.1159432, "lon": 76.9400002}, {"type": "node", "id": 3557474373, "lat": 17.116174, "lon": 76.9399868}, {"type": "node", "id": 3557589195, "lat": 17.1225465, "lon": 76.9363263}, {"type": "node", "id": 3557589196, "lat": 17.1224619, "lon": 76.9368225}, {"type": "node", "id": 3557589197, "lat": 17.1216263, "lon": 76.9367313}, {"type": "node", "id": 3557589198, "lat": 17.1216955, "lon": 76.9362271}, {"type": "node", "id": 3557624923, "lat": 17.1236368, "lon": 76.9388856}, {"type": "node", "id": 3557624924, "lat": 17.1229139, "lon": 76.938789}, {"type": "node", "id": 3557624925, "lat": 17.1228985, "lon": 76.9389607}, {"type": "node", "id": 3557624926, "lat": 17.1228729, "lon": 76.9391055}, {"type": "node", "id": 3557624927, "lat": 17.1228626, "lon": 76.9392289}, {"type": "node", "id": 3557624928, "lat": 17.1236111, "lon": 76.9393094}, {"type": "node", "id": 3558114725, "lat": 17.1210385, "lon": 76.9415854}, {"type": "node", "id": 3558114726, "lat": 17.1207305, "lon": 76.9415772}, {"type": "node", "id": 3558114727, "lat": 17.1207289, "lon": 76.9416435}, {"type": "node", "id": 3558114728, "lat": 17.1208686, "lon": 76.9416472}, {"type": "node", "id": 3558114729, "lat": 17.1208628, "lon": 76.941886}, {"type": "node", "id": 3558114730, "lat": 17.1210311, "lon": 76.9418905}, {"type": "node", "id": 3564880708, "lat": 17.1298293, "lon": 76.9365666}, {"type": "node", "id": 3564880709, "lat": 17.1297524, "lon": 76.9365049}, {"type": "node", "id": 3564880710, "lat": 17.1294781, "lon": 76.9368617}, {"type": "node", "id": 3564880711, "lat": 17.129555, "lon": 76.9369314}, {"type": "node", "id": 3564880713, "lat": 17.1296447, "lon": 76.9366068}, {"type": "node", "id": 3564880714, "lat": 17.1295012, "lon": 76.9364996}, {"type": "node", "id": 3564880715, "lat": 17.1293423, "lon": 76.9367436}, {"type": "node", "id": 3564880716, "lat": 17.129473, "lon": 76.9368375}, {"type": "node", "id": 3564880717, "lat": 17.1291065, "lon": 76.9368322}, {"type": "node", "id": 3564880718, "lat": 17.1290398, "lon": 76.9367624}, {"type": "node", "id": 3564880719, "lat": 17.1287476, "lon": 76.9371084}, {"type": "node", "id": 3564880720, "lat": 17.1288322, "lon": 76.9371808}, {"type": "node", "id": 3684462669, "lat": 16.7830071, "lon": 77.0744609, "tags": {"amenity": "school", "name": "Vishwaradhya Residential School", "name:kn": "\u0cb5\u0cbf\u0cb6\u0ccd\u0cb5\u0cb0\u0cbe\u0ca7\u0ccd\u0caf \u0cb5\u0cb8\u0ca4\u0cbf \u0cb6\u0cbe\u0cb2\u0cc6", "wheelchair": "yes"}}, {"type": "way", "id": 287427294, "nodes": [2910274662, 2910274663, 2910274661, 2910274660, 2910274658, 2910274659, 2910274662], "tags": {"amenity": "school", "name": "Morarji Desai Residential School", "name:etymology:wikidata": "Q218661", "name:kn": "\u0cae\u0cc1\u0cb0\u0cbe\u0cb0\u0ccd\u0c9c\u0cbf \u0ca6\u0cc7\u0cb8\u0cbe\u0caf\u0cbf \u0cb6\u0cbe\u0cb2\u0cc6"}}, {"type": "way", "id": 292834066, "nodes": [2963946911, 2963946912, 2963946913, 2963946914, 2963946911], "tags": {"amenity": "school"}}, {"type": "way", "id": 293954555, "nodes": [2975320631, 3250179707, 2975320632, 2975321333, 2975321334, 2975321335, 2975320631], "tags": {"amenity": "school", "name": "Government Junior College", "name:kn": "\u0cb8\u0cb0\u0ccd\u0c95\u0cbe\u0cb0\u0cbf \u0c9c\u0cc2\u0ca8\u0cbf\u0caf\u0cb0\u0ccd \u0c95\u0cbe\u0cb2\u0cc7\u0c9c\u0cc1"}}, {"type": "way", "id": 349964308, "nodes": [3557464567, 3557464568, 3557464569, 3557464570, 3557464571, 3557464567], "tags": {"amenity": "school", "name": "Hindi School", "name:kn": "\u0cb9\u0cbf\u0c82\u0ca6\u0cbf \u0cb6\u0cbe\u0cb2\u0cc6"}}, {"type": "way", "id": 349965187, "nodes": [3557465850, 3557465851, 3557465852, 3557465853, 3557465854, 3557465855, 3557465856, 3557465857, 3557465850], "tags": {"amenity": "school", "name": "Government High School", "name:kn": "\u0cb8\u0cb0\u0ccd\u0c95\u0cbe\u0cb0\u0cbf \u0caa\u0ccd\u0cb0\u0ccc\u0ca2 \u0cb6\u0cbe\u0cb2\u0cc6"}}, {"type": "way", "id": 349966017, "nodes": [3557470087, 3557470088, 3557470089, 3557470090, 3557470087], "tags": {"amenity": "school", "name": "BVM School"}}, {"type": "way", "id": 349966173, "nodes": [3557474369, 3557474370, 3557474371, 3557474372, 3557474373, 3557474369], "tags": {"amenity": "school", "building": "school", "name": "Kudala Sangama Education Society"}}, {"type": "way", "id": 349989369, "nodes": [3557589195, 3557589196, 3557589197, 3557589198, 3557589195], "tags": {"amenity": "school", "name": "Gangamma School", "name:kn": "\u0c97\u0c82\u0c97\u0cae\u0ccd\u0cae \u0cb6\u0cbe\u0cb2\u0cc6"}}, {"type": "way", "id": 349995488, "nodes": [3557624923, 3557624924, 3557624925, 3557624926, 3557624927, 3557624928, 3557624923], "tags": {"amenity": "school", "name": "Government Primary School", "name:kn": "\u0cb8\u0cb0\u0ccd\u0c95\u0cbe\u0cb0\u0cbf \u0caa\u0ccd\u0cb0\u0cbe\u0ca5\u0cae\u0cbf\u0c95 \u0cb6\u0cbe\u0cb2\u0cc6"}}, {"type": "way", "id": 350054437, "nodes": [3558114725, 3558114726, 3558114727, 3558114728, 3558114729, 3558114730, 3558114725], "tags": {"amenity": "school", "name": "Railway School"}}, {"type": "way", "id": 350723474, "nodes": [3564880708, 3564880709, 3564880710, 3564880711, 3564880708], "tags": {"amenity": "school"}}, {"type": "way", "id": 350723475, "nodes": [3564880713, 3564880714, 3564880715, 3564880716, 3564880713], "tags": {"amenity": "school"}}, {"type": "way", "id": 350723476, "nodes": [3564880717, 3564880718, 3564880719, 3564880720, 3564880717], "tags": {"amenity": "school"}}]}