{"version": 0.6, "generator": "Overpass API 0.7.62.8 e802775f", "osm3s": {"timestamp_osm_base": "2025-11-29T17:33:21Z", "copyright": "The data included in this document is from www.openstreetmap.org. The data is made available under ODbL."}, "elements": [{"type": "node", "id": 4598279100, "lat": 11.667035, "lon": 76.6284394, "tags": {"name": "Bandipur", "name:en": "Bandipur", "name:kn": "\u0cac\u0c82\u0ca1\u0cc0\u0caa\u0cc1\u0cb0", "shop": "ticket"}}, {"type": "node", "id": 6808022501, "lat": 11.8070018, "lon": 76.6918504}, {"type": "node", "id": 6808022502, "lat": 11.8070213, "lon": 76.6919063}, {"type": "node", "id": 6808022503, "lat": 11.8068468, "lon": 76.691986}, {"type": "node", "id": 6808022504, "lat": 11.8068236, "lon": 76.6919338}, {"type": "node", "id": 6808028182, "lat": 11.8070542, "lon": 76.6920225}, {"type": "node", "id": 6808028183, "lat": 11.8069683, "lon": 76.6920655}, {"type": "node", "id": 6808028184, "lat": 11.8070089, "lon": 76.6921501}, {"type": "node", "id": 6808032202, "lat": 11.8071221, "lon": 76.6921628}, {"type": "node", "id": 6808032203, "lat": 11.8070432, "lon": 76.6922067}, {"type": "node", "id": 6808032204, "lat": 11.8070909, "lon": 76.6922904}, {"type": "node", "id": 6808032205, "lat": 11.8071736, "lon": 76.692237}, {"type": "node", "id": 6808035285, "lat": 11.8070932, "lon": 76.6921046}, {"type": "node", "id": 6808256732, "lat": 11.8084531, "lon": 76.6883505}, {"type": "node", "id": 6808256733, "lat": 11.8084058, "lon": 76.6883486}, {"type": "node", "id": 6808256734, "lat": 11.8084021, "lon": 76.688396}, {"type": "node", "id": 6808256735, "lat": 11.8084633, "lon": 76.6883922}, {"type": "node", "id": 6808258761, "lat": 11.8072656, "lon": 76.6884388}, {"type": "node", "id": 6808258762, "lat": 11.8072745, "lon": 76.6885595}, {"type": "node", "id": 6808258763, "lat": 11.8073451, "lon": 76.6885651}, {"type": "node", "id": 6808260102, "lat": 11.807348, "lon": 76.6884337}, {"type": "node", "id": 6808278869, "lat": 11.8083974, "lon": 76.6882946}, {"type": "node", "id": 6808278870, "lat": 11.8084531, "lon": 76.6882889}, {"type": "node", "id": 6808278871, "lat": 11.8084049, "lon": 76.6883429}, {"type": "node", "id": 6808300221, "lat": 11.8110711, "lon": 76.6817898}, {"type": "node", "id": 6808300222, "lat": 11.8112103, "lon": 76.6818022}, {"type": "node", "id": 6808300223, "lat": 11.8112038, "lon": 76.6819539}, {"type": "node", "id": 6808300224, "lat": 11.8110469, "lon": 76.6819292}, {"type": "node", "id": 12715806350, "lat": 11.7155754, "lon": 76.6430543, "tags": {"name": "Wildlife Gift Shop (Siddayanapura)", "shop": "gift"}}, {"type": "node", "id": 12715809597, "lat": 11.7153011, "lon": 76.6430269, "tags": {"name": "Tea Stall", "shop": "tea"}}, {"type": "node", "id": 12715814257, "lat": 11.7154258, "lon": 76.6426328, "tags": {"name": "Safari Ticket Counter", "shop": "ticket"}}, {"type": "node", "id": 12715830051, "lat": 11.7154746, "lon": 76.6430342, "tags": {"name": "Wildlife Souvenir Shop", "shop": "gift"}}, {"type": "way", "id": 726148250, "nodes": [6808022501, 6808022502, 6808022503, 6808022504, 6808022501], "tags": {"building": "yes", "shop": "hardware"}}, {"type": "way", "id": 726148422, "nodes": [6808028182, 6808028183, 6808028184, 6808035285, 6808028182], "tags": {"building": "yes", "shop": "car_repair"}}, {"type": "way", "id": 726148548, "nodes": [6808032202, 6808032203, 6808032204, 6808032205, 6808032202], "tags": {"building": "yes", "shop": "motorcycle_repair"}}, {"type": "way", "id": 726174984, "nodes": [6808260102, 6808258761, 6808258762, 6808258763, 6808260102], "tags": {"building": "yes", "shop": "car_repair"}}, {"type": "way", "id": 726175694, "nodes": [6808256732, 6808256733, 6808256734, 6808256735, 6808256732], "tags": {"brand": "Media Markt", "brand:wikidata": "Q2381223", "brand:wikipedia": "en:Media Markt", "building": "yes", "name": "Media Markt", "shop": "electronics"}}, {"type": "way", "id": 726175941, "nodes": [6808278869, 6808278870, 6808256732, 6808278871, 6808278869], "tags": {"building": "yes", "shop": "bakery"}}, {"type": "way", "id": 726180085, "nodes": [6808300221, 6808300222, 6808300223, 6808300224, 6808300221], "tags": {"building": "yes", "shop": "clothes"}}]}