{"version": 0.6, "generator": "Overpass API 0.7.62.8 e802775f", "osm3s": {"timestamp_osm_base": "2025-11-29T17:25:02Z", "copyright": "The data included in this document is from www.openstreetmap.org. The data is made available under ODbL."}, "elements": [{"type": "node", "id": 3665399425, "lat": 17.0133789, "lon": 82.2481814, "tags": {"amenity": "bank", "brand:wikidata": "Q2003611", "brand:wikipedia": "en:Indian Overseas Bank", "name": "Indian Overseas Bank", "name:en": "Indian Overseas Bank", "short_name": "IOB", "website": "https://www.iob.in"}}, {"type": "node", "id": 4801580993, "lat": 16.9702696, "lon": 82.2368484, "tags": {"addr:city": "kakinada", "addr:postcode": "533003", "addr:street": "G O COLONY", "amenity": "bank", "brand:wikidata": "Q2003476", "brand:wikipedia": "en:Andhra Bank", "name": "Andhra Bank", "name:en": "Andhra Bank", "website": "https://www.andhrabank.in"}}, {"type": "node", "id": 6070169839, "lat": 16.7352923, "lon": 82.212831}, {"type": "node", "id": 6070169840, "lat": 16.7351824, "lon": 82.2130253}, {"type": "node", "id": 6070169841, "lat": 16.7350471, "lon": 82.2129576}, {"type": "node", "id": 6070169842, "lat": 16.7351626, "lon": 82.2127633}, {"type": "node", "id": 7391980570, "lat": 16.99277, "lon": 82.2420877, "tags": {"amenity": "bank", "atm": "yes", "brand": "ICICI Bank", "brand:wikidata": "Q1653258", "brand:wikipedia": "en:ICICI Bank", "drive_through": "no", "name": "ICICI Bank"}}, {"type": "node", "id": 7392878008, "lat": 16.9810077, "lon": 82.2410623, "tags": {"amenity": "bank", "brand": "State Bank of India", "brand:wikidata": "Q1340361", "brand:wikipedia": "en:State Bank of India", "name": "State Bank of India", "operator": "State Bank of India - JNTUK Branch"}}, {"type": "node", "id": 7466847525, "lat": 16.9557386, "lon": 82.2351478, "tags": {"amenity": "bank", "name": "LIC Building"}}, {"type": "node", "id": 9924310901, "lat": 16.9860918, "lon": 82.2410052}, {"type": "node", "id": 9924310902, "lat": 16.9859659, "lon": 82.2412686}, {"type": "node", "id": 9924310903, "lat": 16.985837, "lon": 82.2412135}, {"type": "node", "id": 9924310904, "lat": 16.9859366, "lon": 82.2409409}, {"type": "node", "id": 10171081102, "lat": 16.9581473, "lon": 82.235126}, {"type": "node", "id": 10171081110, "lat": 16.9583747, "lon": 82.2347209}, {"type": "node", "id": 10171081111, "lat": 16.9583223, "lon": 82.235155}, {"type": "node", "id": 10171081112, "lat": 16.9582138, "lon": 82.2346974}, {"type": "node", "id": 12596115685, "lat": 16.9809345, "lon": 82.2411192, "tags": {"amenity": "bank"}}, {"type": "node", "id": 12596217925, "lat": 16.972715, "lon": 82.2369593, "tags": {"amenity": "bank"}}, {"type": "node", "id": 12596261510, "lat": 16.9702479, "lon": 82.2367771, "tags": {"amenity": "bank"}}, {"type": "node", "id": 13183522119, "lat": 16.9664485, "lon": 82.2257265, "tags": {"amenity": "bank", "name": "State Bank of India"}}, {"type": "way", "id": 645892243, "nodes": [6070169839, 6070169840, 6070169841, 6070169842, 6070169839], "tags": {"addr:city": "Yanam", "addr:postcode": "533464", "amenity": "bank", "atm": "yes", "building": "yes", "name": "SBI"}}, {"type": "way", "id": 1082895654, "nodes": [9924310901, 9924310902, 9924310903, 9924310904, 9924310901], "tags": {"amenity": "bank", "building": "yes"}}, {"type": "way", "id": 1111736348, "nodes": [10171081110, 10171081111, 10171081102, 10171081112, 10171081110], "tags": {"amenity": "bank", "building": "yes"}}]}