{"version": 0.6, "generator": "Overpass API 0.7.62.8 e802775f", "osm3s": {"timestamp_osm_base": "2025-11-29T17:57:45Z", "copyright": "The data included in this document is from www.openstreetmap.org. The data is made available under ODbL."}, "elements": [{"type": "node", "id": 595308644, "lat": 13.0218507, "lon": 77.6501901, "tags": {"addr:street": "Outer Ring Road", "amenity": "bank", "atm": "yes", "brand": "Karnataka Bank", "brand:wikidata": "Q2042632", "name": "Karnataka Bank", "name:kn": "\u0c95\u0cb0\u0ccd\u0ca8\u0cbe\u0c9f\u0c95 \u0cac\u0ccd\u0caf\u0cbe\u0c82\u0c95\u0ccd"}}, {"type": "node", "id": 981991347, "lat": 12.9910736, "lon": 77.7210086, "tags": {"addr:street": "ITPL Main Road (Near Hotel Zuri)", "amenity": "bank", "atm": "yes", "brand": "Punjab National Bank", "brand:wikidata": "Q2743499", "name": "Punjab National Bank", "name:en": "Punjab National Bank", "name:kn": "\u0caa\u0c82\u0c9c\u0cbe\u0cac \u0cb0\u0cbe\u0cb7\u0ccd\u0c9f\u0ccd\u0cb0\u0cc0\u0caf \u0cac\u0ccd\u0caf\u0cbe\u0c82\u0c95\u0ccd", "operator": "Punjab National Bank", "short_name": "PNB", "website": "https://www.pnbindia.in", "wikimedia_commons": "Category:Punjab National Bank"}}, {"type": "node", "id": 983328415, "lat": 12.9951883, "lon": 77.6985535, "tags": {"addr:city": "Mahadevapura, Bangalore", "addr:housenumber": "P-4", "addr:postcode": "560048", "addr:street": "Kssidc Industrial Area", "amenity": "bank", "atm": "yes", "brand": "HDFC Bank", "brand:wikidata": "Q631047", "fax": "+91-80-67126601", "name": "HDFC Bank", "operator": "HDFC Bank", "phone": "+91-80-66003333", "short_name": "HDFC"}}, {"type": "node", "id": 983328421, "lat": 12.9953337, "lon": 77.6981627, "tags": {"addr:street": "Whitefield Road", "addr:suburb": "Mahadevapura", "amenity": "bank", "atm": "yes", "brand": "Canara Bank", "brand:en": "Canara Bank", "brand:hi": "\u0915\u0947\u0928\u0930\u093e \u092c\u0948\u0902\u0915", "brand:kn": "\u0c95\u0cc6\u0ca8\u0cb0\u0cbe \u0cac\u0ccd\u0caf\u0cbe\u0c82\u0c95\u0ccd", "brand:pa": "\u0a15\u0a47\u0a28\u0a30\u0a3e \u0a2c\u0a48\u0a02\u0a15", "brand:pnb": "\u06a9\u06cc\u0646\u0631\u0627 \u0628\u06cc\u0646\u06a9", "brand:ur": "\u06a9\u06cc\u0646\u0631\u0627 \u0628\u06cc\u0646\u06a9", "brand:wikidata": "Q2003777", "name": "Canara Bank", "name:en": "Canara Bank", "name:hi": "\u0915\u0947\u0928\u0930\u093e \u092c\u0948\u0902\u0915", "name:kn": "\u0c95\u0cc6\u0ca8\u0cb0\u0cbe \u0cac\u0ccd\u0caf\u0cbe\u0c82\u0c95\u0ccd", "name:pa": "\u0a15\u0a47\u0a28\u0a30\u0a3e \u0a2c\u0a48\u0a02\u0a15", "name:pnb": "\u06a9\u06cc\u0646\u0631\u0627 \u0628\u06cc\u0646\u06a9", "name:ur": "\u06a9\u06cc\u0646\u0631\u0627 \u0628\u06cc\u0646\u06a9", "operator": "Canara Bank"}}, {"type": "node", "id": 983351500, "lat": 12.9956238, "lon": 77.6992864, "tags": {"addr:city": "Mahadevapura", "addr:street": "Whitefield Road", "amenity": "bank", "atm": "yes", "brand": "State Bank of India", "brand:wikidata": "Q1340361", "name": "State Bank of India", "name:kn": "\u0c8e\u0cb8\u0ccd \u0cac\u0cbf \u0c90", "operator": "SBI", "short_name": "SBI"}}, {"type": "node", "id": 986744081, "lat": 12.981538, "lon": 77.680174, "tags": {"addr:street": "Kaggadasspura Main Road", "amenity": "bank", "atm": "yes", "brand": "State Bank of India", "brand:wikidata": "Q1340361", "brand:wikipedia": "en:State Bank of India", "name": "State Bank of India", "name:kn": "\u0cad\u0cbe\u0cb0\u0ca4\u0cc0\u0caf \u0cb8\u0ccd\u0c9f\u0cc7\u0c9f\u0ccd \u0cac\u0ccd\u0caf\u0cbe\u0c82\u0c95\u0ccd", "operator": "State Bank of India", "short_name": "SBI"}}, {"type": "node", "id": 1078209945, "lat": 12.9852309, "lon": 77.6636329, "tags": {"amenity": "bank", "atm": "yes", "brand": "State Bank of India", "brand:wikidata": "Q1340361", "brand:wikipedia": "en:State Bank of India", "name": "State Bank of India", "name:kn": "\u0c8e\u0cb8\u0ccd \u0cac\u0cbf \u0c90", "short_name": "SBI"}}, {"type": "node", "id": 1078214686, "lat": 12.994176, "lon": 77.6638974, "tags": {"amenity": "bank", "atm": "yes", "brand": "ICICI Bank", "brand:wikidata": "Q1653258", "name": "ICICI Bank", "name:en": "ICICI Bank", "name:kn": "\u0c90\u0cb8\u0cbf\u0c90\u0cb8\u0cbf\u0c90 \u0cac\u0ccd\u0caf\u0cbe\u0c82\u0c95\u0cc1", "short_name": "ICICI", "website": "https://www.icicibank.com", "wheelchair": "no"}}, {"type": "node", "id": 1096305524, "lat": 12.9840811, "lon": 77.7293242, "tags": {"amenity": "bank", "atm": "no", "brand": "Axis Bank", "brand:wikidata": "Q2003549", "brand:wikipedia": "en:Axis Bank", "name": "Axis Bank", "name:en": "Axis Bank", "name:kn": "\u0c85\u0c95\u0ccd\u0cb8\u0cbf\u0cb8\u0ccd \u0cac\u0ccd\u0caf\u0cbe\u0c82\u0c95\u0ccd", "website": "https://www.axisbank.com"}}, {"type": "node", "id": 1123348993, "lat": 12.9593703, "lon": 77.7163361, "tags": {"addr:street": "ITPL Main Road", "amenity": "bank", "brand": "HDFC Bank", "brand:wikidata": "Q631047", "check_date": "2025-09-03", "name": "HDFC Bank", "name:kn": "\u0c8e\u0c9a\u0ccd \u0ca1\u0cbf \u0c8e\u0cab\u0ccd \u0cb8\u0cbf", "short_name": "HDFC"}}, {"type": "node", "id": 1174025197, "lat": 12.9300352, "lon": 77.6841894, "tags": {"amenity": "bank", "atm": "yes", "brand": "HDFC Bank", "brand:wikidata": "Q631047", "brand:wikipedia": "en:HDFC Bank", "check_date": "2024-12-23", "currency:INR": "yes", "drive_through": "no", "name": "HDFC Bank", "name:kn": "\u0c8e\u0c9a\u0ccd \u0ca1\u0cbf \u0c8e\u0cab\u0ccd \u0cb8\u0cbf", "payment:cards": "no", "payment:cash": "yes", "payment:credit_cards": "no", "payment:debit_cards": "no", "short_name": "HDFC", "website": "https://www.hdfcbank.com", "wheelchair": "yes"}}, {"type": "node", "id": 1196677392, "lat": 12.949723, "lon": 77.699799, "tags": {"addr:city": "Marathahalli, Bangalore", "addr:postcode": "560037", "addr:street": "Outer Ring Road", "amenity": "bank", "atm": "yes", "brand": "ICICI Bank", "brand:wikidata": "Q1653258", "check_date": "2023-08-05", "name": "ICICI Bank", "name:en": "ICICI Bank", "name:kn": "\u0c90\u0cb8\u0cbf\u0c90\u0cb8\u0cbf\u0c90 \u0cac\u0ccd\u0caf\u0cbe\u0c82\u0c95\u0cc1", "short_name": "ICICI", "website": "https://www.icicibank.com"}}, {"type": "node", "id": 1264989727, "lat": 12.9750892, "lon": 77.7509276, "tags": {"amenity": "bank", "atm": "yes", "brand:wikidata": "Q1340361", "brand:wikipedia": "en:State Bank of India", "check_date": "2025-08-19", "name": "IDFC First Bank Whitefield", "name:kn": "\u0cad\u0cbe\u0cb0\u0ca4\u0cc0\u0caf \u0cb8\u0ccd\u0c9f\u0cc7\u0c9f\u0ccd \u0cac\u0ccd\u0caf\u0cbe\u0c82\u0c95\u0ccd", "short_name": "SBI", "website": "https://www.sbi.co.in"}}, {"type": "node", "id": 1271091631, "lat": 12.992494, "lon": 77.733014, "tags": {"addr:city": "Whitefield, Bangalore", "addr:street": "Sadarmangala Road", "amenity": "bank", "atm": "yes", "brand": "State Bank of India", "brand:wikidata": "Q1340361", "brand:wikipedia": "en:State Bank of India", "name": "State Bank of India", "name:kn": "\u0cad\u0cbe\u0cb0\u0ca4\u0cc0\u0caf \u0cb8\u0ccd\u0c9f\u0cc7\u0c9f\u0ccd \u0cac\u0ccd\u0caf\u0cbe\u0c82\u0c95\u0ccd", "operator": "State Bank of India", "short_name": "SBI"}}, {"type": "node", "id": 1338091641, "lat": 12.9241258, "lon": 77.671756, "tags": {"amenity": "bank", "atm": "yes", "brand": "ICICI Bank", "brand:wikidata": "Q1653258", "drive_through": "no", "name": "ICICI Bank", "name:en": "ICICI Bank", "name:kn": "\u0c90\u0cb8\u0cbf\u0c90\u0cb8\u0cbf\u0c90 \u0cac\u0ccd\u0caf\u0cbe\u0c82\u0c95\u0cc1", "short_name": "ICICI", "website": "https://www.icicibank.com"}}, {"type": "node", "id": 1350237055, "lat": 12.9949844, "lon": 77.6960255, "tags": {"addr:city": "Mahadevapura, Bangalore", "addr:street": "Whitefield Road", "amenity": "bank", "atm": "yes", "brand": "Corporation Bank", "brand:wikidata": "Q2003387", "brand:wikipedia": "en:Corporation Bank", "name": "Corporation Bank", "name:en": "Corporation Bank", "name:kn": "\u0c95\u0cbe\u0cb0\u0ccd\u0caa\u0cb0\u0cc7\u0cb7\u0ca8\u0ccd \u0cac\u0ccd\u0caf\u0cbe\u0c82\u0c95\u0ccd", "website": "https://corpbank.com/"}}, {"type": "node", "id": 1371859172, "lat": 12.9652711, "lon": 77.7135279, "tags": {"amenity": "bank", "atm": "yes", "branch": "Kundalahalli Branch", "brand": "State Bank of India", "brand:wikidata": "Q1340361", "brand:wikipedia": "en:State Bank of India", "name": "State Bank of India", "short_name": "SBI"}}, {"type": "node", "id": 1438263194, "lat": 12.9683229, "lon": 77.749461, "tags": {"addr:postcode": "560066", "addr:street": "Whitefield Main Road", "amenity": "bank", "atm": "yes", "brand": "Bank of Baroda", "brand:wikidata": "Q2003797", "check_date": "2025-05-24", "is_in": "Whitefield, Bangalore, Karnataka, India", "level": "1", "name": "Bank of Baroda", "name:kn": "\u0cac\u0ccd\u0caf\u0cbe\u0c82\u0c95\u0ccd \u0c86\u0cab\u0ccd \u0cac\u0cb0\u0ccb\u0ca1\u0cbe"}}, {"type": "node", "id": 1439027922, "lat": 12.9698924, "lon": 77.7497282, "tags": {"addr:street": "Whitefield Main Road", "amenity": "bank", "atm": "yes", "brand": "City Union Bank", "brand:en": "City Union Bank", "brand:fa": "\u0633\u06cc\u062a\u06cc \u06cc\u0648\u0646\u06cc\u0648\u0646 \u0628\u0646\u06a9", "brand:hi": "\u0938\u093f\u091f\u0940 \u092f\u0942\u0928\u093f\u092f\u0928 \u092c\u0948\u0902\u0915", "brand:mr": "\u0938\u093f\u091f\u0940 \u092f\u0941\u0928\u093f\u092f\u0928 \u092c\u0901\u0915", "brand:ta": "\u0b9a\u0bbf\u0b9f\u0bcd\u0b9f\u0bbf \u0baf\u0bc2\u0ba9\u0bbf\u0baf\u0ba9\u0bcd \u0bb5\u0b99\u0bcd\u0b95\u0bbf", "brand:ur": "\u0633\u0679\u06cc \u06cc\u0648\u0646\u06cc\u0646 \u0628\u06cc\u0646\u06a9", "brand:website": "https://www.cityunionbank.com", "brand:wikidata": "Q2040264", "check_date": "2025-05-24", "name": "City Union Bank", "name:en": "City Union Bank", "name:fa": "\u0633\u06cc\u062a\u06cc \u06cc\u0648\u0646\u06cc\u0648\u0646 \u0628\u0646\u06a9", "name:hi": "\u0938\u093f\u091f\u0940 \u092f\u0942\u0928\u093f\u092f\u0928 \u092c\u0948\u0902\u0915", "name:mr": "\u0938\u093f\u091f\u0940 \u092f\u0941\u0928\u093f\u092f\u0928 \u092c\u0901\u0915", "name:ta": "\u0b9a\u0bbf\u0b9f\u0bcd\u0b9f\u0bbf \u0baf\u0bc2\u0ba9\u0bbf\u0baf\u0ba9\u0bcd \u0bb5\u0b99\u0bcd\u0b95\u0bbf", "name:ur": "\u0633\u0679\u06cc \u06cc\u0648\u0646\u06cc\u0646 \u0628\u06cc\u0646\u06a9", "short_name": "CUB", "short_name:pa": "\u0a38\u0a40 \u0a2f\u0a42 \u0a2c\u0a40", "short_name:ur": "\u0633\u06cc \u06cc\u0648 \u0628\u06cc"}}, {"type": "node", "id": 1466495360, "lat": 12.9600525, "lon": 77.6505303, "tags": {"amenity": "bank", "branch": "NAL Main Branch", "brand": "State Bank of India", "brand:wikidata": "Q1340361", "brand:wikipedia": "en:State Bank of India", "name": "State Bank of India", "name:kn": "\u0cad\u0cbe\u0cb0\u0ca4\u0cc0\u0caf \u0cb8\u0ccd\u0c9f\u0cc7\u0c9f\u0ccd \u0cac\u0ccd\u0caf\u0cbe\u0c82\u0c95\u0ccd", "short_name": "SBI", "wheelchair": "no"}}, {"type": "node", "id": 1474220581, "lat": 12.9783314, "lon": 77.6448308, "tags": {"amenity": "bank", "atm": "yes", "brand": "Andhra Bank", "brand:wikidata": "Q2003476", "brand:wikipedia": "en:Andhra Bank", "name": "Andhra Bank", "name:en": "Andhra Bank", "name:kn": "\u0c86\u0c82\u0ca7\u0ccd\u0cb0 \u0cac\u0ccd\u0caf\u0cbe\u0c82\u0c95\u0ccd", "website": "https://www.andhrabank.in"}}, {"type": "node", "id": 1474254719, "lat": 12.9705339, "lon": 77.6415074, "tags": {"amenity": "bank", "atm": "no", "brand": "State Bank of India", "brand:wikidata": "Q1340361", "brand:wikipedia": "en:State Bank of India", "check_date": "2023-10-08", "name": "State Bank of India", "name:kn": "\u0cad\u0cbe\u0cb0\u0ca4\u0cc0\u0caf \u0cb8\u0ccd\u0c9f\u0cc7\u0c9f\u0ccd \u0cac\u0ccd\u0caf\u0cbe\u0c82\u0c95\u0ccd", "short_name": "SBI"}}, {"type": "node", "id": 1533923521, "lat": 13.0201633, "lon": 77.6565925, "tags": {"addr:postcode": "560043", "addr:street": "Horamavu Main Road", "amenity": "bank", "atm": "yes", "brand": "State Bank of India", "brand:wikidata": "Q1340361", "brand:wikipedia": "en:State Bank of India", "name": "State Bank of India", "name:kn": "\u0cad\u0cbe\u0cb0\u0ca4\u0cc0\u0caf \u0cb8\u0ccd\u0c9f\u0cc7\u0c9f\u0ccd \u0cac\u0ccd\u0caf\u0cbe\u0c82\u0c95\u0ccd", "short_name": "SBI"}}, {"type": "node", "id": 1742633026, "lat": 13.0148407, "lon": 77.6495896, "tags": {"amenity": "bank", "atm": "yes", "brand": "Andhra Bank", "brand:wikidata": "Q2003476", "brand:wikipedia": "en:Andhra Bank", "name": "Andhra Bank", "name:en": "Andhra Bank", "name:kn": "\u0c86\u0c82\u0ca7\u0ccd\u0cb0 \u0cac\u0ccd\u0caf\u0cbe\u0c82\u0c95\u0ccd", "website": "https://www.andhrabank.in"}}, {"type": "node", "id": 1742640276, "lat": 13.0151076, "lon": 77.645262, "tags": {"amenity": "bank", "atm": "yes", "name": "Vijaya Bank", "name:kn": "\u0cb5\u0cbf\u0c9c\u0caf \u0cac\u0ccd\u0caf\u0cbe\u0c82\u0c95\u0cc1"}}, {"type": "node", "id": 1742641132, "lat": 13.0145928, "lon": 77.6462464, "tags": {"amenity": "bank", "atm": "yes", "brand": "Bank of Maharashtra", "brand:wikidata": "Q2004304", "brand:wikipedia": "en:Bank of Maharashtra", "name": "Bank of Maharashtra", "name:en": "Bank of Maharashtra", "website": "https://www.bankofmaharashtra.in/"}}, {"type": "node", "id": 1752570100, "lat": 12.9573026, "lon": 77.7006958, "tags": {"amenity": "bank", "brand": "State Bank of India", "brand:wikidata": "Q1340361", "brand:wikipedia": "en:State Bank of India", "check_date": "2023-08-05", "name": "State Bank of India", "name:kn": "\u0cad\u0cbe\u0cb0\u0ca4\u0cc0\u0caf \u0cb8\u0ccd\u0c9f\u0cc7\u0c9f\u0ccd \u0cac\u0ccd\u0caf\u0cbe\u0c82\u0c95\u0ccd", "short_name": "SBI", "website": "https://www.sbi.co.in", "wheelchair": "no"}}, {"type": "node", "id": 1769131738, "lat": 12.969431, "lon": 77.7530547, "tags": {"amenity": "bank", "brand": "Syndicate Bank", "brand:wikidata": "Q2004088", "name": "Syndicate Bank", "name:en": "Syndicate Bank", "name:kn": "\u0cb8\u0cbf\u0c82\u0ca1\u0cbf\u0c95\u0cc7\u0c9f\u0ccd \u0cac\u0ccd\u0caf\u0cbe\u0c82\u0c95\u0ccd", "website": "https://www.syndicatebank.in", "wikimedia_commons": "Category:Syndicate Bank"}}, {"type": "node", "id": 1839606932, "lat": 12.9927632, "lon": 77.7027663, "tags": {"amenity": "bank", "atm": "yes", "brand": "State Bank of India", "brand:wikidata": "Q1340361", "brand:wikipedia": "en:State Bank of India", "name": "State Bank of India", "name:kn": "\u0cad\u0cbe\u0cb0\u0ca4\u0cc0\u0caf \u0cb8\u0ccd\u0c9f\u0cc7\u0c9f\u0ccd \u0cac\u0ccd\u0caf\u0cbe\u0c82\u0c95\u0ccd", "short_name": "SBI"}}, {"type": "node", "id": 2093480342, "lat": 12.9815191, "lon": 77.7520947, "tags": {"amenity": "bank", "atm": "yes", "brand": "ICICI Bank", "brand:wikidata": "Q1653258", "check_date": "2025-07-03", "name": "ICICI Bank", "name:en": "ICICI Bank", "name:kn": "\u0c90\u0cb8\u0cbf\u0c90\u0cb8\u0cbf\u0c90 \u0cac\u0ccd\u0caf\u0cbe\u0c82\u0c95\u0cc1", "short_name": "ICICI", "website": "https://www.icicibank.com"}}, {"type": "node", "id": 2230257224, "lat": 12.9497606, "lon": 77.6991216, "tags": {"addr:city": "Marathahalli", "addr:street": "Outer Ring Road", "amenity": "bank", "atm": "yes", "brand": "ICICI Bank", "brand:wikidata": "Q1653258", "name": "ICICI Bank", "name:kn": "\u0c90\u0cb8\u0cbf\u0c90\u0cb8\u0cbf\u0c90 \u0cac\u0ccd\u0caf\u0cbe\u0c82\u0c95\u0cc1", "short_name": "ICICI"}}, {"type": "node", "id": 2281106627, "lat": 12.9773921, "lon": 77.6956418, "tags": {"amenity": "bank", "atm": "yes", "brand": "State Bank of India", "brand:wikidata": "Q1340361", "name": "State Bank of India", "name:kn": "\u0c8e\u0cb8\u0ccd \u0cac\u0cbf \u0c90", "short_name": "SBI"}}, {"type": "node", "id": 2319910810, "lat": 12.9576091, "lon": 77.7009192, "tags": {"amenity": "bank", "brand": "Canara Bank", "brand:en": "Canara Bank", "brand:hi": "\u0915\u0947\u0928\u0930\u093e \u092c\u0948\u0902\u0915", "brand:kn": "\u0c95\u0cc6\u0ca8\u0cb0\u0cbe \u0cac\u0ccd\u0caf\u0cbe\u0c82\u0c95\u0ccd", "brand:pa": "\u0a15\u0a47\u0a28\u0a30\u0a3e \u0a2c\u0a48\u0a02\u0a15", "brand:pnb": "\u06a9\u06cc\u0646\u0631\u0627 \u0628\u06cc\u0646\u06a9", "brand:ur": "\u06a9\u06cc\u0646\u0631\u0627 \u0628\u06cc\u0646\u06a9", "brand:wikidata": "Q2003777", "brand:wikipedia": "en:Canara Bank", "brand:wikipedia:pa": "\u0a15\u0a47\u0a28\u0a30\u0a3e \u0a2c\u0a48\u0a02\u0a15", "name": "Canara Bank", "name:en": "Canara Bank", "name:hi": "\u0915\u0947\u0928\u0930\u093e \u092c\u0948\u0902\u0915", "name:kn": "\u0c95\u0cc6\u0ca8\u0cb0\u0cbe \u0cac\u0ccd\u0caf\u0cbe\u0c82\u0c95\u0ccd", "name:pa": "\u0a15\u0a47\u0a28\u0a30\u0a3e \u0a2c\u0a48\u0a02\u0a15", "name:pnb": "\u06a9\u06cc\u0646\u0631\u0627 \u0628\u06cc\u0646\u06a9", "name:ur": "\u06a9\u06cc\u0646\u0631\u0627 \u0628\u06cc\u0646\u06a9", "website": "https://www.canarabank.com/"}}, {"type": "node", "id": 2319910827, "lat": 12.9608453, "lon": 77.7012326, "tags": {"amenity": "bank", "atm": "yes", "brand": "IndusInd Bank", "brand:wikidata": "Q2040323", "brand:wikipedia": "en:IndusInd Bank", "check_date": "2025-04-04", "name": "IndusInd Bank", "name:en": "IndusInd Bank", "website": "https://www.indusind.com", "wheelchair": "no"}}, {"type": "node", "id": 2319910861, "lat": 12.9609553, "lon": 77.7012529, "tags": {"amenity": "bank", "atm": "yes", "brand": "State Bank of India", "brand:wikidata": "Q1340361", "brand:wikipedia": "en:State Bank of India", "name": "State Bank of India", "name:kn": "\u0cad\u0cbe\u0cb0\u0ca4\u0cc0\u0caf \u0cb8\u0ccd\u0c9f\u0cc7\u0c9f\u0ccd \u0cac\u0ccd\u0caf\u0cbe\u0c82\u0c95\u0ccd", "short_name": "SBI", "website": "https://www.sbi.co.in", "wheelchair": "no"}}, {"type": "node", "id": 2319911059, "lat": 12.9604135, "lon": 77.701674, "tags": {"amenity": "bank", "atm": "yes", "brand": "Karnataka Bank", "brand:wikidata": "Q2042632", "name": "Karnataka Bank", "operator": "Karnataka Bank"}}, {"type": "node", "id": 2582217014, "lat": 13.0377529, "lon": 77.7577257, "tags": {"amenity": "bank", "atm": "yes", "brand": "ICICI Bank", "brand:wikidata": "Q1653258", "name": "ICICI Bank", "short_name": "ICICI"}}, {"type": "node", "id": 2582217957, "lat": 13.0378129, "lon": 77.7575162, "tags": {"amenity": "bank", "brand": "Canara Bank", "brand:en": "Canara Bank", "brand:hi": "\u0915\u0947\u0928\u0930\u093e \u092c\u0948\u0902\u0915", "brand:kn": "\u0c95\u0cc6\u0ca8\u0cb0\u0cbe \u0cac\u0ccd\u0caf\u0cbe\u0c82\u0c95\u0ccd", "brand:pa": "\u0a15\u0a47\u0a28\u0a30\u0a3e \u0a2c\u0a48\u0a02\u0a15", "brand:pnb": "\u06a9\u06cc\u0646\u0631\u0627 \u0628\u06cc\u0646\u06a9", "brand:ur": "\u06a9\u06cc\u0646\u0631\u0627 \u0628\u06cc\u0646\u06a9", "brand:wikidata": "Q2003777", "brand:wikipedia": "en:Canara Bank", "brand:wikipedia:pa": "\u0a15\u0a47\u0a28\u0a30\u0a3e \u0a2c\u0a48\u0a02\u0a15", "name": "Canara Bank", "name:en": "Canara Bank", "name:hi": "\u0915\u0947\u0928\u0930\u093e \u092c\u0948\u0902\u0915", "name:kn": "\u0c95\u0cc6\u0ca8\u0cb0\u0cbe \u0cac\u0ccd\u0caf\u0cbe\u0c82\u0c95\u0ccd", "name:pa": "\u0a15\u0a47\u0a28\u0a30\u0a3e \u0a2c\u0a48\u0a02\u0a15", "name:pnb": "\u06a9\u06cc\u0646\u0631\u0627 \u0628\u06cc\u0646\u06a9", "name:ur": "\u06a9\u06cc\u0646\u0631\u0627 \u0628\u06cc\u0646\u06a9", "website": "https://www.canarabank.com/"}}, {"type": "node", "id": 2623251181, "lat": 12.958655, "lon": 77.7465652, "tags": {"amenity": "bank", "atm": "yes", "brand": "ICICI Bank", "brand:wikidata": "Q1653258", "check_date": "2025-06-03", "name": "ICICI Bank", "name:en": "ICICI Bank", "name:kn": "\u0c90\u0cb8\u0cbf\u0c90\u0cb8\u0cbf\u0c90 \u0cac\u0ccd\u0caf\u0cbe\u0c82\u0c95\u0cc1", "short_name": "ICICI", "website": "https://www.icicibank.com"}}, {"type": "node", "id": 2653583620, "lat": 12.9525408, "lon": 77.7060929, "tags": {"amenity": "bank", "brand": "State Bank of India", "brand:wikidata": "Q1340361", "name": "State Bank of India", "short_name": "SBI"}}, {"type": "node", "id": 2696072361, "lat": 12.9592423, "lon": 77.7463002, "tags": {"addr:city": "Bengaluru", "addr:postcode": "560066", "addr:street": "Whitefield Main Road", "amenity": "bank", "atm": "yes", "brand": "State Bank of India", "brand:wikidata": "Q1340361", "brand:wikipedia": "en:State Bank of India", "check_date": "2025-05-24", "name": "State Bank of India", "name:kn": "\u0cad\u0cbe\u0cb0\u0ca4\u0cc0\u0caf \u0cb8\u0ccd\u0c9f\u0cc7\u0c9f\u0ccd \u0cac\u0ccd\u0caf\u0cbe\u0c82\u0c95\u0ccd", "short_name": "SBI", "website": "https://www.sbi.co.in"}}, {"type": "node", "id": 2728559202, "lat": 13.0207557, "lon": 77.6437335, "tags": {"addr:city": "Bangalore", "addr:housenumber": "Canara Bank", "addr:postcode": "560043", "addr:street": "7th A Main", "amenity": "bank", "atm": "yes"}}, {"type": "node", "id": 2901047878, "lat": 12.9700096, "lon": 77.6477377, "tags": {"addr:postcode": "560008", "addr:street": "80 Feet Road", "amenity": "bank", "atm": "yes", "brand": "IndusInd Bank", "brand:wikidata": "Q2040323", "brand:wikipedia": "en:IndusInd Bank", "name": "IndusInd Bank", "name:en": "IndusInd Bank", "website": "https://www.indusind.com"}}, {"type": "node", "id": 2987148047, "lat": 12.9832377, "lon": 77.7681618, "tags": {"amenity": "bank", "name": "Manappuram Finance"}}, {"type": "node", "id": 2987148096, "lat": 12.9835791, "lon": 77.7689545, "tags": {"amenity": "bank", "atm": "yes", "name": "Coporation City Bank"}}, {"type": "node", "id": 2991981783, "lat": 13.0059276, "lon": 77.6594682, "tags": {"amenity": "bank", "atm": "yes", "brand": "State Bank of India", "brand:wikidata": "Q1340361", "brand:wikipedia": "en:State Bank of India", "name": "State Bank of India", "name:kn": "\u0cad\u0cbe\u0cb0\u0ca4\u0cc0\u0caf \u0cb8\u0ccd\u0c9f\u0cc7\u0c9f\u0ccd \u0cac\u0ccd\u0caf\u0cbe\u0c82\u0c95\u0ccd", "short_name": "SBI"}}, {"type": "node", "id": 3007431020, "lat": 12.9591031, "lon": 77.6563601, "tags": {"addr:city": "Bangalore", "addr:postcode": "560017", "addr:street": "Old Airport Road", "amenity": "bank", "atm": "yes", "brand": "Bandhan Bank", "brand:wikidata": "Q1653258", "check_date": "2025-11-08", "description": "Old Airport Road Branch", "name": "Bandhan Bank", "name:en": "Bandhan Bank", "name:kn": "\u0cac\u0c82\u0ca7\u0ca8\u0ccd \u0cac\u0ccd\u0caf\u0cbe\u0c82\u0c95\u0ccd", "opening_hours": "08:00-18:00", "website": "https://www.icicibank.com"}}, {"type": "node", "id": 3016090371, "lat": 12.9719534, "lon": 77.641362, "tags": {"amenity": "bank", "atm": "no", "brand": "State Bank of India", "brand:wikidata": "Q1340361", "brand:wikipedia": "en:State Bank of India", "check_date": "2023-10-08", "name": "State Bank of India", "name:kn": "\u0cad\u0cbe\u0cb0\u0ca4\u0cc0\u0caf \u0cb8\u0ccd\u0c9f\u0cc7\u0c9f\u0ccd \u0cac\u0ccd\u0caf\u0cbe\u0c82\u0c95\u0ccd", "operator": "State bank of India", "short_name": "SBI"}}, {"type": "node", "id": 3141453331, "lat": 12.926797, "lon": 77.6760377}, {"type": "node", "id": 3141453332, "lat": 12.9266424, "lon": 77.6760448}, {"type": "node", "id": 3141453333, "lat": 12.9266516, "lon": 77.6762563}, {"type": "node", "id": 3141453334, "lat": 12.9268062, "lon": 77.6762492}, {"type": "node", "id": 3157670232, "lat": 12.9240441, "lon": 77.6716287}, {"type": "node", "id": 3157670233, "lat": 12.9240287, "lon": 77.6717459}, {"type": "node", "id": 3157670234, "lat": 12.9244308, "lon": 77.6718016}, {"type": "node", "id": 3157670237, "lat": 12.9244463, "lon": 77.6716843}, {"type": "node", "id": 3220541198, "lat": 12.9131399, "lon": 77.6799856, "tags": {"amenity": "bank", "atm": "yes", "brand": "South Indian Bank", "brand:wikidata": "Q2044973", "name": "South Indian Bank", "operator": "South Indian Bank", "source": "survey"}}, {"type": "node", "id": 3245631491, "lat": 12.9246885, "lon": 77.6729929, "tags": {"amenity": "bank", "atm": "yes", "brand": "State Bank of India", "brand:wikidata": "Q1340361", "brand:wikipedia": "en:State Bank of India", "name": "State Bank of India", "name:kn": "\u0cad\u0cbe\u0cb0\u0ca4\u0cc0\u0caf \u0cb8\u0ccd\u0c9f\u0cc7\u0c9f\u0ccd \u0cac\u0ccd\u0caf\u0cbe\u0c82\u0c95\u0ccd", "short_name": "SBI", "website": "https://www.sbi.co.in"}}, {"type": "node", "id": 3255140842, "lat": 12.9146755, "lon": 77.6761436, "tags": {"amenity": "bank", "brand": "ICICI Bank", "brand:wikidata": "Q1653258", "brand:wikipedia": "en:ICICI Bank", "name": "ICICI Bank", "name:en": "ICICI Bank", "name:kn": "\u0c90\u0cb8\u0cbf\u0c90\u0cb8\u0cbf\u0c90 \u0cac\u0ccd\u0caf\u0cbe\u0c82\u0c95\u0cc1", "short_name": "ICICI", "website": "https://www.icicibank.com"}}, {"type": "node", "id": 3327855634, "lat": 12.9571178, "lon": 77.7017117, "tags": {"amenity": "bank", "brand": "State Bank of India", "brand:wikidata": "Q1340361", "brand:wikipedia": "en:State Bank of India", "level": "1", "name": "State Bank of India", "name:kn": "\u0cad\u0cbe\u0cb0\u0ca4\u0cc0\u0caf \u0cb8\u0ccd\u0c9f\u0cc7\u0c9f\u0ccd \u0cac\u0ccd\u0caf\u0cbe\u0c82\u0c95\u0ccd", "short_name": "SBI", "website": "https://www.sbi.co.in"}}, {"type": "node", "id": 3370102641, "lat": 12.9772751, "lon": 77.641272, "tags": {"amenity": "bank", "atm": "yes", "brand": "Canara Bank", "brand:en": "Canara Bank", "brand:hi": "\u0915\u0947\u0928\u0930\u093e \u092c\u0948\u0902\u0915", "brand:kn": "\u0c95\u0cc6\u0ca8\u0cb0\u0cbe \u0cac\u0ccd\u0caf\u0cbe\u0c82\u0c95\u0ccd", "brand:pa": "\u0a15\u0a47\u0a28\u0a30\u0a3e \u0a2c\u0a48\u0a02\u0a15", "brand:pnb": "\u06a9\u06cc\u0646\u0631\u0627 \u0628\u06cc\u0646\u06a9", "brand:ur": "\u06a9\u06cc\u0646\u0631\u0627 \u0628\u06cc\u0646\u06a9", "brand:wikidata": "Q2003777", "brand:wikipedia": "en:Syndicate Bank", "name": "Canara Bank", "name:en": "Canara Bank", "name:hi": "\u0915\u0947\u0928\u0930\u093e \u092c\u0948\u0902\u0915", "name:kn": "\u0c95\u0cc6\u0ca8\u0cb0\u0cbe \u0cac\u0ccd\u0caf\u0cbe\u0c82\u0c95\u0ccd", "name:pa": "\u0a15\u0a47\u0a28\u0a30\u0a3e \u0a2c\u0a48\u0a02\u0a15", "name:pnb": "\u06a9\u06cc\u0646\u0631\u0627 \u0628\u06cc\u0646\u06a9", "name:ur": "\u06a9\u06cc\u0646\u0631\u0627 \u0628\u06cc\u0646\u06a9", "website": "https://www.syndicatebank.in"}}, {"type": "node", "id": 3451649990, "lat": 12.9940893, "lon": 77.6637502, "tags": {"amenity": "bank", "atm": "yes", "brand": "Axis Bank", "brand:wikidata": "Q2003549", "brand:wikipedia": "en:Axis Bank", "name": "Axis Bank", "name:en": "Axis Bank", "name:kn": "\u0c85\u0c95\u0ccd\u0cb8\u0cbf\u0cb8\u0ccd \u0cac\u0ccd\u0caf\u0cbe\u0c82\u0c95\u0ccd", "website": "https://www.axisbank.com"}}, {"type": "node", "id": 3451674829, "lat": 12.9925055, "lon": 77.6638079, "tags": {"amenity": "bank", "atm": "yes", "brand": "Axis Bank", "brand:wikidata": "Q2003549", "brand:wikipedia": "en:Axis Bank", "name": "Axis Bank", "name:en": "Axis Bank", "name:kn": "\u0c85\u0c95\u0ccd\u0cb8\u0cbf\u0cb8\u0ccd \u0cac\u0ccd\u0caf\u0cbe\u0c82\u0c95\u0ccd", "website": "https://www.axisbank.com"}}, {"type": "node", "id": 3477797825, "lat": 12.924346, "lon": 77.6738789, "tags": {"amenity": "bank", "brand": "Bank of Baroda", "brand:wikidata": "Q2003797", "brand:wikipedia": "en:Bank of Baroda", "check_date": "2025-04-09", "name": "Bank of Baroda", "name:kn": "\u0cb5\u0cbf\u0c9c\u0caf \u0cac\u0ccd\u0caf\u0cbe\u0c82\u0c95\u0cc1"}}, {"type": "node", "id": 3532248578, "lat": 12.9910352, "lon": 77.6724245}, {"type": "node", "id": 3532248586, "lat": 12.991045, "lon": 77.6723603}, {"type": "node", "id": 3532248605, "lat": 12.9910738, "lon": 77.6724306}, {"type": "node", "id": 3532248610, "lat": 12.9910836, "lon": 77.6723664}, {"type": "node", "id": 3655587612, "lat": 12.9785172, "lon": 77.6795909, "tags": {"amenity": "bank", "atm": "yes", "brand": "State Bank of India", "brand:wikidata": "Q1340361", "brand:wikipedia": "en:State Bank of India", "drive_through": "yes", "name": "State Bank of India", "name:kn": "\u0cad\u0cbe\u0cb0\u0ca4\u0cc0\u0caf \u0cb8\u0ccd\u0c9f\u0cc7\u0c9f\u0ccd \u0cac\u0ccd\u0caf\u0cbe\u0c82\u0c95\u0ccd", "short_name": "SBI", "wheelchair": "no"}}, {"type": "node", "id": 3726036588, "lat": 12.9706435, "lon": 77.641522, "tags": {"amenity": "bank", "brand": "State Bank of India", "brand:wikidata": "Q1340361", "brand:wikipedia": "en:State Bank of India", "name": "State Bank of India", "name:kn": "\u0cad\u0cbe\u0cb0\u0ca4\u0cc0\u0caf \u0cb8\u0ccd\u0c9f\u0cc7\u0c9f\u0ccd \u0cac\u0ccd\u0caf\u0cbe\u0c82\u0c95\u0ccd", "short_name": "SBI"}}, {"type": "node", "id": 3761392714, "lat": 12.9600127, "lon": 77.6451616, "tags": {"amenity": "bank", "level": "1", "name": "ICICI Direct", "note": "Note: Actually this is a stockbroker, but I cannot find the proper tag. Please help me tag this!"}}, {"type": "node", "id": 3761395482, "lat": 12.9600676, "lon": 77.6447244, "tags": {"amenity": "bank", "atm": "yes", "brand:wikidata": "Q3595747", "brand:wikipedia": "en:Dena Bank", "level": "0", "name": "Dena Bank", "name:en": "Dena Bank", "name:kn": "\u0ca6\u0cc7\u0ca8 \u0cac\u0ccd\u0caf\u0cbe\u0c82\u0c95\u0ccd", "website": "http://www.denabank.com"}}, {"type": "node", "id": 3761459658, "lat": 12.9593103, "lon": 77.6524844, "tags": {"amenity": "bank", "atm": "yes", "brand": "HDFC Bank", "brand:wikidata": "Q631047", "brand:wikipedia": "en:HDFC Bank", "level": "0", "name": "HDFC Bank", "name:kn": "\u0c8e\u0c9a\u0ccd \u0ca1\u0cbf \u0c8e\u0cab\u0ccd \u0cb8\u0cbf", "short_name": "HDFC", "website": "https://www.hdfcbank.com", "wheelchair": "no"}}, {"type": "node", "id": 3761490984, "lat": 12.9588866, "lon": 77.660074, "tags": {"amenity": "bank", "brand": "HDFC Bank", "brand:wikidata": "Q631047", "brand:wikipedia": "en:HDFC Bank", "level": "0", "name": "HDFC Bank", "name:kn": "\u0c8e\u0c9a\u0ccd. \u0ca1\u0cbf. \u0c8e\u0cab\u0ccd. \u0cb8\u0cbf. \u0cac\u0ccd\u0caf\u0cbe\u0c82\u0c95\u0ccd", "short_name": "HDFC", "website": "https://www.hdfcbank.com"}}, {"type": "node", "id": 3780863426, "lat": 12.9588744, "lon": 77.6594639, "tags": {"amenity": "bank", "atm": "yes", "brand": "Syndicate Bank", "brand:wikidata": "Q2004088", "level": "0", "name": "Syndicate Bank", "name:en": "Syndicate Bank", "name:kn": "\u0cb8\u0cbf\u0c82\u0ca1\u0cbf\u0c95\u0cc7\u0c9f\u0ccd \u0cac\u0ccd\u0caf\u0cbe\u0c82\u0c95\u0ccd", "website": "https://www.syndicatebank.in"}}, {"type": "node", "id": 3804495707, "lat": 12.9588794, "lon": 77.6676407, "tags": {"amenity": "bank", "brand": "Punjab National Bank", "brand:wikidata": "Q2743499", "level": "0", "name": "Punjab National Bank", "name:en": "Punjab National Bank", "name:kn": "\u0caa\u0c82\u0c9c\u0cbe\u0cac \u0cb0\u0cbe\u0cb7\u0ccd\u0c9f\u0ccd\u0cb0\u0cc0\u0caf \u0cac\u0ccd\u0caf\u0cbe\u0c82\u0c95\u0ccd", "short_name": "PNB", "website": "https://www.pnbindia.in"}}, {"type": "node", "id": 3804507964, "lat": 12.9595468, "lon": 77.6560186, "tags": {"amenity": "bank", "atm": "yes", "brand": "Corporation Bank", "brand:wikidata": "Q2003387", "brand:wikipedia": "en:Corporation Bank", "level": "0", "name": "Corporation Bank", "name:en": "Corporation Bank", "name:kn": "\u0c95\u0cbe\u0cb0\u0ccd\u0caa\u0cb0\u0cc7\u0cb7\u0ca8\u0ccd \u0cac\u0ccd\u0caf\u0cbe\u0c82\u0c95\u0ccd", "website": "https://corpbank.com/"}}, {"type": "node", "id": 3806502334, "lat": 12.95802, "lon": 77.7009796, "tags": {"amenity": "bank", "check_date": "2023-08-05", "level": "0", "name": "Tumkur Grain Merchant Bank", "source": "survey", "wheelchair": "no"}}, {"type": "node", "id": 3806502336, "lat": 12.9580645, "lon": 77.700979, "tags": {"amenity": "bank", "atm": "yes", "brand": "Bank of Baroda", "brand:wikidata": "Q2003797", "check_date": "2023-08-05", "level": "0", "name": "Bank of Baroda", "source": "survey"}}, {"type": "node", "id": 3851551571, "lat": 12.9700892, "lon": 77.6477179, "tags": {"amenity": "bank", "brand": "Bank of Baroda", "brand:wikidata": "Q2003797", "brand:wikipedia": "en:Bank of Baroda", "level": "0", "name": "Bank of Baroda", "old_name": "Vijaya Bank"}}, {"type": "node", "id": 3851565598, "lat": 12.9699191, "lon": 77.646059, "tags": {"amenity": "bank", "atm": "yes", "level": "0"}}, {"type": "node", "id": 3851840696, "lat": 12.9706589, "lon": 77.6472567, "tags": {"amenity": "bank", "brand": "Indian Bank", "brand:wikidata": "Q2003789", "brand:wikipedia": "en:Indian Bank", "check_date": "2024-05-22", "level": "1", "name": "Indian Bank", "name:en": "Indian Bank", "name:kn": "\u0c87\u0c82\u0ca1\u0cbf\u0caf\u0ca8\u0ccd \u0cac\u0ccd\u0caf\u0cbe\u0c82\u0c95\u0ccd", "website": "https://www.indianbank.in/"}}, {"type": "node", "id": 3851880602, "lat": 12.9702611, "lon": 77.6450652, "tags": {"amenity": "bank", "atm": "yes", "brand": "State Bank of India", "brand:wikidata": "Q1340361", "brand:wikipedia": "en:State Bank of India", "check_date": "2023-10-08", "level": "0,1", "name": "State Bank of India", "name:kn": "\u0cad\u0cbe\u0cb0\u0ca4\u0cc0\u0caf \u0cb8\u0ccd\u0c9f\u0cc7\u0c9f\u0ccd \u0cac\u0ccd\u0caf\u0cbe\u0c82\u0c95\u0ccd", "opening_hours": "Tu-Su 10:00-16:00", "short_name": "SBI"}}, {"type": "node", "id": 3851884224, "lat": 12.9702598, "lon": 77.6451261, "tags": {"addr:street": "12th Main Road", "amenity": "bank", "atm": "no", "branch": "NRI Branch", "brand": "State Bank of India", "brand:wikidata": "Q1340361", "brand:wikipedia": "en:State Bank of India", "level": "2", "name": "State Bank of India", "short_name": "SBI", "website": "https://sbi.co.in/"}}, {"type": "node", "id": 3854032841, "lat": 12.9562411, "lon": 77.6952927, "tags": {"amenity": "bank", "atm": "yes", "brand": "Axis Bank", "brand:wikidata": "Q2003549", "brand:wikipedia": "en:Axis Bank", "level": "0", "name": "Axis Bank", "name:en": "Axis Bank", "name:kn": "\u0c85\u0c95\u0ccd\u0cb8\u0cbf\u0cb8\u0ccd \u0cac\u0ccd\u0caf\u0cbe\u0c82\u0c95\u0ccd", "website": "https://www.axisbank.com"}}, {"type": "node", "id": 4017367031, "lat": 12.9692333, "lon": 77.7357052, "tags": {"amenity": "bank", "brand": "Andhra Bank", "brand:wikidata": "Q2003476", "brand:wikipedia": "en:Andhra Bank", "name": "Andhra Bank", "name:en": "Andhra Bank", "name:kn": "\u0c86\u0c82\u0ca7\u0ccd\u0cb0 \u0cac\u0ccd\u0caf\u0cbe\u0c82\u0c95\u0ccd", "website": "https://www.andhrabank.in"}}, {"type": "node", "id": 4023086819, "lat": 12.983121, "lon": 77.7683002, "tags": {"amenity": "bank", "atm": "yes", "drive_through": "yes", "name": "Karnataka Bank", "name:kn": "\u0c95\u0cb0\u0ccd\u0ca8\u0cbe\u0c9f\u0c95 \u0cac\u0ccd\u0caf\u0cbe\u0c82\u0c95\u0ccd"}}, {"type": "node", "id": 4119284305, "lat": 12.9756892, "lon": 77.7266442, "tags": {"amenity": "bank", "brand": "State Bank of India", "brand:wikidata": "Q1340361", "brand:wikipedia": "en:State Bank of India", "name": "State Bank of India", "name:kn": "\u0cad\u0cbe\u0cb0\u0ca4\u0cc0\u0caf \u0cb8\u0ccd\u0c9f\u0cc7\u0c9f\u0ccd \u0cac\u0ccd\u0caf\u0cbe\u0c82\u0c95\u0ccd", "short_name": "SBI"}}, {"type": "node", "id": 4128944691, "lat": 12.9761408, "lon": 77.7266485, "tags": {"amenity": "bank", "brand": "Union Bank of India", "brand:wikidata": "Q2004078", "brand:wikipedia": "en:Union Bank of India", "name": "Union Bank of India", "name:en": "Union Bank of India", "name:kn": "\u0caf\u0cc2\u0ca8\u0cbf\u0caf\u0ca8\u0ccd \u0cac\u0ccd\u0caf\u0cbe\u0c82\u0c95\u0ccd", "short_name": "UBI", "website": "https://www.unionbankofindia.co.in/"}}, {"type": "node", "id": 4133663292, "lat": 12.9792116, "lon": 77.6952364, "tags": {"addr:housename": "Ashirwad Towers", "addr:street": "Outer Ring Road", "amenity": "bank", "brand": "IDBI Bank", "brand:wikidata": "Q3633485", "brand:wikipedia": "en:IDBI Bank", "check_date": "2024-09-19", "drive_through": "no", "name": "IDBI Bank", "name:en": "IDBI Bank", "name:kn": "\u0c90\u0ca1\u0cbf\u0cac\u0cbf\u0c90 \u0cac\u0ccd\u0caf\u0cbe\u0c82\u0c95\u0ccd", "old_name": "Industrial Development Bank of India", "opening_hours": "Mo-Sa 10:00-16:00; Su,Sa[2,4] off", "operator": "IDBI", "phone": "+91 80 2853 0813", "short_name": "IDBI", "source": "survey", "website": "https://www.idbi.com", "wheelchair": "no"}}, {"type": "node", "id": 4142109789, "lat": 12.9556735, "lon": 77.7219462, "tags": {"addr:street": "Varthur Road", "amenity": "bank", "atm": "yes", "brand": "Karur Vysya Bank", "brand:wikidata": "Q6373724", "brand:wikipedia": "en:Karur Vysya Bank", "check_date": "2025-07-05", "name": "Karur Vysya Bank", "name:en": "Karur Vysya Bank", "name:kn": "\u0c95\u0cb0\u0cc2\u0cb0\u0cc1 \u0cb5\u0cc8\u0cb6\u0ccd\u0caf \u0cac\u0ccd\u0caf\u0cbe\u0c82\u0c95\u0ccd", "short_name": "KVB", "website": "https://www.kvb.co.in"}}, {"type": "node", "id": 4163019490, "lat": 12.9733693, "lon": 77.675399, "tags": {"addr:street": "Malleshpalya Main Road", "amenity": "bank", "brand": "State Bank of India", "brand:wikidata": "Q1340361", "brand:wikipedia": "en:State Bank of India", "name": "State Bank of India", "name:kn": "\u0cad\u0cbe\u0cb0\u0ca4\u0cc0\u0caf \u0cb8\u0ccd\u0c9f\u0cc7\u0c9f\u0ccd \u0cac\u0ccd\u0caf\u0cbe\u0c82\u0c95\u0ccd", "short_name": "SBI", "website": "https://www.sbi.co.in"}}, {"type": "node", "id": 4215309991, "lat": 12.966188, "lon": 77.7139019, "tags": {"amenity": "bank", "brand": "Canara Bank", "brand:en": "Canara Bank", "brand:hi": "\u0915\u0947\u0928\u0930\u093e \u092c\u0948\u0902\u0915", "brand:kn": "\u0c95\u0cc6\u0ca8\u0cb0\u0cbe \u0cac\u0ccd\u0caf\u0cbe\u0c82\u0c95\u0ccd", "brand:pa": "\u0a15\u0a47\u0a28\u0a30\u0a3e \u0a2c\u0a48\u0a02\u0a15", "brand:pnb": "\u06a9\u06cc\u0646\u0631\u0627 \u0628\u06cc\u0646\u06a9", "brand:ur": "\u06a9\u06cc\u0646\u0631\u0627 \u0628\u06cc\u0646\u06a9", "brand:wikidata": "Q2003777", "brand:wikipedia": "en:Canara Bank", "brand:wikipedia:pa": "\u0a15\u0a47\u0a28\u0a30\u0a3e \u0a2c\u0a48\u0a02\u0a15", "check_date": "2024-07-13", "name": "Canara Bank", "name:en": "Canara Bank", "name:hi": "\u0915\u0947\u0928\u0930\u093e \u092c\u0948\u0902\u0915", "name:kn": "\u0c95\u0cc6\u0ca8\u0cb0\u0cbe \u0cac\u0ccd\u0caf\u0cbe\u0c82\u0c95\u0ccd", "name:pa": "\u0a15\u0a47\u0a28\u0a30\u0a3e \u0a2c\u0a48\u0a02\u0a15", "name:pnb": "\u06a9\u06cc\u0646\u0631\u0627 \u0628\u06cc\u0646\u06a9", "name:ur": "\u06a9\u06cc\u0646\u0631\u0627 \u0628\u06cc\u0646\u06a9", "website": "https://www.canarabank.com/"}}, {"type": "node", "id": 4227025142, "lat": 12.9791313, "lon": 77.6796562, "tags": {"addr:postcode": "560093", "amenity": "bank", "brand": "Karnataka Bank", "brand:wikidata": "Q2042632", "name": "Karnataka Bank", "name:kn": "\u0c95\u0cb0\u0ccd\u0ca8\u0cbe\u0c9f\u0c95 \u0cac\u0ccd\u0caf\u0cbe\u0c82\u0c95\u0ccd", "opening_hours": "24/7", "wheelchair": "no"}}, {"type": "node", "id": 4239061289, "lat": 13.0152695, "lon": 77.7093221, "tags": {"amenity": "bank", "brand": "State Bank of India", "brand:wikidata": "Q1340361", "brand:wikipedia": "en:State Bank of India", "name": "State Bank of India", "name:kn": "\u0cad\u0cbe\u0cb0\u0ca4\u0cc0\u0caf \u0cb8\u0ccd\u0c9f\u0cc7\u0c9f\u0ccd \u0cac\u0ccd\u0caf\u0cbe\u0c82\u0c95\u0ccd", "short_name": "SBI"}}, {"type": "node", "id": 4281970789, "lat": 12.9717991, "lon": 77.658012, "tags": {"amenity": "bank", "branch": "BEML Gate Branch", "brand": "HDFC Bank", "brand:wikidata": "Q631047", "name": "HDFC Bank", "short_name": "HDFC"}}, {"type": "node", "id": 4307542691, "lat": 12.9708829, "lon": 77.6471348, "tags": {"amenity": "bank", "atm": "yes", "level": "1", "name": "Bharat Bank"}}, {"type": "node", "id": 4307558066, "lat": 12.9719769, "lon": 77.6473023, "tags": {"amenity": "bank", "atm": "yes", "brand": "Kotak Mahindra Bank", "brand:wikidata": "Q2040404", "brand:wikipedia": "en:Kotak Mahindra Bank", "level": "0", "name": "Kotak Mahindra Bank", "name:en": "Kotak Mahindra Bank", "name:kn": "\u0c95\u0ccb\u0c9f\u0c95\u0ccd \u0cae\u0cb9\u0cbf\u0c82\u0ca6\u0ccd\u0cb0 \u0cac\u0ccd\u0caf\u0cbe\u0c82\u0c95\u0ccd", "website": "http://www.kotak.com"}}, {"type": "node", "id": 4307567718, "lat": 12.9720918, "lon": 77.6473289, "tags": {"amenity": "bank", "brand": "Yes Bank", "brand:wikidata": "Q2040394", "brand:wikipedia": "en:Yes Bank", "name": "Yes Bank", "name:en": "YES Bank", "name:kn": "\u0caf\u0cb8\u0ccd \u0cac\u0ccd\u0caf\u0cbe\u0c82\u0c95\u0ccd", "website": "https://www.yesbank.in"}}, {"type": "node", "id": 4341511333, "lat": 12.9669615, "lon": 77.6824375, "tags": {"amenity": "bank", "atm": "yes", "brand": "State Bank of India", "brand:wikidata": "Q1340361", "brand:wikipedia": "en:State Bank of India", "name": "State Bank of India", "name:kn": "\u0cad\u0cbe\u0cb0\u0ca4\u0cc0\u0caf \u0cb8\u0ccd\u0c9f\u0cc7\u0c9f\u0ccd \u0cac\u0ccd\u0caf\u0cbe\u0c82\u0c95\u0ccd", "opening_hours": "\"the bank also closes on every even numbered saturday\"", "short_name": "SBI"}}, {"type": "node", "id": 4349394091, "lat": 13.0086727, "lon": 77.6429248, "tags": {"amenity": "bank", "brand": "Indian Overseas Bank", "brand:wikidata": "Q2003611", "brand:wikipedia": "en:Indian Overseas Bank", "name": "Indian Overseas Bank", "name:en": "Indian Overseas Bank", "name:kn": "\u0c90 \u0c93 \u0cac\u0cbf", "short_name": "IOB", "website": "https://www.iob.in"}}, {"type": "node", "id": 4349394092, "lat": 13.0099795, "lon": 77.6434028, "tags": {"amenity": "bank", "brand:wikidata": "Q1340361", "brand:wikipedia": "en:State Bank of India", "name": "State Bank of India", "name:kn": "\u0c8e\u0cb8\u0ccd \u0cac\u0cbf \u0c90", "short_name": "SBI", "website": "https://www.sbi.co.in"}}, {"type": "node", "id": 4350017198, "lat": 12.9608703, "lon": 77.7017044, "tags": {"amenity": "bank", "brand": "HDFC Bank", "brand:wikidata": "Q631047", "name": "HDFC Bank", "name:kn": "\u0c8e\u0c9a\u0ccd \u0ca1\u0cbf \u0c8e\u0cab\u0ccd \u0cb8\u0cbf", "short_name": "HDFC", "wheelchair": "no"}}, {"type": "node", "id": 4350026190, "lat": 12.9264609, "lon": 77.678263, "tags": {"amenity": "bank", "brand": "State Bank of India", "brand:wikidata": "Q1340361", "brand:wikipedia": "en:State Bank of India", "name": "State Bank of India", "name:kn": "\u0cad\u0cbe\u0cb0\u0ca4\u0cc0\u0caf \u0cb8\u0ccd\u0c9f\u0cc7\u0c9f\u0ccd \u0cac\u0ccd\u0caf\u0cbe\u0c82\u0c95\u0ccd", "short_name": "SBI", "website": "https://www.sbi.co.in"}}, {"type": "node", "id": 4422320591, "lat": 13.0207532, "lon": 77.6841848, "tags": {"addr:street": "Akshay Nagar", "amenity": "bank", "brand:wikidata": "Q367008", "brand:wikipedia": "en:Oriental Bank of Commerce", "name": "Oriental Bank of Commerce", "name:en": "Oriental Bank of Commerce", "short_name": "OBC", "website": "https://www.obcindia.co.in"}}, {"type": "node", "id": 4422382490, "lat": 13.020674, "lon": 77.6861834, "tags": {"addr:street": "Thambuchettypalya Main Road", "amenity": "bank", "brand": "State Bank of India", "brand:wikidata": "Q1340361", "brand:wikipedia": "en:State Bank of India", "name": "State Bank of India", "name:kn": "\u0cad\u0cbe\u0cb0\u0ca4\u0cc0\u0caf \u0cb8\u0ccd\u0c9f\u0cc7\u0c9f\u0ccd \u0cac\u0ccd\u0caf\u0cbe\u0c82\u0c95\u0ccd", "short_name": "SBI", "website": "https://www.sbi.co.in"}}, {"type": "node", "id": 4445111067, "lat": 12.9230111, "lon": 77.6953977, "tags": {"addr:city": "Bangalore", "addr:housenumber": "303/65/1A", "addr:postcode": "560035", "addr:street": "Benaka Complex, Sarjapura Road, Carmelaram Post, Ground Floor, Kaikondrahalli,", "amenity": "bank", "atm": "yes", "brand": "Axis Bank", "brand:wikidata": "Q2003549", "brand:wikipedia": "en:Axis Bank", "drive_through": "no", "level": "0", "name": "Axis Bank", "name:en": "Axis Bank", "name:kn": "\u0c85\u0c95\u0ccd\u0cb8\u0cbf\u0cb8\u0ccd \u0cac\u0ccd\u0caf\u0cbe\u0c82\u0c95\u0cc1", "opening_hours": "10:30-16:00", "phone": "080-28439058, 28439060, 1800 209 5577", "website": "https://www.axisbank.com"}}, {"type": "node", "id": 4446577897, "lat": 12.9489624, "lon": 77.688338, "tags": {"addr:city": "Bengaluru", "addr:postcode": "560037", "addr:street": "Kariyammana Agrahara Rd, Yemalur, Bellandur,", "amenity": "bank", "branch": "Yemalur", "brand": "State Bank of India", "brand:wikidata": "Q1340361", "brand:wikipedia": "en:State Bank of India", "name": "State Bank of India", "phone": "+91 94489 93295", "short_name": "SBI", "website": "https://bankifsccode.com"}}, {"type": "node", "id": 4447009525, "lat": 12.9530901, "lon": 77.6746006, "tags": {"addr:city": "bangalore", "addr:postcode": "560017", "addr:street": "HAL airport area, HAL", "amenity": "bank", "name": "HDFC Standard Life Insurance Co. Ltd.", "website": "https://www.hdfclife.com"}}, {"type": "node", "id": 4489738690, "lat": 13.0184011, "lon": 77.6544876, "tags": {"amenity": "bank", "brand": "Axis Bank", "brand:wikidata": "Q2003549", "brand:wikipedia": "en:Axis Bank", "name": "Axis Bank", "name:en": "Axis Bank", "name:kn": "\u0c85\u0c95\u0ccd\u0cb8\u0cbf\u0cb8\u0ccd \u0cac\u0ccd\u0caf\u0cbe\u0c82\u0c95\u0ccd", "operator": "Axis", "website": "https://www.axisbank.com"}}, {"type": "node", "id": 4528143100, "lat": 12.9994057, "lon": 77.6943679, "tags": {"addr:housenumber": "125", "addr:postcode": "560048", "addr:street": "2nd Main Road", "amenity": "bank", "atm": "yes", "brand": "State Bank of India", "brand:wikidata": "Q1340361", "brand:wikipedia": "en:State Bank of India", "name": "State Bank of India", "name:kn": "\u0cad\u0cbe\u0cb0\u0ca4\u0cc0\u0caf \u0cb8\u0ccd\u0c9f\u0cc7\u0c9f\u0ccd \u0cac\u0ccd\u0caf\u0cbe\u0c82\u0c95\u0ccd", "phone": "+91 8939393931", "short_name": "SBI", "website": "https://www.sbi.co.in"}}, {"type": "node", "id": 4550426290, "lat": 13.0184293, "lon": 77.6535496, "tags": {"amenity": "bank", "brand": "Oriental Bank of Commerce", "brand:wikidata": "Q367008", "brand:wikipedia": "en:Oriental Bank of Commerce", "name": "Oriental Bank of Commerce", "name:en": "Oriental Bank of Commerce", "short_name": "OBC", "website": "https://www.obcindia.co.in"}}, {"type": "node", "id": 4558661992, "lat": 12.9596296, "lon": 77.6462357, "tags": {"amenity": "bank", "brand": "State Bank of India", "brand:wikidata": "Q1340361", "brand:wikipedia": "en:State Bank of India", "name": "State Bank of India", "name:kn": "\u0cad\u0cbe\u0cb0\u0ca4\u0cc0\u0caf \u0cb8\u0ccd\u0c9f\u0cc7\u0c9f\u0ccd \u0cac\u0ccd\u0caf\u0cbe\u0c82\u0c95\u0ccd", "short_name": "SBI", "website": "https://www.sbi.co.in"}}, {"type": "node", "id": 4599152889, "lat": 12.9931212, "lon": 77.6795196, "tags": {"amenity": "bank", "brand": "State Bank of India", "brand:wikidata": "Q1340361", "brand:wikipedia": "en:State Bank of India", "name": "State Bank of India", "name:kn": "\u0c8e\u0cb8\u0ccd \u0cac\u0cbf \u0c90", "short_name": "SBI", "website": "https://www.sbi.co.in"}}, {"type": "node", "id": 4599826589, "lat": 12.9795556, "lon": 77.6578756, "tags": {"amenity": "bank", "atm": "yes", "brand": "State Bank of India", "brand:wikidata": "Q1340361", "brand:wikipedia": "en:State Bank of India", "name": "State Bank of India", "name:en": "SBI", "name:kn": "\u0cad\u0cbe\u0cb0\u0ca4\u0cc0\u0caf \u0cb8\u0ccd\u0c9f\u0cc7\u0c9f\u0ccd \u0cac\u0ccd\u0caf\u0cbe\u0c82\u0c95\u0ccd", "short_name": "SBI", "website": "https://www.sbi.co.in", "wheelchair": "limited"}}, {"type": "node", "id": 4599826789, "lat": 12.9922876, "lon": 77.6599855, "tags": {"amenity": "bank", "brand": "State Bank of India", "brand:wikidata": "Q1340361", "brand:wikipedia": "en:State Bank of India", "name": "State Bank of India", "name:kn": "\u0cad\u0cbe\u0cb0\u0ca4\u0cc0\u0caf \u0cb8\u0ccd\u0c9f\u0cc7\u0c9f\u0ccd \u0cac\u0ccd\u0caf\u0cbe\u0c82\u0c95\u0ccd", "short_name": "SBI", "website": "https://www.sbi.co.in"}}, {"type": "node", "id": 4685249489, "lat": 12.9854258, "lon": 77.6733538, "tags": {"amenity": "bank", "brand": "State Bank of India", "brand:wikidata": "Q1340361", "brand:wikipedia": "en:State Bank of India", "name": "State Bank of India", "name:kn": "\u0cad\u0cbe\u0cb0\u0ca4\u0cc0\u0caf \u0cb8\u0ccd\u0c9f\u0cc7\u0c9f\u0ccd \u0cac\u0ccd\u0caf\u0cbe\u0c82\u0c95\u0ccd", "short_name": "SBI", "website": "https://www.sbi.co.in"}}, {"type": "node", "id": 4686183789, "lat": 12.9855509, "lon": 77.668072, "tags": {"amenity": "bank", "brand": "HDFC Bank", "brand:wikidata": "Q631047", "name": "HDFC Bank", "name:en": "HDFC CV Raman Nagar", "short_name": "HDFC"}}, {"type": "node", "id": 4686864295, "lat": 12.9854892, "lon": 77.6679809, "tags": {"amenity": "bank", "brand": "ICICI Bank", "brand:wikidata": "Q1653258", "name": "ICICI Bank", "name:en": "ICICI CV Raman nagar", "short_name": "ICICI"}}, {"type": "node", "id": 4686864296, "lat": 12.9852368, "lon": 77.6679566, "tags": {"amenity": "bank", "brand": "Syndicate Bank", "brand:wikidata": "Q2004088", "name": "Syndicate Bank", "name:en": "Syndicate Bank", "name:kn": "\u0cb8\u0cbf\u0c82\u0ca1\u0cbf\u0c95\u0cc7\u0c9f\u0ccd \u0cac\u0ccd\u0caf\u0cbe\u0c82\u0c95\u0ccd", "website": "https://www.syndicatebank.in", "wikimedia_commons": "Category:Syndicate Bank"}}, {"type": "node", "id": 4690003727, "lat": 12.9714522, "lon": 77.6562815, "tags": {"amenity": "bank", "brand": "Bank of Baroda", "brand:wikidata": "Q2003797", "brand:wikipedia": "en:Bank of Baroda", "name": "Bank of Baroda", "name:kn": "\u0cb5\u0cbf\u0c9c\u0caf \u0cac\u0ccd\u0caf\u0cbe\u0c82\u0c95\u0cc1"}}, {"type": "node", "id": 4690003728, "lat": 12.9714143, "lon": 77.6563575, "tags": {"amenity": "bank", "brand": "State Bank of India", "brand:wikidata": "Q1340361", "brand:wikipedia": "en:State Bank of India", "name": "State Bank of India", "name:kn": "\u0cad\u0cbe\u0cb0\u0ca4\u0cc0\u0caf \u0cb8\u0ccd\u0c9f\u0cc7\u0c9f\u0ccd \u0cac\u0ccd\u0caf\u0cbe\u0c82\u0c95\u0ccd", "short_name": "SBI", "website": "https://www.sbi.co.in"}}, {"type": "node", "id": 4701649265, "lat": 12.9244799, "lon": 77.6741752, "tags": {"amenity": "bank", "brand": "State Bank of India", "brand:wikidata": "Q1340361", "brand:wikipedia": "en:State Bank of India", "name": "State Bank of India", "name:kn": "\u0cad\u0cbe\u0cb0\u0ca4\u0cc0\u0caf \u0cb8\u0ccd\u0c9f\u0cc7\u0c9f\u0ccd \u0cac\u0ccd\u0caf\u0cbe\u0c82\u0c95\u0ccd", "short_name": "SBI", "website": "https://www.sbi.co.in"}}, {"type": "node", "id": 4784848418, "lat": 13.0097185, "lon": 77.6444698, "tags": {"addr:city": "Bangalore", "addr:full": "586, 3rd Cross Road, Near Maruthi School Bus Stop, Erappa Layout, Subbaiahna Palya, Banaswadi, Bangalore - 560043", "addr:housenumber": "586", "addr:postcode": "560043", "addr:street": "3rd Cross Road", "amenity": "bank", "atm": "yes", "brand": "Syndicate Bank", "brand:wikidata": "Q2004088", "name": "Syndicate Bank", "name:en": "Syndicate Bank", "name:kn": "\u0cb8\u0cbf\u0c82\u0ca1\u0cbf\u0c95\u0cc7\u0c9f\u0ccd \u0cac\u0ccd\u0caf\u0cbe\u0c82\u0c95\u0ccd", "website": "https://www.syndicatebank.in"}}, {"type": "node", "id": 4815578705, "lat": 12.9678947, "lon": 77.6538556, "tags": {"amenity": "bank", "atm": "yes", "brand": "State Bank of India", "brand:wikidata": "Q1340361", "brand:wikipedia": "en:State Bank of India", "name": "State Bank of India", "name:kn": "\u0cad\u0cbe\u0cb0\u0ca4\u0cc0\u0caf \u0cb8\u0ccd\u0c9f\u0cc7\u0c9f\u0ccd \u0cac\u0ccd\u0caf\u0cbe\u0c82\u0c95\u0ccd", "short_name": "SBI"}}, {"type": "node", "id": 4844863379, "lat": 13.0093391, "lon": 77.6432232, "tags": {"amenity": "bank", "brand": "Punjab National Bank", "brand:wikidata": "Q2743499", "name": "Punjab National Bank", "name:en": "Punjab National Bank", "name:kn": "\u0caa\u0c82\u0c9c\u0cbe\u0cac \u0cb0\u0cbe\u0cb7\u0ccd\u0c9f\u0ccd\u0cb0\u0cc0\u0caf \u0cac\u0ccd\u0caf\u0cbe\u0c82\u0c95\u0ccd", "short_name": "PNB", "website": "https://www.pnbindia.in"}}, {"type": "node", "id": 4844865053, "lat": 13.0100548, "lon": 77.6431061, "tags": {"amenity": "bank", "brand": "IDBI", "brand:wikidata": "Q3633485", "brand:wikipedia": "en:IDBI Bank", "check_date": "2024-07-10", "name": "IDBI Bank", "name:en": "IDBI Bank", "name:kn": "\u0c90\u0ca1\u0cbf\u0cac\u0cbf\u0c90 \u0cac\u0ccd\u0caf\u0cbe\u0c82\u0c95\u0ccd", "old_name": "Industrial Development Bank of India", "short_name": "IDBI", "website": "https://www.idbi.com"}}, {"type": "node", "id": 4905066223, "lat": 13.022258, "lon": 77.6433948, "tags": {"amenity": "bank", "brand": "State Bank of India", "brand:wikidata": "Q1340361", "name": "State Bank of India", "name:en": "SBI RACPC", "short_name": "SBI"}}, {"type": "node", "id": 4937042727, "lat": 12.9643552, "lon": 77.7133859, "tags": {"amenity": "bank", "atm": "yes", "branch": "AECS Layout", "brand": "Axis Bank", "brand:wikidata": "Q2003549", "check_date": "2024-07-13", "name": "Axis Bank - AECS Layout Branch", "operator": "Axis Bank", "wheelchair": "no"}}, {"type": "node", "id": 4945660322, "lat": 13.0124591, "lon": 77.6483105, "tags": {"amenity": "bank", "brand": "Federal Bank", "brand:wikidata": "Q2044983", "name": "Federal Bank", "name:en": "Federal Bank", "name:kn": "\u0cab\u0cc6\u0ca1\u0cc6\u0cb0\u0cb2\u0ccd \u0cac\u0ccd\u0caf\u0cbe\u0c82\u0c95\u0ccd"}}, {"type": "node", "id": 4973098295, "lat": 13.0490526, "lon": 77.6294582, "tags": {"amenity": "bank", "brand": "ICICI Bank", "brand:wikidata": "Q1653258", "name": "ICICI Bank", "name:kn": "\u0c90\u0cb8\u0cbf\u0c90\u0cb8\u0cbf\u0c90 \u0cac\u0ccd\u0caf\u0cbe\u0c82\u0c95\u0cc1", "short_name": "ICICI"}}, {"type": "node", "id": 4973098298, "lat": 13.054535, "lon": 77.6321499, "tags": {"amenity": "bank", "name": "Kotak Mahindra Bank"}}, {"type": "node", "id": 5003288807, "lat": 12.9686524, "lon": 77.6499541, "tags": {"amenity": "bank", "brand": "ICICI Bank", "brand:wikidata": "Q1653258", "name": "ICICI Bank", "short_name": "ICICI"}}, {"type": "node", "id": 5016060839, "lat": 12.9109725, "lon": 77.6764471, "tags": {"addr:city": "Bangalore", "addr:postcode": "560035", "addr:street": "Central Jail Road", "amenity": "bank", "atm": "yes", "brand": "Karnataka Bank", "brand:wikidata": "Q2042632", "brand:wikipedia": "en:Karnataka Bank", "drive_through": "no", "name": "Karnataka Bank", "name:kn": "\u0c95\u0cb0\u0ccd\u0ca8\u0cbe\u0c9f\u0c95 \u0cac\u0ccd\u0caf\u0cbe\u0c82\u0c95\u0ccd"}}, {"type": "node", "id": 5019222883, "lat": 12.9143222, "lon": 77.6774803, "tags": {"addr:city": "Bangalore", "addr:postcode": "560035", "addr:street": "Sarjapur Road", "amenity": "bank", "brand": "Kotak Mahindra Bank", "brand:wikidata": "Q2040404", "brand:wikipedia": "en:Kotak Mahindra Bank", "name": "Kotak Mahindra Bank", "name:kn": "\u0c95\u0ccb\u0c9f\u0c95\u0ccd \u0cae\u0cb9\u0cbf\u0c82\u0ca6\u0ccd\u0cb0 \u0cac\u0ccd\u0caf\u0cbe\u0c82\u0c95\u0ccd", "operator": "Kotak Mahindra Bank"}}, {"type": "node", "id": 5019270023, "lat": 13.0197834, "lon": 77.673589, "tags": {"amenity": "bank", "name:en": "HDFC BANK"}}, {"type": "node", "id": 5053373334, "lat": 12.9790327, "lon": 77.7302971, "tags": {"amenity": "bank", "atm": "yes", "brand": "Bank of India", "brand:wikidata": "Q2004439", "brand:wikipedia": "en:Bank of India", "name": "Bank of India"}}, {"type": "node", "id": 5112182301, "lat": 13.0090127, "lon": 77.6562397, "tags": {"amenity": "bank", "atm": "yes", "drive_through": "no", "name": "Vijaya Bank", "name:kn": "\u0cb5\u0cbf\u0c9c\u0caf \u0cac\u0ccd\u0caf\u0cbe\u0c82\u0c95\u0cc1", "operator": "Vijaya Bank"}}, {"type": "node", "id": 5112228446, "lat": 13.0048108, "lon": 77.6601929, "tags": {"amenity": "bank", "atm": "yes", "brand": "Karnataka Bank", "brand:wikidata": "Q2042632", "check_date": "2025-07-09", "name": "Karnataka Bank", "name:kn": "\u0c95\u0cb0\u0ccd\u0ca8\u0cbe\u0c9f\u0c95 \u0cac\u0ccd\u0caf\u0cbe\u0c82\u0c95\u0ccd", "operator": "Karnataka Bank"}}, {"type": "node", "id": 5255533513, "lat": 13.0102536, "lon": 77.6579312, "tags": {"amenity": "bank", "brand": "Axis Bank", "brand:wikidata": "Q2003549", "name": "Axis Bank", "name:kn": "\u0c85\u0c95\u0ccd\u0cb8\u0cbf\u0cb8\u0ccd \u0cac\u0ccd\u0caf\u0cbe\u0c82\u0c95\u0ccd"}}, {"type": "node", "id": 5255534222, "lat": 13.0056978, "lon": 77.6604552, "tags": {"amenity": "bank", "brand": "Indian Bank", "brand:wikidata": "Q2003789", "name": "Indian Bank", "name:kn": "\u0c87\u0c82\u0ca1\u0cbf\u0caf\u0ca8\u0ccd \u0cac\u0ccd\u0caf\u0cbe\u0c82\u0c95\u0ccd"}}, {"type": "node", "id": 5281839989, "lat": 12.9981365, "lon": 77.6712356, "tags": {"amenity": "bank", "atm": "yes", "brand": "Axis Bank", "brand:wikidata": "Q2003549", "name": "Axis Bank"}}, {"type": "node", "id": 5281842524, "lat": 12.9669112, "lon": 77.7609314, "tags": {"amenity": "bank", "atm": "yes", "brand": "Axis Bank", "brand:wikidata": "Q2003549", "name": "Axis Bank", "name:kn": "\u0c86\u0c95\u0ccd\u0cb8\u0cbf\u0cb8\u0ccd \u0cac\u0ccd\u0caf\u0cbe\u0c82\u0c95\u0ccd"}}, {"type": "node", "id": 5295004551, "lat": 13.0575188, "lon": 77.6327683, "tags": {"amenity": "bank", "name": "State Bank of India", "name:kn": "\u0cad\u0cbe\u0cb0\u0ca4\u0cc0\u0caf \u0cb8\u0ccd\u0c9f\u0cc7\u0c9f\u0ccd \u0cac\u0ccd\u0caf\u0cbe\u0c82\u0c95\u0ccd"}}, {"type": "node", "id": 5295004554, "lat": 13.0575735, "lon": 77.633121, "tags": {"amenity": "bank", "name": "Syndicate Bank", "name:kn": "\u0cb8\u0cbf\u0c82\u0ca1\u0cbf\u0c95\u0cc7\u0c9f\u0ccd \u0cac\u0ccd\u0caf\u0cbe\u0c82\u0c95\u0ccd"}}, {"type": "node", "id": 5295004556, "lat": 13.0618055, "lon": 77.6331852, "tags": {"amenity": "bank", "name": "Kotak Mahindra Bank", "name:kn": "\u0c95\u0ccb\u0c9f\u0c95\u0ccd \u0cae\u0cb9\u0cbf\u0c82\u0ca6\u0ccd\u0cb0 \u0cac\u0ccd\u0caf\u0cbe\u0c82\u0c95\u0ccd"}}, {"type": "node", "id": 5418246323, "lat": 13.0506091, "lon": 77.6212545, "tags": {"amenity": "bank", "atm": "yes", "brand": "State Bank of India", "brand:wikidata": "Q1340361", "name": "State Bank of India", "name:kn": "\u0cad\u0cbe\u0cb0\u0ca4\u0cc0\u0caf \u0cb8\u0ccd\u0c9f\u0cc7\u0c9f\u0ccd \u0cac\u0ccd\u0caf\u0cbe\u0c82\u0c95\u0ccd", "short_name": "SBI"}}, {"type": "node", "id": 5643902788, "lat": 12.9244491, "lon": 77.6741821, "tags": {"addr:city": "Bengaluru", "amenity": "bank", "atm": "no", "brand": "Syndicate Bank", "brand:wikidata": "Q2004088", "brand:wikipedia": "en:Syndicate Bank", "drive_through": "no", "name": "Syndicate Bank", "name:kn": "\u0cb8\u0cbf\u0c82\u0ca1\u0cbf\u0c95\u0cc7\u0c9f\u0ccd \u0cac\u0ccd\u0caf\u0cbe\u0c82\u0c95\u0ccd"}}, {"type": "node", "id": 5770656896, "lat": 12.9094885, "lon": 77.6869501, "tags": {"addr:city": "Bengaluru", "addr:postcode": "560035", "addr:street": "Sarjapur Road", "amenity": "bank", "atm": "yes", "brand": "Canara Bank", "brand:en": "Canara Bank", "brand:hi": "\u0915\u0947\u0928\u0930\u093e \u092c\u0948\u0902\u0915", "brand:kn": "\u0c95\u0cc6\u0ca8\u0cb0\u0cbe \u0cac\u0ccd\u0caf\u0cbe\u0c82\u0c95\u0ccd", "brand:pa": "\u0a15\u0a47\u0a28\u0a30\u0a3e \u0a2c\u0a48\u0a02\u0a15", "brand:pnb": "\u06a9\u06cc\u0646\u0631\u0627 \u0628\u06cc\u0646\u06a9", "brand:ur": "\u06a9\u06cc\u0646\u0631\u0627 \u0628\u06cc\u0646\u06a9", "brand:wikidata": "Q2003777", "brand:wikipedia": "en:Canara Bank", "brand:wikipedia:pa": "\u0a15\u0a47\u0a28\u0a30\u0a3e \u0a2c\u0a48\u0a02\u0a15", "drive_through": "no", "name": "Canara Bank", "name:en": "Canara Bank", "name:hi": "\u0915\u0947\u0928\u0930\u093e \u092c\u0948\u0902\u0915", "name:kn": "\u0c95\u0cc6\u0ca8\u0cb0\u0cbe \u0cac\u0ccd\u0caf\u0cbe\u0c82\u0c95\u0ccd", "name:pa": "\u0a15\u0a47\u0a28\u0a30\u0a3e \u0a2c\u0a48\u0a02\u0a15", "name:pnb": "\u06a9\u06cc\u0646\u0631\u0627 \u0628\u06cc\u0646\u06a9", "name:ur": "\u06a9\u06cc\u0646\u0631\u0627 \u0628\u06cc\u0646\u06a9", "opening_hours": "Mo-Su 10:00-14:00", "phone": "1800 425 0018", "website": "https://canarabank.in"}}, {"type": "node", "id": 5833747054, "lat": 13.0037485, "lon": 77.6603498, "tags": {"addr:city": "Bangalore", "addr:housenumber": "1BM, 219, East of NGEF Layout, Kasturi Nagar", "addr:postcode": "560043", "addr:street": "3rd Cross Road", "amenity": "bank", "atm": "yes", "brand": "HDFC Bank", "brand:wikidata": "Q631047", "description": "HDFC ATM", "name": "HDFC Bank", "name:kn": "\u0c8e\u0c9a\u0ccd. \u0ca1\u0cbf. \u0c8e\u0cab\u0ccd. \u0cb8\u0cbf..", "opening_hours": "Mo-Su,PH 01:00-24:00", "operator": "HDFC", "short_name": "HDFC"}}, {"type": "node", "id": 6076101984, "lat": 12.921609, "lon": 77.6719359, "tags": {"amenity": "bank"}}, {"type": "node", "id": 6297708387, "lat": 12.9340502, "lon": 77.6909297}, {"type": "node", "id": 6297708388, "lat": 12.9339358, "lon": 77.6909825}, {"type": "node", "id": 6297708389, "lat": 12.9339812, "lon": 77.6910861}, {"type": "node", "id": 6297708390, "lat": 12.9340956, "lon": 77.6910333}, {"type": "node", "id": 6374356467, "lat": 12.9788227, "lon": 77.7512306, "tags": {"amenity": "bank", "brand": "Ujjivan Small Finance Bank", "brand:wikidata": "Q42529272", "check_date": "2025-09-08", "name": "Ujjivan Small Finance Bank"}}, {"type": "node", "id": 6374356468, "lat": 12.9790422, "lon": 77.7516788, "tags": {"amenity": "bank", "brand": "Axis Bank", "brand:wikidata": "Q2003549", "brand:wikipedia": "en:Axis Bank", "check_date": "2025-07-03", "name": "Axis Bank", "name:en": "Axis Bank", "name:kn": "\u0c85\u0c95\u0ccd\u0cb8\u0cbf\u0cb8\u0ccd \u0cac\u0ccd\u0caf\u0cbe\u0c82\u0c95\u0ccd", "website": "https://www.axisbank.com"}}, {"type": "node", "id": 6991415993, "lat": 13.0119371, "lon": 77.6670609, "tags": {"addr:street": "No. 5C-404, Ramamurthy Nagar Main Road", "amenity": "bank", "brand": "Andhra Bank", "brand:wikidata": "Q2003476", "name": "Andhra Bank", "name:kn": "\u0c86\u0c82\u0ca7\u0ccd\u0cb0 \u0cac\u0ccd\u0caf\u0cbe\u0c82\u0c95\u0ccd", "opening_hours": "Mo-Sa 09:30-16:00"}}, {"type": "node", "id": 6991444326, "lat": 13.0089378, "lon": 77.6674347, "tags": {"addr:street": "SP Naidu Layout", "amenity": "bank", "brand": "State Bank of India", "brand:wikidata": "Q1340361", "name": "State Bank of India", "short_name": "SBI"}}, {"type": "node", "id": 6991455384, "lat": 13.0120621, "lon": 77.6673126, "tags": {"addr:street": "410, #5C, Ramamurthy Nagar Main Road", "amenity": "bank", "name": "Kaveri Grameena Bank", "not:brand:wikidata": "Q24936908", "opening_hours": "Mo-Sa 10:00-17:00"}}, {"type": "node", "id": 6991466205, "lat": 13.0114374, "lon": 77.6795654, "tags": {"addr:street": "12, A Main Road", "amenity": "bank", "brand": "HDFC Bank", "brand:wikidata": "Q631047", "name": "HDFC Bank", "name:kn": "\u0c8e\u0c9a\u0ccd \u0ca1\u0cbf \u0c8e\u0cab\u0ccd \u0cb8\u0cbf", "opening_hours": "Mo-Sa 10:00-16:00", "short_name": "HDFC"}}, {"type": "node", "id": 6991479751, "lat": 13.0154371, "lon": 77.678566, "tags": {"addr:street": "No. 54/E, Angada Heights, Kalkere Main Road", "amenity": "bank", "name": "Vijaya Bank", "name:kn": "\u0cb5\u0cbf\u0c9c\u0caf \u0cac\u0ccd\u0caf\u0cbe\u0c82\u0c95\u0ccd", "opening_hours": "Mo-Fr 10:00-15:30"}}, {"type": "node", "id": 6991490038, "lat": 13.0114374, "lon": 77.6768112, "tags": {"addr:street": "Narayanappa Building, Ramamurthy Nagar Main Road", "amenity": "bank", "brand": "UCO Bank", "brand:wikidata": "Q2005310", "name": "UCO Bank", "name:kn": "\u0caf\u0cc2\u0c95\u0cca \u0cac\u0ccd\u0caf\u0cbe\u0c82\u0c95\u0ccd", "opening_hours": "Mo-Fr 09:30-15:30"}}, {"type": "node", "id": 7132397448, "lat": 12.9751437, "lon": 77.7509404, "tags": {"amenity": "bank", "atm": "yes", "brand": "Bandhan Bank", "brand:wikidata": "Q19882235", "check_date": "2025-07-11", "name": "Bandhan Bank", "wheelchair": "limited"}}, {"type": "node", "id": 7193521013, "lat": 12.9722265, "lon": 77.68077, "tags": {"addr:street": "Vignan Nagar", "amenity": "bank", "brand": "HDFC Bank", "brand:wikidata": "Q631047", "brand:wikipedia": "en:HDFC Bank", "name": "HDFC Bank", "short_name": "HDFC"}}, {"type": "node", "id": 7208904227, "lat": 13.0485259, "lon": 77.6452813, "tags": {"amenity": "bank", "atm": "yes", "brand": "Axis Bank", "brand:wikidata": "Q2003549", "name": "Axis Bank", "name:kn": "\u0c86\u0c95\u0ccd\u0cb8\u0cbf\u0cb8\u0ccd \u0cac\u0ccd\u0caf\u0cbe\u0c82\u0c95\u0ccd"}}, {"type": "node", "id": 7476788463, "lat": 12.964599, "lon": 77.6822717}, {"type": "node", "id": 7476788464, "lat": 12.9646395, "lon": 77.6821568}, {"type": "node", "id": 7476788465, "lat": 12.9648417, "lon": 77.6822143}, {"type": "node", "id": 7476788466, "lat": 12.9647992, "lon": 77.6824059}, {"type": "node", "id": 7976308342, "lat": 12.976757, "lon": 77.6465951, "tags": {"addr:street": "80ft road", "amenity": "bank", "brand": "State Bank of India", "brand:wikidata": "Q1340361", "description": "car , home loan and locker facility", "name": "State Bank of India", "phone": "+9108025214252", "short_name": "SBI"}}, {"type": "node", "id": 7976322809, "lat": 12.9779152, "lon": 77.6429773, "tags": {"amenity": "bank", "brand": "Punjab National Bank", "brand:wikidata": "Q2743499", "name": "Punjab National Bank"}}, {"type": "node", "id": 8187962033, "lat": 13.0642742, "lon": 77.650943, "tags": {"addr:city": "Bengaluru", "addr:full": "Gubbi Cross, Hennur Bagalur Rd, Kothanur, Bengaluru, Karnataka", "addr:postcode": "560077", "addr:state": "Karnataka", "addr:street": "Hennur Bagalur Road", "amenity": "bank", "atm": "yes", "brand": "Indian Overseas Bank", "brand:wikidata": "Q2003611", "brand:wikipedia": "en:Indian Overseas Bank", "name": "Indian Overseas Bank", "name:kn": "\u0c90 \u0c93 \u0cac\u0cbf", "opening_hours": "Mo-Sa 09:00-16:00", "operator": "IOB"}}, {"type": "node", "id": 8187963512, "lat": 12.9717162, "lon": 77.6813888, "tags": {"addr:full": "P.O, DO.NO.31/39, MONITHA MANSION, VIGNAN NAGAR MAIN ROAD THIPPASANDRA, MARATHAHALLY, Sector B, Ramaiahreddy Colony, New Tippasandra, Bengaluru, Karnataka", "addr:state": "Karnataka", "amenity": "bank", "brand": "South Indian Bank", "brand:wikidata": "Q2044973", "name": "South Indian Bank"}}, {"type": "node", "id": 8187963652, "lat": 12.9587404, "lon": 77.7476544, "tags": {"addr:full": "Wealth Branch Bangalore - Branch & ATM, 32, Whitefield Main Rd, Chaitanya Ananya, Pattandur Agrahara, Whitefield, Bengaluru, Karnataka", "addr:state": "Karnataka", "amenity": "bank", "branch": "Whitefield", "brand": "ICICI Bank", "brand:wikidata": "Q1653258", "name": "ICICI Bank", "name:kn": "\u0c90\u0cb8\u0cbf\u0c90\u0cb8\u0cbf\u0c90 \u0cac\u0ccd\u0caf\u0cbe\u0c82\u0c95\u0cc1", "short_name": "ICICI"}}, {"type": "node", "id": 8187964045, "lat": 12.9103991, "lon": 77.686055, "tags": {"addr:full": "Delta Signature 83, Nxt to Wipro Corp Office, 3, Sarjapur Main Rd, Doddakannelli, Bengaluru, Karnataka", "addr:state": "Karnataka", "amenity": "bank", "brand": "HDFC Bank", "brand:wikidata": "Q631047", "name": "HDFC Bank", "name:kn": "\u0c8e\u0c9a\u0ccd \u0ca1\u0cbf \u0c8e\u0cab\u0ccd \u0cb8\u0cbf", "short_name": "HDFC"}}, {"type": "node", "id": 8187964064, "lat": 12.9080288, "lon": 77.6930528, "tags": {"addr:full": "32, Ambalipura - Sarjapur Rd, Kaikondrahalli, Bengaluru, Karnataka", "addr:state": "Karnataka", "amenity": "bank", "branch": "Doddakanelli Branch", "brand": "Andhra Bank", "brand:wikidata": "Q2003476", "name": "Andhra Bank", "name:kn": "\u0c86\u0c82\u0ca7\u0ccd\u0cb0 \u0cac\u0ccd\u0caf\u0cbe\u0c82\u0c95\u0ccd"}}, {"type": "node", "id": 8597934815, "lat": 13.0632769, "lon": 77.6487414, "tags": {"addr:city": "bangalore", "addr:housenumber": "9/2", "addr:postcode": "560077", "addr:street": "Kothanur Mail Road", "amenity": "bank", "atm": "yes", "brand": "State Bank of India", "brand:wikidata": "Q1340361", "brand:wikipedia": "en:State Bank of India", "name": "State Bank of India", "opening_hours": "Mo-Sa 09:00-17:00", "operator": "SBI"}}, {"type": "node", "id": 8597934816, "lat": 13.0643012, "lon": 77.6492122, "tags": {"addr:city": "Bengaluru", "addr:housenumber": "89", "addr:postcode": "560077", "addr:street": "Narayanapura Main Road", "amenity": "bank", "atm": "yes", "brand": "ICICI Bank", "brand:wikidata": "Q1653258", "brand:wikipedia": "en:ICICI Bank", "description": "IFSC Code: ICIC0001850", "name": "ICICI Bank", "opening_hours": "Mo-Sa 09:30-16:30", "operator": "ICICI"}}, {"type": "node", "id": 9002707352, "lat": 12.970631, "lon": 77.7497565, "tags": {"addr:city": "Bangalore", "addr:postcode": "560066", "addr:street": "Whitefield Main Road", "amenity": "bank", "atm": "yes", "branch": "Whitefield Branch", "brand": "HDFC Bank", "brand:wikidata": "Q631047", "brand:wikipedia": "en:HDFC Bank", "check_date": "2025-06-14", "name": "HDFC Bank", "operator": "HDFC", "short_name": "HDFC"}}, {"type": "node", "id": 9318844964, "lat": 12.9386058, "lon": 77.6941216, "tags": {"addr:city": "Bengaluru", "addr:postcode": "560103", "addr:street": "Outer Ring Road", "amenity": "bank", "atm": "yes", "brand": "Axis Bank", "brand:wikidata": "Q2003549", "brand:wikipedia": "en:Axis Bank", "drive_through": "no", "level": "0", "name": "Axis Bank"}}, {"type": "node", "id": 9332469950, "lat": 12.9721915, "lon": 77.6976338, "tags": {"amenity": "bank", "brand": "State Bank of India", "brand:wikidata": "Q1340361", "brand:wikipedia": "en:State Bank of India", "name": "State Bank of India", "opening_hours": "Mo-Fr 09:30-18:00", "short_name": "SBI"}}, {"type": "node", "id": 9459853185, "lat": 12.9937325, "lon": 77.7171734, "tags": {"amenity": "bank", "atm": "yes", "brand": "State Bank of India", "brand:wikidata": "Q1340361", "name": "State Bank of India", "short_name": "SBI"}}, {"type": "node", "id": 9838632466, "lat": 12.9617173, "lon": 77.7479186, "tags": {"amenity": "bank", "brand": "Bank of India", "brand:wikidata": "Q2004439", "check_date": "2025-07-03", "name": "Bank of India", "wheelchair": "no"}}, {"type": "node", "id": 9873876458, "lat": 12.9393275, "lon": 77.7294836, "tags": {"amenity": "bank", "brand": "HDFC Bank", "brand:wikidata": "Q631047", "check_date": "2025-06-21", "name": "HDFC Bank", "short_name": "HDFC"}}, {"type": "node", "id": 9874558802, "lat": 12.955602, "lon": 77.7205278, "tags": {"amenity": "bank", "brand": "ICICI Bank", "brand:wikidata": "Q1653258", "name": "ICICI Bank", "short_name": "ICICI"}}, {"type": "node", "id": 9883496078, "lat": 12.9556071, "lon": 77.7195074, "tags": {"amenity": "bank", "atm": "yes", "brand": "HDFC Bank", "brand:wikidata": "Q631047", "check_date": "2025-10-28", "name": "HDFC Bank", "name:kn": "\u0c8e\u0c9a\u0ccd \u0ca1\u0cbf \u0c8e\u0cab\u0ccd \u0cb8\u0cbf", "short_name": "HDFC"}}, {"type": "node", "id": 9883496079, "lat": 12.9555925, "lon": 77.7197781, "tags": {"amenity": "bank", "brand": "Kotak Mahindra Bank", "brand:wikidata": "Q2040404", "name": "Kotak Mahindra Bank", "name:kn": "\u0c95\u0ccb\u0c9f\u0c95\u0ccd \u0cae\u0cb9\u0cbf\u0c82\u0ca6\u0ccd\u0cb0 \u0cac\u0ccd\u0caf\u0cbe\u0c82\u0c95\u0ccd"}}, {"type": "node", "id": 9900960153, "lat": 12.9568015, "lon": 77.7400011, "tags": {"amenity": "bank", "brand": "State Bank of India", "brand:wikidata": "Q1340361", "check_date": "2025-06-29", "name": "State Bank of India", "name:kn": "\u0c8e\u0cb8\u0ccd \u0cac\u0cbf \u0c90", "short_name": "SBI"}}, {"type": "node", "id": 9909036722, "lat": 12.9578487, "lon": 77.7016208, "tags": {"amenity": "bank", "atm": "yes", "brand": "City Union Bank", "brand:en": "City Union Bank", "brand:fa": "\u0633\u06cc\u062a\u06cc \u06cc\u0648\u0646\u06cc\u0648\u0646 \u0628\u0646\u06a9", "brand:hi": "\u0938\u093f\u091f\u0940 \u092f\u0942\u0928\u093f\u092f\u0928 \u092c\u0948\u0902\u0915", "brand:mr": "\u0938\u093f\u091f\u0940 \u092f\u0941\u0928\u093f\u092f\u0928 \u092c\u0901\u0915", "brand:ta": "\u0b9a\u0bbf\u0b9f\u0bcd\u0b9f\u0bbf \u0baf\u0bc2\u0ba9\u0bbf\u0baf\u0ba9\u0bcd \u0bb5\u0b99\u0bcd\u0b95\u0bbf", "brand:ur": "\u0633\u0679\u06cc \u06cc\u0648\u0646\u06cc\u0646 \u0628\u06cc\u0646\u06a9", "brand:website": "https://www.cityunionbank.com", "brand:wikidata": "Q2040264", "name": "City Union Bank", "name:en": "City Union Bank", "name:fa": "\u0633\u06cc\u062a\u06cc \u06cc\u0648\u0646\u06cc\u0648\u0646 \u0628\u0646\u06a9", "name:hi": "\u0938\u093f\u091f\u0940 \u092f\u0942\u0928\u093f\u092f\u0928 \u092c\u0948\u0902\u0915", "name:mr": "\u0938\u093f\u091f\u0940 \u092f\u0941\u0928\u093f\u092f\u0928 \u092c\u0901\u0915", "name:ta": "\u0b9a\u0bbf\u0b9f\u0bcd\u0b9f\u0bbf \u0baf\u0bc2\u0ba9\u0bbf\u0baf\u0ba9\u0bcd \u0bb5\u0b99\u0bcd\u0b95\u0bbf", "name:ur": "\u0633\u0679\u06cc \u06cc\u0648\u0646\u06cc\u0646 \u0628\u06cc\u0646\u06a9", "short_name": "CUB", "short_name:pa": "\u0a38\u0a40 \u0a2f\u0a42 \u0a2c\u0a40", "short_name:ur": "\u0633\u06cc \u06cc\u0648 \u0628\u06cc"}}, {"type": "node", "id": 9909062519, "lat": 12.9698339, "lon": 77.700326, "tags": {"amenity": "bank", "atm": "yes", "branch": "Karthik Nagar", "brand": "Axis Bank", "brand:wikidata": "Q2003549", "brand:wikipedia": "en:Axis Bank", "check_date": "2025-02-04", "name": "Axis Bank", "name:kn": "\u0c86\u0c95\u0ccd\u0cb8\u0cbf\u0cb8\u0ccd \u0cac\u0ccd\u0caf\u0cbe\u0c82\u0c95\u0ccd", "wheelchair": "no"}}, {"type": "node", "id": 9909083417, "lat": 12.969514, "lon": 77.7005134, "tags": {"amenity": "bank", "atm": "yes", "branch": "Karthik Nagar", "brand": "HDFC Bank", "brand:wikidata": "Q631047", "brand:wikipedia": "en:HDFC Bank", "check_date": "2025-02-04", "name": "HDFC Bank", "name:kn": "\u0c8e\u0c9a\u0ccd \u0ca1\u0cbf \u0c8e\u0cab\u0ccd \u0cb8\u0cbf", "short_name": "HDFC", "wheelchair": "no"}}, {"type": "node", "id": 10095905211, "lat": 13.0505896, "lon": 77.6217434, "tags": {"amenity": "bank", "brand": "ICICI Bank", "brand:wikidata": "Q1653258", "name": "ICICI Bank", "name:kn": "\u0c90\u0cb8\u0cbf\u0c90\u0cb8\u0cbf\u0c90 \u0cac\u0ccd\u0caf\u0cbe\u0c82\u0c95\u0cc1", "short_name": "ICICI"}}, {"type": "node", "id": 10248454958, "lat": 12.9145272, "lon": 77.6773089, "tags": {"amenity": "bank", "check_date": "2023-10-08", "name": "Fincare Small Finance Bank"}}, {"type": "node", "id": 10257576979, "lat": 12.9641842, "lon": 77.7124284, "tags": {"amenity": "bank", "brand": "Indian Bank", "brand:wikidata": "Q2003789", "brand:wikipedia": "en:Indian Bank", "name": "Indian Bank", "name:kn": "\u0c87\u0c82\u0ca1\u0cbf\u0caf\u0ca8\u0ccd \u0cac\u0ccd\u0caf\u0cbe\u0c82\u0c95\u0ccd"}}, {"type": "node", "id": 10303904024, "lat": 13.0249984, "lon": 77.6407176, "tags": {"amenity": "bank", "atm": "yes", "brand": "IDFC First Bank", "brand:wikidata": "Q22031467", "check_date": "2023-01-04", "name": "IDFC First Bank", "source": "survey"}}, {"type": "node", "id": 10540073651, "lat": 12.9560731, "lon": 77.7164372, "tags": {"addr:floor": "G", "addr:housename": "VMR Complex", "addr:street": "Varthur Road", "amenity": "bank", "branch": "Kundalahalli Gate", "brand": "Axis Bank", "brand:wikidata": "Q2003549", "check_date": "2025-10-04", "level": "0", "name": "Axis Bank", "operator": "Axis Bank", "operator:wikidata": "Q2003549"}}, {"type": "node", "id": 10651190533, "lat": 12.9822815, "lon": 77.708899, "tags": {"amenity": "bank", "brand": "HDFC Bank", "brand:wikidata": "Q631047", "name": "HDFC Bank", "operator": "HDFC Bank", "short_name": "HDFC"}}, {"type": "node", "id": 10651299049, "lat": 12.9769023, "lon": 77.7253279, "tags": {"amenity": "bank", "brand": "ICICI Bank", "brand:wikidata": "Q1653258", "name": "ICICI Bank", "short_name": "ICICI"}}, {"type": "node", "id": 10651299081, "lat": 12.9759386, "lon": 77.7266593, "tags": {"amenity": "bank", "brand": "Standard Chartered", "brand:wikidata": "Q548278", "name": "Standard Chartered"}}, {"type": "node", "id": 10731130837, "lat": 13.0641829, "lon": 77.6486061, "tags": {"amenity": "bank", "brand": "Axis Bank", "brand:wikidata": "Q2003549", "name": "Axis Bank"}}, {"type": "node", "id": 10731175593, "lat": 13.0228495, "lon": 77.6457323, "tags": {"amenity": "bank", "brand": "Indian Bank", "brand:wikidata": "Q2003789", "name": "Indian Bank", "name:kn": "\u0c87\u0c82\u0ca1\u0cbf\u0caf\u0ca8\u0ccd \u0cac\u0ccd\u0caf\u0cbe\u0c82\u0c95\u0ccd"}}, {"type": "node", "id": 10760918381, "lat": 12.9560749, "lon": 77.7216065, "tags": {"amenity": "bank", "brand": "IDFC First Bank", "brand:wikidata": "Q22031467", "check_date": "2025-09-27", "name": "IDFC First Bank", "operator": "IDFC First Bank"}}, {"type": "node", "id": 10967712205, "lat": 12.9606019, "lon": 77.6493201, "tags": {"amenity": "bank", "brand": "Axis Bank", "brand:wikidata": "Q2003549", "brand:wikipedia": "en:Axis Bank", "name": "Axis Bank", "name:kn": "\u0c86\u0c95\u0ccd\u0cb8\u0cbf\u0cb8\u0ccd \u0cac\u0ccd\u0caf\u0cbe\u0c82\u0c95\u0ccd", "survey:date": "2023-06-10"}}, {"type": "node", "id": 11212375969, "lat": 12.9701767, "lon": 77.6439752, "tags": {"amenity": "bank", "brand": "Standard Chartered", "brand:wikidata": "Q548278", "check_date": "2023-09-23", "name": "Standard Chartered"}}, {"type": "node", "id": 11248323749, "lat": 12.9143124, "lon": 77.6774136, "tags": {"amenity": "bank", "brand": "IndusInd Bank", "brand:wikidata": "Q2040323", "check_date": "2023-10-08", "name": "IndusInd Bank", "name:kn": "\u0c87\u0c82\u0ca1\u0cb8\u0ccd\u0c87\u0c82\u0ca1\u0ccd"}}, {"type": "node", "id": 11248323750, "lat": 12.9144877, "lon": 77.6774217, "tags": {"amenity": "bank", "brand": "HDFC Bank", "brand:wikidata": "Q631047", "check_date": "2023-10-08", "name": "HDFC Bank", "name:kn": "\u0c8e\u0c9a\u0ccd \u0ca1\u0cbf \u0c8e\u0cab\u0ccd \u0cb8\u0cbf", "short_name": "HDFC", "wheelchair": "no"}}, {"type": "node", "id": 11290399369, "lat": 13.0236624, "lon": 77.7613829, "tags": {"amenity": "bank", "atm": "yes", "branch": "Bank & ATM", "brand": "State Bank of India", "brand:wikidata": "Q1340361", "name": "State Bank of India", "short_name": "SBI", "wheelchair": "yes"}}, {"type": "node", "id": 11493951523, "lat": 12.9765318, "lon": 77.641257, "tags": {"amenity": "bank", "brand": "Bank of Baroda", "brand:wikidata": "Q2003797", "check_date": "2024-01-06", "name": "Bank of Baroda", "name:kn": "\u0cac\u0ccd\u0caf\u0cbe\u0c82\u0c95\u0ccd \u0c86\u0cab\u0ccd \u0cac\u0cb0\u0ccb\u0ca1"}}, {"type": "node", "id": 11535639642, "lat": 12.9410004, "lon": 77.6958172, "tags": {"amenity": "bank", "brand": "State Bank of India", "brand:wikidata": "Q1340361", "check_date": "2024-01-21", "name": "State Bank of India", "name:kn": "\u0c8e\u0cb8\u0ccd \u0cac\u0cbf \u0c90", "short_name": "SBI", "source": "survey"}}, {"type": "node", "id": 11535639644, "lat": 12.9408887, "lon": 77.6957776, "tags": {"amenity": "bank", "brand": "HDFC Bank", "brand:wikidata": "Q631047", "check_date": "2024-01-21", "name": "HDFC Bank", "short_name": "HDFC", "source": "survey"}}, {"type": "node", "id": 11535639646, "lat": 12.9555082, "lon": 77.7005091, "tags": {"amenity": "bank", "brand": "Union Bank of India", "brand:wikidata": "Q2004078", "check_date": "2024-01-21", "name": "Union Bank of India", "name:kn": "\u0caf\u0cc2\u0ca8\u0cbf\u0caf\u0ca8\u0ccd \u0cac\u0ccd\u0caf\u0cbe\u0c82\u0c95\u0ccd", "source": "survey"}}, {"type": "node", "id": 11662119197, "lat": 13.0488055, "lon": 77.645685, "tags": {"amenity": "bank", "brand": "CSB Bank", "brand:wikidata": "Q5053244", "check_date": "2024-02-25", "name": "CSB Bank", "official_name": "Catholic Syrian Bank"}}, {"type": "node", "id": 11696225386, "lat": 12.9886788, "lon": 77.6895091, "tags": {"amenity": "bank", "brand": "RBL Bank", "brand:wikidata": "Q13120398", "check_date": "2024-03-06", "drive_through": "no", "name": "RBL Bank", "opening_hours": "Mo-Fr 09:30-18:30; Sa 09:30-16:30; Su,Sa[2,4],PH off", "source": "survey", "wheelchair": "no"}}, {"type": "node", "id": 11697908101, "lat": 12.9594511, "lon": 77.6860938, "tags": {"amenity": "bank"}}, {"type": "node", "id": 11697908106, "lat": 12.95897, "lon": 77.6847734, "tags": {"amenity": "bank", "brand": "State Bank of India", "brand:wikidata": "Q1340361", "name": "State Bank of India", "short_name": "SBI"}}, {"type": "node", "id": 11738557021, "lat": 12.9584688, "lon": 77.7155513, "tags": {"amenity": "bank", "atm": "yes", "brand": "Equitas Small Finance Bank", "brand:wikidata": "Q29467249", "check_date": "2024-03-17", "name": "Equitas Small Finance Bank"}}, {"type": "node", "id": 12046492138, "lat": 13.0191561, "lon": 77.6433478, "tags": {"amenity": "bank", "brand": "Union Bank of India", "brand:wikidata": "Q2004078", "check_date": "2024-07-10", "name": "Union Bank of India"}}, {"type": "node", "id": 12050487421, "lat": 12.9641488, "lon": 77.7139047, "tags": {"amenity": "bank", "atm": "yes", "brand": "Kotak Mahindra Bank", "brand:wikidata": "Q2040404", "check_date": "2024-07-13", "name": "Kotak Mahindra Bank", "wheelchair": "no"}}, {"type": "node", "id": 12050489478, "lat": 12.96643, "lon": 77.7141213, "tags": {"amenity": "bank", "brand": "IDFC First Bank", "brand:wikidata": "Q22031467", "check_date": "2024-07-13", "name": "IDFC First Bank"}}, {"type": "node", "id": 12196873317, "lat": 12.9422877, "lon": 77.7472788, "tags": {"addr:housenumber": "1/1A", "addr:street": "Varthur Main Road", "amenity": "bank", "branch": "Varthur", "brand": "Canara Bank", "brand:en": "Canara Bank", "brand:hi": "\u0915\u0947\u0928\u0930\u093e \u092c\u0948\u0902\u0915", "brand:kn": "\u0c95\u0cc6\u0ca8\u0cb0\u0cbe \u0cac\u0ccd\u0caf\u0cbe\u0c82\u0c95\u0ccd", "brand:pa": "\u0a15\u0a47\u0a28\u0a30\u0a3e \u0a2c\u0a48\u0a02\u0a15", "brand:pnb": "\u06a9\u06cc\u0646\u0631\u0627 \u0628\u06cc\u0646\u06a9", "brand:ur": "\u06a9\u06cc\u0646\u0631\u0627 \u0628\u06cc\u0646\u06a9", "brand:wikidata": "Q2003777", "check_date": "2025-08-26", "description": "a bank outlet", "name": "Canara Bank", "name:en": "Canara Bank", "name:hi": "\u0915\u0947\u0928\u0930\u093e \u092c\u0948\u0902\u0915", "name:kn": "\u0c95\u0cc6\u0ca8\u0cb0\u0cbe \u0cac\u0ccd\u0caf\u0cbe\u0c82\u0c95\u0ccd", "name:pa": "\u0a15\u0a47\u0a28\u0a30\u0a3e \u0a2c\u0a48\u0a02\u0a15", "name:pnb": "\u06a9\u06cc\u0646\u0631\u0627 \u0628\u06cc\u0646\u06a9", "name:ur": "\u06a9\u06cc\u0646\u0631\u0627 \u0628\u06cc\u0646\u06a9", "website": "https://canarabank.com/", "wheelchair": "yes"}}, {"type": "node", "id": 12201427691, "lat": 12.9414234, "lon": 77.7473103, "tags": {"amenity": "bank", "brand": "Bank of Baroda", "brand:wikidata": "Q2003797", "check_date": "2025-08-06", "name": "Bank of Baroda", "website": "https://bankofbaroda.in", "wheelchair": "limited"}}, {"type": "node", "id": 12211579364, "lat": 12.9430815, "lon": 77.7472952, "tags": {"amenity": "bank", "brand": "State Bank of India", "brand:wikidata": "Q1340361", "check_date": "2025-08-09", "name": "State Bank of India", "short_name": "SBI"}}, {"type": "node", "id": 12270747464, "lat": 12.9128889, "lon": 77.6767556, "tags": {"amenity": "bank", "brand": "Indian Bank", "brand:wikidata": "Q2003789", "check_date": "2024-10-20", "name": "Indian Bank"}}, {"type": "node", "id": 12366562183, "lat": 12.96868, "lon": 77.6498334, "tags": {"amenity": "bank", "atm": "yes", "brand": "Ujjivan Small Finance Bank", "brand:wikidata": "Q42529272", "check_date": "2024-11-23", "drive_through": "no", "name": "Ujjivan Small Finance Bank"}}, {"type": "node", "id": 12469425111, "lat": 13.067341, "lon": 77.6352334, "tags": {"amenity": "bank", "branch": "Thanisandra", "fixme": "location", "name": "Federal Bank"}}, {"type": "node", "id": 12506480655, "lat": 12.9532625, "lon": 77.7151999, "tags": {"amenity": "bank", "atm": "yes", "brand": "HDFC Bank", "brand:wikidata": "Q631047", "name": "HDFC Bank", "name:kn": "\u0c8e\u0c9a\u0ccd \u0ca1\u0cbf \u0c8e\u0cab\u0ccd \u0cb8\u0cbf", "short_name": "HDFC"}}, {"type": "node", "id": 12506886789, "lat": 12.9119183, "lon": 77.6825843, "tags": {"addr:city": "Bangalore", "addr:housenumber": "No - 254", "addr:postcode": "560035", "addr:street": "Sarjapur - Marathahalli Rd, near WIPRO Corporate Office, Doddakannelli", "amenity": "bank", "brand": "Bank of Baroda", "brand:wikidata": "Q2003797", "name": "Bank of Baroda"}}, {"type": "node", "id": 12526053200, "lat": 12.9739222, "lon": 77.6467299, "tags": {"addr:city": "Bengaluru", "addr:postcode": "560038", "addr:street": "6th Main Road, Defence Colony, Indiranagar", "amenity": "bank", "brand": "IDBI Bank", "brand:wikidata": "Q3633485", "name": "IDBI Bank", "short_name": "IDBI"}}, {"type": "node", "id": 12536352046, "lat": 12.9943405, "lon": 77.6854697, "tags": {"amenity": "bank", "brand": "ICICI Bank", "brand:wikidata": "Q1653258", "check_date": "2025-01-27", "name": "ICICI Bank", "short_name": "ICICI", "source": "survey"}}, {"type": "node", "id": 12536352047, "lat": 12.9961959, "lon": 77.6840874, "tags": {"amenity": "bank", "brand": "HDFC Bank", "brand:wikidata": "Q631047", "check_date": "2025-01-27", "name": "HDFC Bank", "short_name": "HDFC", "source": "survey", "wheelchair": "yes"}}, {"type": "node", "id": 12538036889, "lat": 13.0276892, "lon": 77.6624314, "tags": {"addr:city": "Bengaluru", "addr:district": "Bengaluru Urban", "addr:postcode": "560043", "addr:street": "Horamavu Main Rd, Ashirvad Colony, Horamavu", "amenity": "bank", "brand": "State Bank of India", "brand:wikidata": "Q1340361", "name": "State Bank of India", "short_name": "SBI"}}, {"type": "node", "id": 12540842178, "lat": 13.0583517, "lon": 77.6434712, "tags": {"addr:city": "Bengaluru", "addr:postcode": "560077", "addr:street": "K Narayanapura", "amenity": "bank", "brand": "South Indian Bank", "brand:wikidata": "Q2044973", "name": "South Indian Bank"}}, {"type": "node", "id": 12860980665, "lat": 12.9592471, "lon": 77.7462681, "tags": {"amenity": "bank", "brand": "HDFC Bank", "brand:wikidata": "Q631047", "check_date": "2025-05-24", "name": "HDFC Bank", "short_name": "HDFC"}}, {"type": "node", "id": 12918683669, "lat": 12.9922597, "lon": 77.6600575, "tags": {"air_conditioning": "yes", "amenity": "bank", "brand": "HDFC Bank", "brand:wikidata": "Q631047", "check_date": "2025-06-16", "name": "HDFC Bank", "short_name": "HDFC", "source": "survey"}}, {"type": "node", "id": 12919948119, "lat": 13.0120327, "lon": 77.6671163, "tags": {"addr:floor": "G", "amenity": "bank", "atm": "yes", "brand": "Union Bank of India", "brand:wikidata": "Q2004078", "check_date": "2025-06-17", "currency:INR": "yes", "drive_through": "no", "level": "0", "name": "Union Bank of India", "name:en": "Union Bank of India"}}, {"type": "node", "id": 12942130592, "lat": 12.9393991, "lon": 77.7291793, "tags": {"amenity": "bank", "brand": "Canara Bank", "brand:en": "Canara Bank", "brand:hi": "\u0915\u0947\u0928\u0930\u093e \u092c\u0948\u0902\u0915", "brand:kn": "\u0c95\u0cc6\u0ca8\u0cb0\u0cbe \u0cac\u0ccd\u0caf\u0cbe\u0c82\u0c95\u0ccd", "brand:pa": "\u0a15\u0a47\u0a28\u0a30\u0a3e \u0a2c\u0a48\u0a02\u0a15", "brand:pnb": "\u06a9\u06cc\u0646\u0631\u0627 \u0628\u06cc\u0646\u06a9", "brand:ur": "\u06a9\u06cc\u0646\u0631\u0627 \u0628\u06cc\u0646\u06a9", "brand:wikidata": "Q2003777", "check_date": "2025-06-21", "name": "Canara Bank", "name:en": "Canara Bank", "name:hi": "\u0915\u0947\u0928\u0930\u093e \u092c\u0948\u0902\u0915", "name:kn": "\u0c95\u0cc6\u0ca8\u0cb0\u0cbe \u0cac\u0ccd\u0caf\u0cbe\u0c82\u0c95\u0ccd", "name:pa": "\u0a15\u0a47\u0a28\u0a30\u0a3e \u0a2c\u0a48\u0a02\u0a15", "name:pnb": "\u06a9\u06cc\u0646\u0631\u0627 \u0628\u06cc\u0646\u06a9", "name:ur": "\u06a9\u06cc\u0646\u0631\u0627 \u0628\u06cc\u0646\u06a9"}}, {"type": "node", "id": 12972973409, "lat": 12.9641837, "lon": 77.7486991, "tags": {"amenity": "bank", "brand": "Kotak Mahindra Bank", "brand:wikidata": "Q2040404", "check_date": "2025-07-03", "name": "Kotak Mahindra Bank"}}, {"type": "node", "id": 12977423653, "lat": 12.9689452, "lon": 77.7014681, "tags": {"amenity": "bank", "brand": "IDFC First Bank", "brand:wikidata": "Q22031467", "check_date": "2025-07-04", "name": "IDFC First Bank", "wheelchair": "no"}}, {"type": "node", "id": 12997705750, "lat": 12.9312047, "lon": 77.7417724, "tags": {"amenity": "bank", "brand": "Kotak Mahindra Bank", "brand:wikidata": "Q2040404", "name": "Kotak Mahindra Bank"}}, {"type": "node", "id": 13022417935, "lat": 12.9844913, "lon": 77.7495495, "tags": {"amenity": "bank", "brand": "Bank of Baroda", "brand:wikidata": "Q2003797", "check_date": "2025-07-25", "level": "0", "name": "Bank of Baroda", "operator": "Bank of Baroda", "operator:wikidata": "Q2003797"}}, {"type": "node", "id": 13022417957, "lat": 12.9844842, "lon": 77.749381, "tags": {"addr:housename": "SDR Tower", "addr:street": "Whitefield Road", "amenity": "bank", "check_date": "2025-07-25", "level": "2", "name": "Tata Capital"}}, {"type": "node", "id": 13043372717, "lat": 12.9389445, "lon": 77.7244923, "tags": {"amenity": "bank", "brand": "ICICI Bank", "brand:wikidata": "Q1653258", "name": "ICICI Bank", "short_name": "ICICI"}}, {"type": "node", "id": 13043372721, "lat": 12.9379681, "lon": 77.7202269, "tags": {"amenity": "bank", "brand": "HDFC Bank", "brand:wikidata": "Q631047", "name": "HDFC Bank", "short_name": "HDFC"}}, {"type": "node", "id": 13049444667, "lat": 12.9641072, "lon": 77.7120056, "tags": {"amenity": "bank", "brand": "ICICI Bank", "brand:wikidata": "Q1653258", "check_date": "2025-08-05", "name": "ICICI Bank", "short_name": "ICICI"}}, {"type": "node", "id": 13063788973, "lat": 12.923879, "lon": 77.6728478, "tags": {"amenity": "bank", "brand": "Yes Bank", "brand:wikidata": "Q2040394", "name": "Yes Bank"}}, {"type": "node", "id": 13063807386, "lat": 12.9238621, "lon": 77.6727962, "tags": {"amenity": "bank", "brand": "HDFC Bank", "brand:wikidata": "Q631047", "name": "HDFC Bank", "short_name": "HDFC"}}, {"type": "node", "id": 13065353900, "lat": 12.8987232, "lon": 77.715582, "tags": {"amenity": "bank", "brand": "Federal Bank", "brand:wikidata": "Q2044983", "name": "Federal Bank"}}, {"type": "node", "id": 13072706614, "lat": 13.0047791, "lon": 77.6568374, "tags": {"addr:floor": "G", "amenity": "bank", "atm": "yes", "brand": "Canara Bank", "brand:en": "Canara Bank", "brand:hi": "\u0915\u0947\u0928\u0930\u093e \u092c\u0948\u0902\u0915", "brand:kn": "\u0c95\u0cc6\u0ca8\u0cb0\u0cbe \u0cac\u0ccd\u0caf\u0cbe\u0c82\u0c95\u0ccd", "brand:pa": "\u0a15\u0a47\u0a28\u0a30\u0a3e \u0a2c\u0a48\u0a02\u0a15", "brand:pnb": "\u06a9\u06cc\u0646\u0631\u0627 \u0628\u06cc\u0646\u06a9", "brand:ur": "\u06a9\u06cc\u0646\u0631\u0627 \u0628\u06cc\u0646\u06a9", "brand:wikidata": "Q2003777", "check_date": "2025-08-15", "drive_through": "no", "level": "0", "name": "Canara Bank", "name:en": "Canara Bank", "name:hi": "\u0915\u0947\u0928\u0930\u093e \u092c\u0948\u0902\u0915", "name:kn": "\u0c95\u0cc6\u0ca8\u0cb0\u0cbe \u0cac\u0ccd\u0caf\u0cbe\u0c82\u0c95\u0ccd", "name:pa": "\u0a15\u0a47\u0a28\u0a30\u0a3e \u0a2c\u0a48\u0a02\u0a15", "name:pnb": "\u06a9\u06cc\u0646\u0631\u0627 \u0628\u06cc\u0646\u06a9", "name:ur": "\u06a9\u06cc\u0646\u0631\u0627 \u0628\u06cc\u0646\u06a9"}}, {"type": "node", "id": 13089232588, "lat": 13.004728, "lon": 77.660252, "tags": {"addr:floor": "G", "amenity": "bank", "check_date": "2025-08-22", "level": "0", "name": "Utkarsh Small Finance Bank"}}, {"type": "node", "id": 13100714480, "lat": 13.0052929, "lon": 77.6597115, "tags": {"addr:floor": "G", "amenity": "bank", "brand": "Yes Bank", "brand:wikidata": "Q2040394", "check_date": "2025-08-27", "level": "0", "name": "Yes Bank", "name:en": "Yes Bank"}}, {"type": "node", "id": 13192032433, "lat": 12.9862894, "lon": 77.7365167, "tags": {"addr:floor": "-1", "amenity": "bank", "brand": "HDFC Bank", "brand:wikidata": "Q631047", "check_date": "2025-10-04", "name": "HDFC Bank", "short_name": "HDFC"}}, {"type": "way", "id": 308854494, "nodes": [3141453331, 3141453332, 3141453333, 3141453334, 3141453331], "tags": {"addr:city": "bengaluru", "addr:district": "Bangalore Urban", "addr:housenumber": "89/5", "addr:postcode": "560103", "addr:street": "Bellandur Main Rd, near BBMP Office, Bellandur", "amenity": "bank", "atm": "yes", "brand": "Karnataka Bank", "brand:wikidata": "Q2042632", "building": "yes", "building:levels": "1", "name": "Karnataka Bank", "name:kn": "\u0cac\u0cc3 \u0cac\u0cc6\u0c82 \u0cae \u0caa\u0cbe"}}, {"type": "way", "id": 310345243, "nodes": [3157670232, 3157670233, 3157670234, 3157670237, 3157670232], "tags": {"amenity": "bank", "brand": "ICICI Bank", "brand:wikidata": "Q1653258", "building": "yes", "name": "ICICI Bank", "short_name": "ICICI"}}, {"type": "way", "id": 346694945, "nodes": [3532248610, 3532248605, 3532248578, 3532248586, 3532248610], "tags": {"amenity": "bank", "atm": "yes", "brand": "Karnataka Bank", "brand:wikidata": "Q2042632", "building": "yes", "name": "Karnataka Bank", "name:kn": "\u0c95\u0cb0\u0ccd\u0ca8\u0cbe\u0c9f\u0c95 \u0cac\u0ccd\u0caf\u0cbe\u0c82\u0c95\u0ccd"}}, {"type": "way", "id": 672510192, "nodes": [6297708387, 6297708388, 6297708389, 6297708390, 6297708387], "tags": {"amenity": "bank", "brand": "Indian Bank", "brand:wikidata": "Q2003789", "building": "yes", "check_date": "2025-05-08", "name": "Indian Bank", "name:kn": "\u0c87\u0c82\u0ca1\u0cbf\u0caf\u0ca8\u0ccd \u0cac\u0ccd\u0caf\u0cbe\u0c82\u0c95\u0ccd", "wheelchair": "no"}}, {"type": "way", "id": 799457103, "nodes": [7476788463, 7476788464, 7476788465, 7476788466, 7476788463], "tags": {"amenity": "bank", "atm": "yes", "brand": "Canara Bank", "brand:en": "Canara Bank", "brand:hi": "\u0915\u0947\u0928\u0930\u093e \u092c\u0948\u0902\u0915", "brand:kn": "\u0c95\u0cc6\u0ca8\u0cb0\u0cbe \u0cac\u0ccd\u0caf\u0cbe\u0c82\u0c95\u0ccd", "brand:pa": "\u0a15\u0a47\u0a28\u0a30\u0a3e \u0a2c\u0a48\u0a02\u0a15", "brand:pnb": "\u06a9\u06cc\u0646\u0631\u0627 \u0628\u06cc\u0646\u06a9", "brand:ur": "\u06a9\u06cc\u0646\u0631\u0627 \u0628\u06cc\u0646\u06a9", "brand:wikidata": "Q2003777", "brand:wikipedia": "en:Canara Bank", "brand:wikipedia:pa": "\u0a15\u0a47\u0a28\u0a30\u0a3e \u0a2c\u0a48\u0a02\u0a15", "building": "yes", "name": "Canara Bank", "name:en": "Canara Bank", "name:hi": "\u0915\u0947\u0928\u0930\u093e \u092c\u0948\u0902\u0915", "name:kn": "\u0c95\u0cc6\u0ca8\u0cb0\u0cbe \u0cac\u0ccd\u0caf\u0cbe\u0c82\u0c95\u0ccd", "name:pa": "\u0a15\u0a47\u0a28\u0a30\u0a3e \u0a2c\u0a48\u0a02\u0a15", "name:pnb": "\u06a9\u06cc\u0646\u0631\u0627 \u0628\u06cc\u0646\u06a9", "name:ur": "\u06a9\u06cc\u0646\u0631\u0627 \u0628\u06cc\u0646\u06a9"}}]}